,85,18,283,49,68,26,061,45,1*72
$GLGSV,2,1,07,73,29,200,47,75,23,321,45,69,29,118,43,84,47,343,44,3*72
$GLGSV,2,2,07,83,17,053,45,85,18,283,45,68,26,061,47,3*45
$GBGSV,5,1,18,01,43,137,43,02,35,230,40,03,51,195,45,07,85,013,47,1*7E
$GBGSV,5,2,18,08,54,203,43,10,71,319,45,12,36,299,43,13,40,208,45,1*74
$GBGSV,5,3,18,22,37,134,45,24,35,266,45,26,26,207,41,38,67,199,47,1*71
$GBGSV,5,4,18,40,72,062,48,59,45,144,46,60,34,236,42,04,33,120,38,1*75
$GBGSV,5,5,18,19,31,068,45,44,54,324,49,1*73
$GBGSV,5,1,18,01,43,137,43,02,35,230,41,03,51,195,45,07,85,013,48,8*79
$GBGSV,5,2,18,08,54,203,47,10,71,319,47,12,36,299,47,13,40,208,43,8*79
$GBGSV,5,3,18,22,37,134,46,24,35,266,47,26,26,207,43,38,67,199,50,8*7D
$GBGSV,5,4,18,40,72,062,51,59,45,144,47,60,34,236,44,04,33,120,39,8*72
$GBGSV,5,5,18,19,31,068,46,44,54,324,51,8*70
$GBGSV,3,1,09,01,43,137,45,02,35,230,44,03,51,195,48,07,85,013,49,B*0A
$GBGSV,3,2,09,08,54,203,47,10,71,319,49,12,36,299,48,13,40,208,44,B*03
$GBGSV,3,3,09,04,33,120,41,B*3E
$GAGSV,2,1,06,02,42,169,47,15,37,262,44,27,21,318,42,30,66,272,49,1*7C
$GAGSV,2,2,06,34,65,348,49,36,25,047,44,1*74
$GAGSV,2,1,06,02,42,169,49,15,37,262,47,27,21,318,44,30,66,272,51,2*7D
$GAGSV,2,2,06,34,65,348,51,36,25,047,44,2*7E
$GAGSV,2,1,06,02,42,169,45,15,37,262,44,27,21,318,41,30,66,272,47,7*75
$GAGSV,2,2,06,34,65,348,48,36,25,047,42,7*75
$GNGGA,072128.00,3207.95443470,N,11841.73944254,E,1,28,0.6,7.4036,M,1.7756,M,,*4D
$GNRMC,072128.00,A,3207.95443470,N,11841.73944254,E,0.003,258.8,030424,6.1,W,A,C*53
#HEADINGA,COM3,9984,92.0,FINE,2308,285706.000,601921,15,18;SOL_COMPUTED,NARROW_INT,1.9940,173.8126,-0.0401,0.0000,0.1305,0.3027,"999",46,38,38,35,0,01,3,f3*2896aafc
$GPGSV,2,1,08,03,37,050,45,06,49,275,47,14,51,178,44,17,64,029,47,1*67
$GPGSV,2,2,08,19,53,332,47,22,71,217,46,04,09,100,32,11,17,251,29,1*65
$GPGSV,2,1,08,03,37,050,43,06,49,275,45,14,51,178,47,17,64,029,46,4*64
$GPGSV,2,2,08,19,53,332,44,22,71,217,44,04,09,100,30,11,17,251,33,4*68
$GPGSV,2,1,05,03,37,050,47,06,49,275,50,14,51,178,50,04,09,100,31,8*60
$GPGSV,2,2,05,11,17,251,34,8*5F
$GLGSV,2,1,08,74,49,256,49,73,29,200,49,75,23,321,45,69,29,118,45,1*7E
$GLGSV,2,2,08,84,47,343,40,83,17,053,38,85,18,283,49,68,26,061,45,1*73
$GLGSV,2,1,07,73,29,200,47,75,23,321,45,69,29,118,42,84,47,343,44,3*73
$GLGSV,2,2,07,83,17,053,45,85,18,283,45,68,26,061,47,3*45
$GBGSV,5,1,18,01,43,137,43,02,35,230,39,03,51,195,45,07,85,013,47,1*70
$GBGSV,5,2,18,08,54,203,43,10,71,319,45,12,36,299,43,13,40,208,44,1*75
$GBGSV,5,3,18,22,37,134,44,24,35,266,45,26,26,207,41,38,67,199,47,1*70
$GBGSV,5,4,18,40,72,062,48,59,45,144,46,60,34,236,42,04,33,120,38,1*75
$GBGSV,5,5,18,19,31,068,45,44,54,324,49,1*73
$GBGSV,5,1,18,01,43,137,43,02,35,230,41,03,51,195,45,07,85,013,48,8*79
$GBGSV,5,2,18,08,54,203,46,10,71,319,46,12,36,299,47,13,40,208,43,8*79
$GBGSV,5,3,18,22,37,134,46,24,35,266,47,26,26,207,43,38,67,199,50,8*7D
$GBGSV,5,4,18,40,72,062,50,59,45,144,47,60,34,236,44,04,33,120,39,8*73
$GBGSV,5,5,18,19,31,068,46,44,54,324,50,8*71
$GBGSV,3,1,09,01,43,137,45,02,35,230,44,03,51,195,48,07,85,013,49,B*0A
$GBGSV,3,2,09,08,54,203,47,10,71,319,49,12,36,299,48,13,40,208,44,B*03
$GBGSV,3,3,09,04,33,120,40,B*3F
$GAGSV,2,1,06,02,42,169,46,15,37,262,44,27,21,318,41,30,66,272,49,1*7E
$GAGSV,2,2,06,34,65,348,49,36,25,047,44,1*74
$GAGSV,2,1,06,02,42,169,49,15,37,262,47,27,21,318,44,30,66,272,51,2*7D
$GAGSV,2,2,06,34,65,348,51,36,25,047,44,2*7E
$GAGSV,2,1,06,02,42,169,45,15,37,262,43,27,21,318,41,30,66,272,47,7*72
$GAGSV,2,2,06,34,65,348,48,36,25,047,42,7*75
$GNGGA,072129.00,3207.95443463,N,11841.73944159,E,1,28,0.6,7.4022,M,1.7756,M,,*45
$GNRMC,072129.00,A,3207.95443463,N,11841.73944159,E,0.004,238.8,030424,6.1,W,A,C*5F
#HEADINGA,COM3,9984,92.0,FINE,2308,285707.000,602921,15,18;SOL_COMPUTED,NARROW_INT,1.9940,173.8124,-0.0405,0.0000,0.1306,0.3042,"999",46,38,38,35,0,01,3,f3*90b8a2e9
$GPGSV,2,1,08,03,37,050,45,06,49,275,47,14,51,178,45,17,64,029,47,1*66
$GPGSV,2,2,08,19,53,332,47,22,71,217,46,04,09,100,34,11,17,251,30,1*6B
$GPGSV,2,1,08,03,37,050,43,06,49,275,45,14,51,178,47,17,64,029,46,4*64
$GPGSV,2,2,08,19,53,332,44,22,71,217,44,04,09,100,33,11,17,251,33,4*6B
$GPGSV,2,1,05,03,37,050,47,06,49,275,49,14,51,178,50,04,09,100,34,8*6D
$GPGSV,2,2,05,11,17,251,34,8*5F
$GLGSV,2,1,08,74,49,256,48,73,29,200,49,75,23,321,44,69,29,118,42,1*79
$GLGSV,2,2,08,84,47,343,41,83,17,053,38,85,18,283,48,68,26,061,45,1*73
$GLGSV,2,1,07,73,29,200,46,75,23,321,45,69,29,118,42,84,47,343,44,3*72
$GLGSV,2,2,07,83,17,053,45,85,18,283,45,68,26,061,47,3*45
$GBGSV,5,1,18,01,43,137,41,02,35,230,39,03,51,195,45,07,85,014,47,1*75
$GBGSV,5,2,18,08,54,203,43,10,71,319,45,12,36,299,43,13,40,208,44,1*75
$GBGSV,5,3,18,22,37,134,43,24,35,266,45,26,26,207,41,38,67,199,47,1*77
$GBGSV,5,4,18,40,72,062,48,59,45,144,45,60,34,236,42,04,33,120,35,1*7B
$GBGSV,5,5,18,19,31,068,44,44,54,324,49,1*72
$GBGSV,5,1,18,01,43,137,42,02,35,230,41,03,51,195,45,07,85,014,48,8*7F
$GBGSV,5,2,18,08,54,203,47,10,71,319,47,12,36,299,47,13,40,208,43,8*79
$GBGSV,5,3,18,22,37,134,45,24,35,266,47,26,26,207,42,38,67,199,50,8*7F
$GBGSV,5,4,18,40,72,062,50,59,45,144,46,60,34,236,44,04,33,120,38,8*73
$GBGSV,5,5,18,19,31,068,46,44,54,324,50,8*71
$GBGSV,3,1,09,01,43,137,44,02,35,230,45,03,51,195,48,07,85,014,49,B*0D
$GBGSV,3,2,09,08,54,203,48,10,71,319,49,12,36,299,48,13,40,208,44,B*0C
$GBGSV,3,3,09,04,33,120,39,B*31
$GAGSV,2,1,06,02,42,169,46,15,37,263,44,27,21,318,41,30,66,271,49,1*7C
$GAGSV,2,2,06,34,65,348,49,36,25,047,44,1*74
$GAGSV,2,1,06,02,42,169,49,15,37,263,47,27,21,318,44,30,66,271,51,2*7F
$GAGSV,2,2,06,34,65,348,51,36,25,047,44,2*7E
$GAGSV,2,1,06,02,42,169,45,15,37,263,44,27,21,318,41,30,66,271,47,7*77
$GAGSV,2,2,06,34,65,348,48,36,25,047,42,7*75
$GNGGA,072130.00,3207.95443458,N,11841.73944079,E,1,28,0.6,7.4009,M,1.7756,M,,*4F
$GNRMC,072130.00,A,3207.95443458,N,11841.73944079,E,0.003,238.1,030424,6.1,W,A,C*52
#HEADINGA,COM3,9984,92.0,FINE,2308,285708.000,603921,15,18;SOL_COMPUTED,NARROW_INT,1.9940,173.8122,-0.0409,0.0000,0.1309,0.3050,"999",46,38,38,35,0,01,3,f3*85fe0ebb
$GPGSV,2,1,08,03,37,050,45,06,49,275,47,14,51,178,45,17,64,029,47,1*66
$GPGSV,2,2,08,19,53,332,47,22,71,217,45,04,09,100,33,11,17,251,30,1*6F
$GPGSV,2,1,08,03,37,050,43,06,49,275,45,14,51,178,47,17,64,029,46,4*64
$GPGSV,2,2,08,19,53,332,44,22,71,217,44,04,09,100,33,11,17,251,33,4*6B
$GPGSV,2,1,05,03,37,050,47,06,49,275,49,14,51,178,49,04,09,100,34,8*65
$GPGSV,2,2,05,11,17,251,34,8*5F
$GLGSV,2,1,08,74,49,256,48,73,29,200,49,75,23,321,44,69,29,118,49,1*72
$GLGSV,2,2,08,84,47,343,41,83,17,053,38,85,18,283,48,68,26,061,45,1*73
$GLGSV,2,1,07,73,29,200,46,75,23,321,44,69,29,118,43,84,47,343,45,3*73
$GLGSV,2,2,07,83,17,053,45,85,18,283,45,68,26,061,46,3*44
$GBGSV,5,1,18,01,43,137,41,02,35,230,39,03,51,195,45,07,85,014,47,1*75
$GBGSV,5,2,18,08,54,203,43,10,71,319,45,12,36,299,43,13,40,208,44,1*75
$GBGSV,5,3,18,22,37,134,43,24,35,266,46,26,26,207,42,38,67,199,47,1*77
$GBGSV,5,4,18,40,72,062,48,59,45,144,44,60,34,236,42,04,33,120,39,1*76
$GBGSV,5,5,18,19,31,068,44,44,54,324,49,1*72
$GBGSV,5,1,18,01,43,137,42,02,35,230,41,03,51,195,45,07,85,014,48,8*7F
$GBGSV,5,2,18,08,54,203,47,10,71,319,47,12,36,299,47,13,40,208,43,8*79
$GBGSV,5,3,18,22,37,134,46,24,35,266,47,26,26,207,43,38,67,199,50,8*7D
$GBGSV,5,4,18,40,72,062,50,59,45,144,45,60,34,236,44,04,33,120,38,8*70
$GBGSV,5,5,18,19,31,068,46,44,54,324,51,8*70
$GBGSV,3,1,09,01,43,137,44,02,35,230,44,03,51,195,48,07,85,014,49,B*0C
$GBGSV,3,2,09,08,54,203,47,10,71,319,48,12,36,299,48,13,40,208,44,B*02
$GBGSV,3,3,09,04,33,120,39,B*31
$GAGSV,2,1,06,02,42,169,46,15,37,263,45,27,21,318,42,30,66,271,49,1*7E
$GAGSV,2,2,06,34,65,348,49,36,25,047,44,1*74
$GAGSV,2,1,06,02,42,169,49,15,37,263,47,27,21,318,44,30,66,271,51,2*7F
$GAGSV,2,2,06,34,65,348,51,36,25,047,44,2*7E
$GAGSV,2,1,06,02,42,169,45,15,37,263,44,27,21,318,41,30,66,271,47,7*77
$GAGSV,2,2,06,34,65,348,48,36,25,047,42,7*75
$GNGGA,072131.00,3207.95443427,N,11841.73944028,E,1,28,0.6,7.3998,M,1.7756,M,,*44
$GNRMC,072131.00,A,3207.95443427,N,11841.73944028,E,0.003,194.6,030424,6.1,W,A,C*5D
#HEADINGA,COM3,9984,92.0,FINE,2308,285709.000,604922,15,18;SOL_COMPUTED,NARROW_INT,1.9940,173.8121,-0.0413,0.0000,0.1298,0.3088,"999",46,38,38,35,0,01,3,f3*f939ba3c
$GPGSV,2,1,08,03,37,050,45,06,49,275,47,14,51,178,45,17,64,029,47,1*66
$GPGSV,2,2,08,19,53,332,47,22,71,217,45,04,09,100,33,11,17,251,29,1*67
$GPGSV,2,1,08,03,37,050,43,06,49,275,45,14,51,178,47,17,64,029,46,4*64
$GPGSV,2,2,08,19,53,332,45,22,71,217,44,04,09,100,33,11,17,251,33,4*6A
$GPGSV,2,1,05,03,37,050,47,06,49,275,49,14,51,178,50,04,09,100,35,8*6C
$GPGSV,2,2,05,11,17,251,34,8*5F
$GLGSV,2,1,08,74,49,256,48,73,29,200,49,75,23,321,43,69,29,118,50,1*7D
$GLGSV,2,2,08,84,47,343,41,83,17,053,38,85,18,283,48,68,26,061,45,1*73
$GLGSV,2,1,07,73,29,200,46,75,23,321,44,69,29,118,45,84,47,343,44,3*74
$GLGSV,2,2,07,83,17,053,45,85,18,283,45,68,26,061,47,3*45
$GBGSV,5,1,18,01,43,137,43,02,35,230,39,03,51,195,45,07,85,014,47,1*77
$GBGSV,5,2,18,08,54,203,43,10,71,319,45,12,36,299,44,13,40,208,44,1*72
$GBGSV,5,3,18,22,37,134,43,24,35,266,46,26,26,207,42,38,67,199,47,1*77
$GBGSV,5,4,18,40,72,062,48,59,45,144,46,60,34,236,42,04,33,120,40,1*7A
$GBGSV,5,5,18,19,31,068,44,44,54,324,49,1*72
$GBGSV,5,1,18,01,43,137,43,02,35,230,41,03,51,195,45,07,85,014,48,8*7E
$GBGSV,5,2,18,08,54,203,47,10,71,319,47,12,36,299,47,13,40,208,43,8*79
$GBGSV,5,3,18,22,37,134,45,24,35,266,47,26,26,207,43,38,67,199,50,8*7E
$GBGSV,5,4,18,40,72,062,50,59,45,144,47,60,34,236,44,04,33,120,40,8*7D
$GBGSV,5,5,18,19,31,068,46,44,54,324,50,8*71
$GBGSV,3,1,09,01,43,137,45,02,35,230,44,03,51,195,48,07,85,014,49,B*0D
$GBGSV,3,2,09,08,54,203,47,10,71,319,48,12,36,299,48,13,40,208,44,B*02
$GBGSV,3,3,09,04,33,120,41,B*3E
$GAGSV,2,1,06,02,42,169,46,15,37,263,45,27,21,318,42,30,66,271,49,1*7E
$GAGSV,2,2,06,34,65,348,49,36,25,047,44,1*74
$GAGSV,2,1,06,02,42,169,48,15,37,263,47,27,21,318,44,30,66,271,51,2*7E
$GAGSV,2,2,06,34,65,348,51,36,25,047,44,2*7E
$GAGSV,2,1,06,02,42,169,45,15,37,263,44,27,21,318,41,30,66,271,47,7*77
$GAGSV,2,2,06,34,65,348,48,36,25,047,42,7*75
$GNGGA,072132.00,3207.95443402,N,11841.73943987,E,1,28,0.6,7.3987,M,1.7756,M,,*45
$GNRMC,072132.00,A,3207.95443402,N,11841.73943987,E,0.002,184.2,030424,6.1,W,A,C*56
#HEADINGA,COM3,9984,92.0,FINE,2308,285710.000,605921,15,18;SOL_COMPUTED,NARROW_INT,1.9940,173.8120,-0.0417,0.0000,0.1296,0.3076,"999",46,38,38,35,0,01,3,f3*a1598717
$GPGSV,2,1,08,03,37,050,45,06,49,275,47,14,51,178,45,17,64,029,47,1*66
$GPGSV,2,2,08,19,53,332,47,22,71,217,45,04,09,100,33,11,17,251,30,1*6F
$GPGSV,2,1,08,03,37,050,43,06,49,275,45,14,51,178,47,17,64,029,46,4*64
$GPGSV,2,2,08,19,53,332,45,22,71,217,44,04,09,100,33,11,17,251,33,4*6A
$GPGSV,2,1,05,03,37,050,47,06,49,275,49,14,51,178,50,04,09,100,35,8*6C
$GPGSV,2,2,05,11,17,251,34,8*5F
$GLGSV,2,1,08,74,49,256,48,73,29,200,49,75,23,321,43,69,29,118,50,1*7D
$GLGSV,2,2,08,84,47,343,41,83,17,053,38,85,18,283,48,68,26,061,46,1*70
$GLGSV,2,1,07,73,29,200,46,75,23,321,44,69,29,118,45,84,47,343,44,3*74
$GLGSV,2,2,07,83,17,053,45,85,18,283,45,68,26,061,47,3*45
$GBGSV,5,1,18,01,43,137,44,02,35,230,39,03,51,195,45,07,85,014,47,1*70
$GBGSV,5,2,18,08,54,203,43,10,71,319,45,12,36,299,44,13,40,208,44,1*72
$GBGSV,5,3,18,22,37,134,45,24,35,266,46,26,26,207,42,38,67,199,47,1*71
$GBGSV,5,4,18,40,72,062,48,59,45,144,46,60,34,236,42,04,33,120,41,1*7B
$GBGSV,5,5,18,19,31,068,44,44,54,324,49,1*72
$GBGSV,5,1,18,01,43,137,44,02,35,230,41,03,51,195,45,07,85,014,48,8*79
$GBGSV,5,2,18,08,54,203,47,10,71,319,47,12,36,299,47,13,40,208,43,8*79
$GBGSV,5,3,18,22,37,134,46,24,35,266,47,26,26,207,43,38,67,199,50,8*7D
$GBGSV,5,4,18,40,72,062,51,59,45,144,47,60,34,236,44,04,33,120,41,8*7D
$GBGSV,5,5,18,19,31,068,46,44,54,324,50,8*71
$GBGSV,3,1,09,01,43,137,46,02,35,230,44,03,51,195,48,07,85,014,49,B*0E
$GBGSV,3,2,09,08,54,203,47,10,71,319,48,12,36,299,48,13,40,208,44,B*02
$GBGSV,3,3,09,04,33,120,42,B*3D
$GAGSV,2,1,06,02,42,169,46,15,37,263,45,27,21,318,42,30,66,271,49,1*7E
$GAGSV,2,2,06,34,65,348,49,36,25,047,44,1*74
$GAGSV,2,1,06,02,42,169,48,15,37,263,47,27,21,318,44,30,66,271,51,2*7E
$GAGSV,2,2,06,34,65,348,51,36,25,047,45,2*7F
$GAGSV,2,1,06,02,42,169,45,15,37,263,44,27,21,318,41,30,66,271,48,7*78
$GAGSV,2,2,06,34,65,348,48,36,25,047,42,7*75
$GNGGA,072133.00,3207.95443383,N,11841.73943948,E,1,28,0.6,7.3978,M,1.7756,M,,*49
$GNRMC,072133.00,A,3207.95443383,N,11841.73943948,E,0.002,179.6,030424,6.1,W,A,C*5C
#HEADINGA,COM3,9984,92.0,FINE,2308,285711.000,606922,15,18;SOL_COMPUTED,NARROW_INT,1.9940,173.8118,-0.0420,0.0000,0.1304,0.3035,"999",46,38,38,35,0,01,3,f3*665b1262
$GPGSV,2,1,08,03,37,050,45,06,49,275,47,14,51,178,44,17,64,030,47,1*6F
$GPGSV,2,2,08,19,53,332,46,22,71,217,45,04,09,100,32,11,17,251,29,1*67
$GPGSV,2,1,08,03,37,050,43,06,49,275,45,14,51,178,47,17,64,030,46,4*6C
$GPGSV,2,2,08,19,53,332,45,22,71,217,44,04,09,100,32,11,17,251,33,4*6B
$GPGSV,2,1,05,03,37,050,47,06,49,275,49,14,51,178,50,04,09,100,34,8*6D
$GPGSV,2,2,05,11,17,251,34,8*5F
$GLGSV,2,1,08,74,49,256,48,73,29,200,49,75,23,321,43,69,29,118,48,1*74
$GLGSV,2,2,08,84,47,343,41,83,17,053,39,85,18,283,48,68,26,061,46,1*71
$GLGSV,2,1,07,73,29,200,46,75,23,321,44,69,29,118,45,84,47,343,44,3*74
$GLGSV,2,2,07,83,17,053,45,85,18,283,45,68,26,061,47,3*45
$GBGSV,5,1,18,01,43,137,43,02,35,230,39,03,51,195,45,07,85,014,47,1*77
$GBGSV,5,2,18,08,54,203,43,10,71,319,45,12,36,299,43,13,40,208,44,1*75
$GBGSV,5,3,18,22,37,134,45,24,35,266,45,26,26,207,41,38,67,199,47,1*71
$GBGSV,5,4,18,40,72,062,48,59,45,144,46,60,34,236,42,04,33,120,40,1*7A
$GBGSV,5,5,18,19,31,068,44,44,54,324,48,1*73
$GBGSV,5,1,18,01,43,137,44,02,35,230,41,03,51,195,45,07,85,014,48,8*79
$GBGSV,5,2,18,08,54,203,47,10,71,319,47,12,36,299,47,13,40,208,43,8*79
$GBGSV,5,3,18,22,37,134,47,24,35,266,47,26,26,207,43,38,67,199,50,8*7C
$GBGSV,5,4,18,40,72,062,51,59,45,144,47,60,34,236,44,04,33,120,41,8*7D
$GBGSV,5,5,18,19,31,068,46,44,54,324,51,8*70
$GBGSV,3,1,09,01,43,137,46,02,35,230,44,03,51,195,47,07,85,014,49,B*01
$GBGSV,3,2,09,08,54,203,47,10,71,319,48,12,36,299,48,13,40,208,44,B*02
$GBGSV,3,3,09,04,33,120,42,B*3D
$GAGSV,2,1,06,02,42,169,46,15,37,263,45,27,21,318,42,30,66,271,49,1*7E
$GAGSV,2,2,06,34,65,348,49,36,25,047,44,1*74
$GAGSV,2,1,06,02,42,169,48,15,37,263,47,27,21,318,44,30,66,271,51,2*7E
$GAGSV,2,2,06,34,65,348,51,36,25,047,45,2*7F
$GAGSV,2,1,06,02,42,169,45,15,37,263,44,27,21,318,41,30,66,271,47,7*77
$GAGSV,2,2,06,34,65,348,48,36,25,047,42,7*75
$GNGGA,072134.00,3207.95443366,N,11841.73943921,E,1,28,0.6,7.3971,M,1.7756,M,,*43
$GNRMC,072134.00,A,3207.95443366,N,11841.73943921,E,0.002,157.5,030424,6.1,W,A,C*50
#HEADINGA,COM3,9984,92.0,FINE,2308,285712.000,607921,15,18;SOL_COMPUTED,NARROW_INT,1.9939,173.8117,-0.0423,0.0000,0.1303,0.3030,"999",46,38,38,35,0,01,3,f3*07649c30
$GPGSV,2,1,08,03,37,050,45,06,49,275,47,14,51,178,44,17,64,030,47,1*6F
$GPGSV,2,2,08,19,53,332,46,22,71,216,45,04,09,100,33,11,17,251,30,1*6F
$GPGSV,2,1,08,03,37,050,43,06,49,275,45,14,51,178,47,17,64,030,46,4*6C
$GPGSV,2,2,08,19,53,332,44,22,71,216,44,04,09,100,32,11,17,251,33,4*6B
$GPGSV,2,1,05,03,37,050,47,06,49,275,49,14,51,178,50,04,09,100,34,8*6D
$GPGSV,2,2,05,11,17,251,34,8*5F
$GLGSV,2,1,08,74,49,256,48,73,29,200,50,75,23,321,42,69,29,118,47,1*72
$GLGSV,2,2,08,84,47,343,41,83,17,053,39,85,18,283,48,68,26,061,46,1*71
$GLGSV,2,1,07,73,29,200,46,75,23,321,44,69,29,118,45,84,47,343,44,3*74
$GLGSV,2,2,07,83,17,053,45,85,18,283,45,68,26,061,46,3*44
$GBGSV,5,1,18,01,43,137,43,02,35,230,39,03,51,195,45,07,85,014,47,1*77
$GBGSV,5,2,18,08,54,203,43,10,71,319,45,12,36,299,44,13,40,208,44,1*72
$GBGSV,5,3,18,22,37,134,46,24,35,266,46,26,26,207,41,38,67,199,47,1*71
$GBGSV,5,4,18,40,72,062,48,59,45,144,46,60,34,236,42,04,33,120,40,1*7A
$GBGSV,5,5,18,19,31,068,44,44,54,324,48,1*73
$GBGSV,5,1,18,01,43,137,44,02,35,230,41,03,51,195,45,07,85,014,48,8*79
$GBGSV,5,2,18,08,54,203,47,10,71,319,47,12,36,299,47,13,40,208,43,8*79
$GBGSV,5,3,18,22,37,134,47,24,35,266,47,26,26,207,43,38,67,199,50,8*7C
$GBGSV,5,4,18,40,72,062,50,59,45,144,47,60,34,236,44,04,33,120,41,8*7C
$GBGSV,5,5,18,19,31,068,46,44,54,324,50,8*71
$GBGSV,3,1,09,01,43,137,45,02,35,230,44,03,51,195,47,07,85,014,49,B*02
$GBGSV,3,2,09,08,54,203,47,10,71,319,48,12,36,299,48,13,40,208,44,B*02
$GBGSV,3,3,09,04,33,120,42,B*3D
$GAGSV,2,1,06,02,42,169,46,15,37,263,45,27,21,318,42,30,66,271,49,1*7E
$GAGSV,2,2,06,34,65,348,49,36,25,047,44,1*74
$GAGSV,2,1,06,02,42,169,48,15,37,263,47,27,21,318,44,30,66,271,51,2*7E
$GAGSV,2,2,06,34,65,348,51,36,25,047,45,2*7F
$GAGSV,2,1,06,02,42,169,45,15,37,263,44,27,21,318,41,30,66,271,47,7*77
$GAGSV,2,2,06,34,65,348,48,36,25,047,42,7*75
$GNGGA,072135.00,3207.95443340,N,11841.73943902,E,1,28,0.6,7.3963,M,1.7756,M,,*44
$GNRMC,072135.00,A,3207.95443340,N,11841.73943902,E,0.002,148.7,030424,6.1,W,A,C*58
#HEADINGA,COM3,9984,92.0,FINE,2308,285713.000,608921,15,18;SOL_COMPUTED,NARROW_INT,1.9939,173.8115,-0.0426,0.0000,0.1303,0.3030,"999",46,38,38,35,0,01,3,f3*7cfe7255
$GPGSV,2,1,08,03,37,050,45,06,49,275,47,14,51,178,45,17,64,030,47,1*6E
$GPGSV,2,2,08,19,53,332,47,22,71,216,45,04,09,100,33,11,17,251,29,1*66
$GPGSV,2,1,08,03,37,050,43,06,49,275,45,14,51,178,47,17,64,030,46,4*6C
$GPGSV,2,2,08,19,53,332,45,22,71,216,44,04,09,100,32,11,17,251,33,4*6A
$GPGSV,2,1,05,03,37,050,47,06,49,275,49,14,51,178,50,04,09,100,34,8*6D
$GPGSV,2,2,05,11,17,251,34,8*5F
$GLGSV,2,1,08,74,49,256,48,73,29,200,49,75,23,321,42,69,29,118,47,1*7A
$GLGSV,2,2,08,84,47,343,41,83,17,053,39,85,18,283,48,68,26,061,46,1*71
$GLGSV,2,1,07,73,29,200,46,75,23,321,45,69,29,118,44,84,47,343,44,3*74
$GLGSV,2,2,07,83,17,053,44,85,18,283,45,68,26,061,46,3*45
$GBGSV,5,1,18,01,43,137,43,02,35,230,40,03,51,195,45,07,85,014,47,1*79
$GBGSV,5,2,18,08,54,203,43,10,71,319,45,12,36,299,44,13,40,208,44,1*72
$GBGSV,5,3,18,22,37,134,46,24,35,266,46,26,26,207,42,38,67,199,47,1*72
$GBGSV,5,4,18,40,72,062,48,59,45,144,46,60,34,236,42,04,33,120,40,1*7A
$GBGSV,5,5,18,19,31,068,44,44,54,324,49,1*72
$GBGSV,5,1,18,01,43,137,44,02,35,230,41,03,51,195,45,07,85,014,48,8*79
$GBGSV,5,2,18,08,54,203,47,10,71,319,47,12,36,299,47,13,40,208,43,8*79
$GBGSV,5,3,18,22,37,134,47,24,35,266,47,26,26,207,43,38,67,199,50,8*7C
$GBGSV,5,4,18,40,72,062,50,59,45,144,47,60,34,236,44,04,33,120,41,8*7C
$GBGSV,5,5,18,19,31,068,46,44,54,324,50,8*71
$GBGSV,3,1,09,01,43,137,45,02,35,230,44,03,51,195,47,07,85,014,49,B*02
$GBGSV,3,2,09,08,54,203,47,10,71,319,48,12,36,299,48,13,40,208,44,B*02
$GBGSV,3,3,09,04,33,120,41,B*3E
$GAGSV,2,1,06,02,42,169,46,15,37,263,45,27,21,318,42,30,66,271,49,1*7E
$GAGSV,2,2,06,34,65,348,49,36,25,047,44,1*74
$GAGSV,2,1,06,02,42,169,48,15,37,263,47,27,21,318,44,30,66,271,51,2*7E
$GAGSV,2,2,06,34,65,348,51,36,25,047,45,2*7F
$GAGSV,2,1,06,02,42,169,45,15,37,263,44,27,21,318,41,30,66,271,47,7*77
$GAGSV,2,2,06,34,65,348,48,36,25,047,42,7*75
$GNGGA,072136.00,3207.95443311,N,11841.73943881,E,1,28,0.6,7.3956,M,1.7756,M,,*4F
$GNRMC,072136.00,A,3207.95443311,N,11841.73943881,E,0.002,152.4,030424,6.1,W,A,C*5D
#HEADINGA,COM3,9984,92.0,FINE,2308,285714.000,609921,15,18;SOL_COMPUTED,NARROW_INT,1.9939,173.8114,-0.0429,0.0000,0.1302,0.3031,"999",46,38,38,35,0,01,3,f3*449a6c90
$GPGSV,2,1,08,03,37,050,44,06,49,275,47,14,51,178,44,17,64,030,47,1*6E
$GPGSV,2,2,08,19,53,332,47,22,71,216,45,04,09,100,33,11,17,251,28,1*67
$GPGSV,2,1,08,03,37,050,43,06,49,275,45,14,51,178,47,17,64,030,46,4*6C
$GPGSV,2,2,08,19,53,332,45,22,71,216,44,04,09,100,32,11,17,251,32,4*6B
$GPGSV,2,1,05,03,37,050,47,06,49,275,49,14,51,178,50,04,09,100,34,8*6D
$GPGSV,2,2,05,11,17,251,34,8*5F
$GLGSV,2,1,08,74,49,256,48,73,29,200,50,75,23,321,42,69,29,118,47,1*72
$GLGSV,2,2,08,84,47,343,41,83,17,053,39,85,18,283,48,68,26,061,46,1*71
$GLGSV,2,1,07,73,29,200,46,75,23,321,45,69,29,118,43,84,47,343,44,3*73
$GLGSV,2,2,07,83,17,053,45,85,18,283,45,68,26,061,46,3*44
$GBGSV,5,1,18,01,43,137,43,02,35,230,40,03,51,195,45,07,85,014,47,1*79
$GBGSV,5,2,18,08,54,203,43,10,71,319,45,12,36,299,44,13,40,208,44,1*72
$GBGSV,5,3,18,22,37,134,44,24,35,266,46,26,26,207,42,38,67,199,47,1*70
$GBGSV,5,4,18,40,72,062,48,59,45,144,46,60,34,236,42,04,33,120,40,1*7A
$GBGSV,5,5,18,19,31,068,44,44,54,324,49,1*72
$GBGSV,5,1,18,01,43,137,43,02,35,230,41,03,51,195,45,07,85,014,48,8*7E
$GBGSV,5,2,18,08,54,203,47,10,71,319,47,12,36,299,47,13,40,208,43,8*79
$GBGSV,5,3,18,22,37,134,46,24,35,266,47,26,26,207,43,38,67,199,50,8*7D
$GBGSV,5,4,18,40,72,062,50,59,45,144,47,60,34,236,44,04,33,120,39,8*73
$GBGSV,5,5,18,19,31,068,46,44,54,324,50,8*71
$GBGSV,3,1,09,01,43,137,45,02,35,230,44,03,51,195,47,07,85,014,49,B*02
$GBGSV,3,2,09,08,54,203,47,10,71,319,48,12,36,299,48,13,40,208,44,B*02
$GBGSV,3,3,09,04,33,120,40,B*3F
$GAGSV,2,1,06,02,42,169,46,15,37,263,45,27,21,318,42,30,66,271,49,1*7E
$GAGSV,2,2,06,34,65,348,50,36,25,047,44,1*7C
$GAGSV,2,1,06,02,42,169,48,15,37,263,47,27,21,318,44,30,66,271,51,2*7E
$GAGSV,2,2,06,34,65,348,51,36,25,047,45,2*7F
$GAGSV,2,1,06,02,42,169,45,15,37,263,44,27,21,318,41,30,66,271,47,7*77
$GAGSV,2,2,06,34,65,348,48,36,25,047,42,7*75
$GNGGA,072137.00,3207.95443290,N,11841.73943839,E,1,28,0.6,7.3952,M,1.7756,M,,*41
$GNRMC,072137.00,A,3207.95443290,N,11841.73943839,E,0.001,181.6,030424,6.1,W,A,C*58
#HEADINGA,COM3,9984,92.0,FINE,2308,285715.000,610921,15,18;SOL_COMPUTED,NARROW_INT,1.9939,173.8113,-0.0431,0.0000,0.1297,0.3089,"999",46,38,38,35,0,01,3,f3*6bc4275f
$GPGSV,2,1,08,03,37,050,44,06,49,275,47,14,51,178,44,17,64,030,47,1*6E
$GPGSV,2,2,08,19,53,332,47,22,71,216,45,04,09,100,34,11,17,251,28,1*60
$GPGSV,2,1,08,03,37,050,43,06,49,275,45,14,51,178,47,17,64,030,46,4*6C
$GPGSV,2,2,08,19,53,332,44,22,71,216,44,04,09,100,32,11,17,251,32,4*6A
$GPGSV,2,1,05,03,37,050,48,06,49,275,49,14,51,178,50,04,09,100,34,8*62
$GPGSV,2,2,05,11,17,251,34,8*5F
$GLGSV,2,1,08,74,49,256,48,73,29,200,50,75,23,321,42,69,29,118,44,1*71
$GLGSV,2,2,08,84,47,343,41,83,17,053,38,85,18,283,48,68,26,061,47,1*71
$GLGSV,2,1,07,73,29,200,46,75,23,321,45,69,29,118,42,84,47,343,44,3*72
$GLGSV,2,2,07,83,17,053,44,85,18,283,44,68,26,061,46,3*44
$GBGSV,5,1,18,01,43,137,41,02,35,230,40,03,51,195,45,07,85,014,47,1*7B
$GBGSV,5,2,18,08,54,203,43,10,71,319,45,12,36,299,44,13,40,208,44,1*72
$GBGSV,5,3,18,22,37,134,43,24,35,266,46,26,26,207,42,38,67,199,47,1*77
$GBGSV,5,4,18,40,72,062,48,59,45,144,45,60,34,236,42,04,33,120,38,1*76
$GBGSV,5,5,18,19,31,068,44,44,54,324,49,1*72
$GBGSV,5,1,18,01,43,137,42,02,35,230,41,03,51,195,45,07,85,014,48,8*7F
$GBGSV,5,2,18,08,54,203,47,10,71,319,47,12,36,299,47,13,40,208,43,8*79
$GBGSV,5,3,18,22,37,134,46,24,35,266,47,26,26,207,43,38,67,199,50,8*7D
$GBGSV,5,4,18,40,72,062,50,59,45,144,46,60,34,236,44,04,33,120,38,8*73
$GBGSV,5,5,18,19,31,068,46,44,54,324,50,8*71
$GBGSV,3,1,09,01,43,137,43,02,35,230,44,03,51,195,47,07,85,014,49,B*04
$GBGSV,3,2,09,08,54,203,47,10,71,319,48,12,36,299,48,13,40,208,44,B*02
$GBGSV,3,3,09,04,33,120,38,B*30
$GAGSV,2,1,06,02,42,169,46,15,37,263,45,27,21,318,42,30,66,271,49,1*7E
$GAGSV,2,2,06,34,65,348,50,36,25,047,44,1*7C
$GAGSV,2,1,06,02,42,169,48,15,37,263,47,27,21,318,44,30,66,271,51,2*7E
$GAGSV,2,2,06,34,65,348,51,36,25,047,45,2*7F
$GAGSV,2,1,06,02,42,169,45,15,37,263,44,27,21,318,41,30,66,271,47,7*77
$GAGSV,2,2,06,34,65,348,48,36,25,047,42,7*75
$GNGGA,072138.00,3207.95443259,N,11841.73943804,E,1,28,0.6,7.3946,M,1.7756,M,,*40
$GNRMC,072138.00,A,3207.95443259,N,11841.73943804,E,0.002,174.5,030424,6.1,W,A,C*56
#HEADINGA,COM3,9984,92.0,FINE,2308,285716.000,611921,15,18;SOL_COMPUTED,NARROW_INT,1.9939,173.8111,-0.0434,0.0000,0.1295,0.3076,"999",46,38,38,35,0,01,3,f3*a473a03b
$GPGSV,2,1,08,03,37,050,44,06,49,275,47,14,51,178,45,17,64,030,46,1*6E
$GPGSV,2,2,08,19,53,332,47,22,71,216,45,04,09,100,34,11,17,251,27,1*6F
$GPGSV,2,1,08,03,37,050,44,06,49,275,46,14,51,178,47,17,64,030,46,4*68
$GPGSV,2,2,08,19,53,332,44,22,71,216,44,04,09,100,32,11,17,251,32,4*6A
$GPGSV,2,1,05,03,37,050,48,06,49,275,49,14,51,178,50,04,09,100,34,8*62
$GPGSV,2,2,05,11,17,251,34,8*5F
$GLGSV,2,1,08,74,49,256,48,73,29,200,49,75,23,321,43,69,29,118,46,1*7A
$GLGSV,2,2,08,84,47,343,41,83,17,053,39,85,18,283,48,68,26,061,47,1*70
$GLGSV,2,1,07,73,29,200,46,75,23,321,45,69,29,118,42,84,47,343,44,3*72
$GLGSV,2,2,07,83,17,053,44,85,18,283,44,68,26,061,46,3*44
$GBGSV,5,1,18,01,43,137,43,02,35,230,40,03,51,195,45,07,85,014,47,1*79
$GBGSV,5,2,18,08,54,203,43,10,71,319,45,12,36,299,44,13,40,208,45,1*73
$GBGSV,5,3,18,22,37,134,44,24,35,266,46,26,26,207,42,38,67,199,48,1*7F
$GBGSV,5,4,18,40,72,062,48,59,45,144,46,60,34,236,42,04,33,120,39,1*74
$GBGSV,5,5,18,19,31,068,44,44,54,324,49,1*72
$GBGSV,5,1,18,01,43,137,43,02,35,230,41,03,51,195,45,07,85,014,48,8*7E
$GBGSV,5,2,18,08,54,203,47,10,71,319,47,12,36,299,47,13,40,208,43,8*79
$GBGSV,5,3,18,22,37,134,46,24,35,266,47,26,26,207,43,38,67,199,50,8*7D
$GBGSV,5,4,18,40,72,062,50,59,45,144,47,60,34,236,44,04,33,120,39,8*73
$GBGSV,5,5,18,19,31,068,46,44,54,324,50,8*71
$GBGSV,3,1,09,01,43,137,44,02,35,230,44,03,51,195,48,07,85,014,49,B*0C
$GBGSV,3,2,09,08,54,203,47,10,71,319,48,12,36,299,48,13,40,208,44,B*02
$GBGSV,3,3,09,04,33,120,40,B*3F
$GAGSV,2,1,06,02,42,169,47,15,37,263,45,27,21,318,42,30,66,271,49,1*7F
$GAGSV,2,2,06,34,65,348,50,36,25,047,44,1*7C
$GAGSV,2,1,06,02,42,169,49,15,37,263,47,27,21,318,44,30,66,271,51,2*7F
$GAGSV,2,2,06,34,65,348,51,36,25,047,45,2*7F
$GAGSV,2,1,06,02,42,169,45,15,37,263,44,27,21,318,42,30,66,271,47,7*74
$GAGSV,2,2,06,34,65,348,48,36,25,047,42,7*75
$GNGGA,072139.00,3207.95443227,N,11841.73943773,E,1,28,0.6,7.3941,M,1.7756,M,,*40
$GNRMC,072139.00,A,3207.95443227,N,11841.73943773,E,0.002,167.0,030424,6.1,W,A,C*56
#HEADINGA,COM3,9984,92.0,FINE,2308,285717.000,612922,15,18;SOL_COMPUTED,NARROW_INT,1.9939,173.8110,-0.0436,0.0000,0.1303,0.3023,"999",46,38,38,35,0,01,3,f3*40cc4f91
$GPGSV,2,1,08,03,37,050,45,06,49,275,47,14,51,178,45,17,64,030,46,1*6F
$GPGSV,2,2,08,19,53,332,47,22,71,216,45,04,09,100,33,11,17,251,26,1*69
$GPGSV,2,1,08,03,37,050,44,06,49,275,46,14,51,178,46,17,64,030,46,4*69
$GPGSV,2,2,08,19,53,332,45,22,71,216,44,04,09,100,31,11,17,251,32,4*68
$GPGSV,2,1,05,03,37,050,47,06,49,275,49,14,51,178,50,04,09,100,33,8*6A
$GPGSV,2,2,05,11,17,251,34,8*5F
$GLGSV,2,1,08,74,49,256,48,73,29,200,50,75,23,321,44,69,29,118,47,1*74
$GLGSV,2,2,08,84,47,343,42,83,17,053,39,85,18,283,48,68,26,061,47,1*73
$GLGSV,2,1,07,73,29,200,46,75,23,321,45,69,29,118,42,84,47,343,44,3*72
$GLGSV,2,2,07,83,17,053,44,85,18,283,44,68,26,061,46,3*44
$GBGSV,5,1,18,01,43,137,43,02,35,230,40,03,51,195,45,07,85,014,47,1*79
$GBGSV,5,2,18,08,54,203,43,10,71,319,45,12,36,299,44,13,40,208,45,1*73
$GBGSV,5,3,18,22,37,134,45,24,35,266,46,26,26,207,41,38,67,199,48,1*7D
$GBGSV,5,4,18,40,72,062,48,59,45,144,47,60,34,236,42,04,33,120,39,1*75
$GBGSV,5,5,18,19,31,068,44,44,54,324,49,1*72
$GBGSV,5,1,18,01,43,137,43,02,35,230,41,03,51,195,45,07,85,014,48,8*7E
$GBGSV,5,2,18,08,54,203,47,10,71,319,47,12,36,299,47,13,40,208,43,8*79
$GBGSV,5,3,18,22,37,134,46,24,35,266,47,26,26,207,43,38,67,199,50,8*7D
$GBGSV,5,4,18,40,72,062,51,59,45,144,47,60,34,236,44,04,33,120,39,8*72
$GBGSV,5,5,18,19,31,068,46,44,54,324,50,8*71
$GBGSV,3,1,09,01,43,137,45,02,35,230,44,03,51,195,48,07,85,014,49,B*0D
$GBGSV,3,2,09,08,54,203,47,10,71,319,48,12,36,299,48,13,40,208,44,B*02
$GBGSV,3,3,09,04,33,120,41,B*3E
$GAGSV,2,1,06,02,42,169,46,15,37,263,45,27,21,318,42,30,66,271,49,1*7E
$GAGSV,2,2,06,34,65,348,49,36,25,047,44,1*74
$GAGSV,2,1,06,02,42,169,49,15,37,263,47,27,21,318,44,30,66,271,51,2*7F
$GAGSV,2,2,06,34,65,348,51,36,25,047,45,2*7F
$GAGSV,2,1,06,02,42,169,46,15,37,263,44,27,21,318,42,30,66,271,48,7*78
$GAGSV,2,2,06,34,65,348,48,36,25,047,42,7*75
$GNGGA,072140.00,3207.95443182,N,11841.73943760,E,1,28,0.6,7.3937,M,1.7756,M,,*41
$GNRMC,072140.00,A,3207.95443182,N,11841.73943760,E,0.003,151.2,030424,6.1,W,A,C*50
#HEADINGA,COM3,9984,92.0,FINE,2308,285718.000,613921,15,18;SOL_COMPUTED,NARROW_INT,1.9939,173.8109,-0.0437,0.0000,0.1303,0.3024,"999",46,38,38,35,0,01,3,f3*1a5b9da4
$GPGSV,2,1,08,03,37,050,44,06,49,275,47,14,51,178,45,17,64,030,47,1*6F
$GPGSV,2,2,08,19,53,332,47,22,71,216,45,04,09,100,33,11,17,251,25,1*6A
$GPGSV,2,1,08,03,37,050,44,06,49,275,46,14,51,178,46,17,64,030,47,4*68
$GPGSV,2,2,08,19,53,332,45,22,71,216,44,04,09,100,31,11,17,251,32,4*68
$GPGSV,2,1,05,03,37,050,47,06,49,275,49,14,51,178,50,04,09,100,33,8*6A
$GPGSV,2,2,05,11,17,251,34,8*5F
$GLGSV,2,1,08,74,49,256,48,73,29,200,50,75,23,321,44,69,29,118,48,1*7B
$GLGSV,2,2,08,84,47,343,42,83,17,053,39,85,18,283,48,68,26,061,47,1*73
$GLGSV,2,1,07,73,29,200,46,75,23,321,45,69,29,118,42,84,47,343,44,3*72
$GLGSV,2,2,07,83,17,053,44,85,18,283,45,68,26,061,46,3*45
$GBGSV,5,1,18,01,43,137,44,02,35,230,40,03,51,195,45,07,85,014,47,1*7E
$GBGSV,5,2,18,08,54,203,43,10,71,319,45,12,36,299,44,13,40,208,45,1*73
$GBGSV,5,3,18,22,37,134,45,24,35,266,46,26,26,207,41,38,67,199,48,1*7D
$GBGSV,5,4,18,40,72,062,48,59,45,144,47,60,34,236,42,04,33,120,39,1*75
$GBGSV,5,5,18,19,31,068,44,44,54,324,49,1*72
$GBGSV,5,1,18,01,43,137,43,02,35,230,41,03,51,195,45,07,85,014,48,8*7E
$GBGSV,5,2,18,08,54,203,47,10,71,319,47,12,36,299,47,13,40,208,43,8*79
$GBGSV,5,3,18,22,37,134,46,24,35,266,47,26,26,207,43,38,67,199,50,8*7D
$GBGSV,5,4,18,40,72,062,51,59,45,144,47,60,34,236,44,04,33,120,39,8*72
$GBGSV,5,5,18,19,31,068,46,44,54,324,50,8*71
$GBGSV,3,1,09,01,43,137,45,02,35,230,44,03,51,195,48,07,85,014,49,B*0D
$GBGSV,3,2,09,08,54,203,47,10,71,319,48,12,36,299,48,13,40,208,44,B*02
$GBGSV,3,3,09,04,33,120,41,B*3E
$GAGSV,2,1,06,02,42,169,47,15,37,263,45,27,21,318,42,30,66,271,49,1*7F
$GAGSV,2,2,06,34,65,348,49,36,25,047,44,1*74
$GAGSV,2,1,06,02,42,169,49,15,37,263,47,27,21,318,44,30,66,271,51,2*7F
$GAGSV,2,2,06,34,65,348,51,36,25,047,45,2*7F
$GAGSV,2,1,06,02,42,169,46,15,37,263,44,27,21,318,42,30,66,271,47,7*77
$GAGSV,2,2,06,34,65,348,48,36,25,047,42,7*75
$GNGGA,072141.00,3207.95443146,N,11841.73943754,E,1,28,0.6,7.3936,M,1.7756,M,,*4E
$GNRMC,072141.00,A,3207.95443146,N,11841.73943754,E,0.002,128.3,030424,6.1,W,A,C*50
#HEADINGA,COM3,9984,92.0,FINE,2308,285719.000,614921,15,18;SOL_COMPUTED,NARROW_INT,1.9939,173.8108,-0.0439,0.0000,0.1292,0.3062,"999",46,38,38,35,0,01,3,f3*6a130194
$GPGSV,2,1,08,03,37,050,44,06,49,275,47,14,51,178,45,17,64,030,47,1*6F
$GPGSV,2,2,08,19,53,332,47,22,71,216,46,04,09,100,33,11,17,251,27,1*6B
$GPGSV,2,1,08,03,37,050,43,06,49,275,46,14,51,178,46,17,64,030,47,4*6F
$GPGSV,2,2,08,19,53,332,45,22,71,216,44,04,09,100,32,11,17,251,32,4*6B
$GPGSV,2,1,05,03,37,050,47,06,49,275,49,14,51,178,50,04,09,100,33,8*6A
$GPGSV,2,2,05,11,17,251,34,8*5F
$GLGSV,2,1,08,74,49,256,49,73,29,200,51,75,23,320,45,69,29,118,48,1*7B
$GLGSV,2,2,08,84,47,343,42,83,17,053,39,85,18,283,48,68,26,061,47,1*73
$GLGSV,2,1,07,73,29,200,46,75,23,320,45,69,29,118,42,84,47,343,44,3*73
$GLGSV,2,2,07,83,17,053,43,85,18,283,45,68,26,061,47,3*43
$GBGSV,5,1,18,01,43,137,44,02,35,230,40,03,51,195,45,07,85,014,47,1*7E
$GBGSV,5,2,18,08,54,203,43,10,71,319,45,12,36,299,44,13,40,208,45,1*73
$GBGSV,5,3,18,22,37,134,45,24,35,266,46,26,26,207,41,38,67,199,48,1*7D
$GBGSV,5,4,18,40,72,062,49,59,45,144,47,60,34,236,42,04,33,120,39,1*74
$GBGSV,5,5,18,19,31,068,44,44,54,324,49,1*72
$GBGSV,5,1,18,01,43,137,43,02,35,230,41,03,51,195,45,07,85,014,48,8*7E
$GBGSV,5,2,18,08,54,203,47,10,71,319,47,12,36,299,47,13,40,208,43,8*79
$GBGSV,5,3,18,22,37,134,46,24,35,266,47,26,26,207,43,38,67,199,50,8*7D
$GBGSV,5,4,18,40,72,062,51,59,45,144,47,60,34,236,44,04,33,120,39,8*72
$GBGSV,5,5,18,19,31,068,46,44,54,324,50,8*71
$GBGSV,3,1,09,01,43,137,45,02,35,230,44,03,51,195,48,07,85,014,49,B*0D
$GBGSV,3,2,09,08,54,203,47,10,71,319,48,12,36,299,48,13,40,208,44,B*02
$GBGSV,3,3,09,04,33,120,41,B*3E
$GAGSV,2,1,06,02,42,169,47,15,37,263,45,27,21,318,42,30,66,271,49,1*7F
$GAGSV,2,2,06,34,65,348,50,36,25,047,44,1*7C
$GAGSV,2,1,06,02,42,169,49,15,37,263,47,27,21,318,44,30,66,271,51,2*7F
$GAGSV,2,2,06,34,65,348,51,36,25,047,45,2*7F
$GAGSV,2,1,06,02,42,169,46,15,37,263,44,27,21,318,42,30,66,271,48,7*78
$GAGSV,2,2,06,34,65,348,48,36,25,047,42,7*75
$GNGGA,072142.00,3207.95443106,N,11841.73943747,E,1,28,0.6,7.3934,M,1.7756,M,,*49
$GNRMC,072142.00,A,3207.95443106,N,11841.73943747,E,0.002,135.8,030424,6.1,W,A,C*52
#HEADINGA,COM3,9984,92.0,FINE,2308,285720.000,615921,15,18;SOL_COMPUTED,NARROW_INT,1.9939,173.8107,-0.0441,0.0000,0.1292,0.3060,"999",46,38,38,35,0,01,3,f3*2b9cd083
$GPGSV,2,1,08,03,37,050,44,06,49,275,47,14,51,178,45,17,64,030,47,1*6F
$GPGSV,2,2,08,19,53,332,47,22,71,216,46,04,09,100,33,11,17,251,27,1*6B
$GPGSV,2,1,08,03,37,050,44,06,49,275,46,14,51,178,46,17,64,030,47,4*68
$GPGSV,2,2,08,19,53,332,45,22,71,216,44,04,09,100,31,11,17,251,32,4*68
$GPGSV,2,1,05,03,37,050,47,06,49,275,49,14,51,178,50,04,09,100,33,8*6A
$GPGSV,2,2,05,11,17,251,34,8*5F
$GLGSV,2,1,08,74,49,256,49,73,29,200,50,75,23,320,45,69,29,118,48,1*7A
$GLGSV,2,2,08,84,47,343,42,83,17,053,39,85,18,283,48,68,26,061,48,1*7C
$GLGSV,2,1,07,73,29,200,46,75,23,320,45,69,29,118,42,84,47,343,44,3*73
$GLGSV,2,2,07,83,17,053,43,85,18,283,45,68,26,061,46,3*42
$GBGSV,5,1,18,01,43,137,44,02,35,230,40,03,51,195,45,07,85,014,47,1*7E
$GBGSV,5,2,18,08,54,203,43,10,71,319,45,12,36,299,44,13,40,208,45,1*73
$GBGSV,5,3,18,22,37,134,45,24,35,266,47,26,26,207,41,38,67,199,48,1*7C
$GBGSV,5,4,18,40,72,062,49,59,45,144,47,60,34,236,42,04,33,120,40,1*7A
$GBGSV,5,5,18,19,31,068,44,44,54,324,49,1*72
$GBGSV,5,1,18,01,43,137,43,02,35,230,41,03,51,195,45,07,85,014,48,8*7E
$GBGSV,5,2,18,08,54,203,47,10,71,319,47,12,36,299,47,13,40,208,43,8*79
$GBGSV,5,3,18,22,37,134,46,24,35,266,47,26,26,207,43,38,67,199,50,8*7D
$GBGSV,5,4,18,40,72,062,51,59,45,144,47,60,34,236,44,04,33,120,40,8*7C
$GBGSV,5,5,18,19,31,068,46,44,54,324,50,8*71
$GBGSV,3,1,09,01,43,137,45,02,35,230,44,03,51,195,48,07,85,014,49,B*0D
$GBGSV,3,2,09,08,54,203,47,10,71,319,48,12,36,299,48,13,40,208,44,B*02
$GBGSV,3,3,09,04,33,120,41,B*3E
$GAGSV,2,1,06,02,42,169,47,15,37,263,45,27,21,318,42,30,66,271,49,1*7F
$GAGSV,2,2,06,34,65,348,50,36,25,047,44,1*7C
$GAGSV,2,1,06,02,42,169,49,15,37,263,47,27,21,318,44,30,66,271,51,2*7F
$GAGSV,2,2,06,34,65,348,51,36,25,047,45,2*7F
$GAGSV,2,1,06,02,42,169,46,15,37,263,44,27,21,318,42,30,66,271,48,7*78
$GAGSV,2,2,06,34,65,348,48,36,25,047,42,7*75
$GNGGA,072143.00,3207.95443062,N,11841.73943737,E,1,28,0.6,7.3936,M,1.7756,M,,*4E
$GNRMC,072143.00,A,3207.95443062,N,11841.73943737,E,0.003,140.2,030424,6.1,W,A,C*5E
#HEADINGA,COM3,9984,92.0,FINE,2308,285721.000,616922,15,18;SOL_COMPUTED,NARROW_INT,1.9939,173.8106,-0.0442,0.0000,0.1292,0.3059,"999",46,38,38,35,0,01,3,f3*23fc7be4
$GPGSV,2,1,08,03,37,050,44,06,49,275,47,14,51,178,46,17,64,030,46,1*6D
$GPGSV,2,2,08,19,53,332,47,22,71,216,46,04,09,100,34,11,17,251,26,1*6D
$GPGSV,2,1,08,03,37,050,44,06,49,275,46,14,51,178,46,17,64,030,47,4*68
$GPGSV,2,2,08,19,53,332,45,22,71,216,44,04,09,100,31,11,17,251,32,4*68
$GPGSV,2,1,05,03,37,050,47,06,49,275,49,14,51,178,50,04,09,100,33,8*6A
$GPGSV,2,2,05,11,17,251,34,8*5F
$GLGSV,2,1,08,74,49,256,49,73,29,200,50,75,23,320,45,69,29,118,48,1*7A
$GLGSV,2,2,08,84,47,343,42,83,17,053,39,85,18,283,48,68,26,061,48,1*7C
$GLGSV,2,1,07,73,29,200,46,75,23,320,45,69,29,118,42,84,47,343,44,3*73
$GLGSV,2,2,07,83,17,053,43,85,18,283,44,68,26,061,46,3*43
$GBGSV,5,1,18,01,43,137,44,02,35,230,40,03,51,195,45,07,85,014,47,1*7E
$GBGSV,5,2,18,08,54,203,43,10,71,319,45,12,36,299,44,13,40,208,45,1*73
$GBGSV,5,3,18,22,37,134,45,24,35,266,47,26,26,207,41,38,67,199,48,1*7C
$GBGSV,5,4,18,40,72,062,49,59,45,144,47,60,34,236,42,04,33,120,40,1*7A
$GBGSV,5,5,18,19,31,068,44,44,54,324,49,1*72
$GBGSV,5,1,18,01,43,137,43,02,35,230,41,03,51,195,45,07,85,014,48,8*7E
$GBGSV,5,2,18,08,54,203,47,10,71,319,47,12,36,299,47,13,40,208,43,8*79
$GBGSV,5,3,18,22,37,134,46,24,35,266,47,26,26,207,43,38,67,199,50,8*7D
$GBGSV,5,4,18,40,72,062,51,59,45,144,47,60,34,236,44,04,33,120,39,8*72
$GBGSV,5,5,18,19,31,068,46,44,54,324,50,8*71
$GBGSV,3,1,09,01,43,137,45,02,35,230,44,03,51,195,47,07,85,014,49,B*02
$GBGSV,3,2,09,08,54,203,47,10,71,319,48,12,36,299,48,13,40,208,44,B*02
$GBGSV,3,3,09,04,33,120,41,B*3E
$GAGSV,2,1,06,02,42,169,47,15,37,263,45,27,21,318,42,30,66,271,49,1*7F
$GAGSV,2,2,06,34,65,348,50,36,25,047,44,1*7C
$GAGSV,2,1,06,02,42,169,49,15,37,263,47,27,21,318,44,30,66,271,51,2*7F
$GAGSV,2,2,06,34,65,348,51,36,25,047,45,2*7F
$GAGSV,2,1,06,02,42,169,46,15,37,263,44,27,21,318,42,30,66,271,48,7*78
$GAGSV,2,2,06,34,65,348,48,36,25,047,42,7*75
$GNGGA,072144.00,3207.95443019,N,11841.73943717,E,1,28,0.6,7.3935,M,1.7756,M,,*44
$GNRMC,072144.00,A,3207.95443019,N,11841.73943717,E,0.002,151.6,030424,6.1,W,A,C*52
#HEADINGA,COM3,9984,92.0,FINE,2308,285722.000,617921,15,18;SOL_COMPUTED,NARROW_INT,1.9939,173.8105,-0.0444,0.0000,0.1296,0.3069,"999",46,38,38,35,0,01,3,f3*b8e237b4
$GPGSV,2,1,08,03,37,050,44,06,49,275,47,14,51,178,45,17,64,030,46,1*6E
$GPGSV,2,2,08,19,53,332,46,22,71,216,46,04,09,100,34,11,17,251,26,1*6C
$GPGSV,2,1,08,03,37,050,44,06,49,275,46,14,51,178,46,17,64,030,47,4*68
$GPGSV,2,2,08,19,53,332,44,22,71,216,44,04,09,100,31,11,17,251,31,4*6A
$GPGSV,2,1,05,03,37,050,47,06,49,275,49,14,51,178,50,04,09,100,32,8*6B
$GPGSV,2,2,05,11,17,251,34,8*5F
$GLGSV,2,1,08,74,49,256,48,73,29,200,50,75,23,320,44,69,29,118,47,1*75
$GLGSV,2,2,08,84,47,343,42,83,17,053,38,85,18,283,48,68,26,061,48,1*7D
$GLGSV,2,1,07,73,29,200,46,75,23,320,45,69,29,118,42,84,47,343,44,3*73
$GLGSV,2,2,07,83,17,053,43,85,18,283,45,68,26,061,46,3*42
$GBGSV,5,1,18,01,43,137,43,02,35,230,40,03,51,195,45,07,85,014,47,1*79
$GBGSV,5,2,18,08,54,203,43,10,71,319,45,12,36,299,44,13,40,208,45,1*73
$GBGSV,5,3,18,22,37,134,45,24,35,266,46,26,26,207,41,38,67,199,48,1*7D
$GBGSV,5,4,18,40,72,062,48,59,45,144,47,60,34,236,42,04,33,120,39,1*75
$GBGSV,5,5,18,19,31,068,44,44,54,324,49,1*72
$GBGSV,5,1,18,01,43,137,44,02,35,230,41,03,51,195,45,07,85,014,48,8*79
$GBGSV,5,2,18,08,54,203,46,10,71,319,47,12,36,299,47,13,40,208,43,8*78
$GBGSV,5,3,18,22,37,134,46,24,35,266,47,26,26,207,43,38,67,199,50,8*7D
$GBGSV,5,4,18,40,72,062,51,59,45,144,47,60,34,236,44,04,33,120,40,8*7C
$GBGSV,5,5,18,19,31,068,46,44,54,324,50,8*71
$GBGSV,3,1,09,01,43,137,45,02,35,230,44,03,51,195,47,07,85,014,49,B*02
$GBGSV,3,2,09,08,54,203,47,10,71,319,48,12,36,299,47,13,40,208,44,B*0D
$GBGSV,3,3,09,04,33,120,40,B*3F
$GAGSV,2,1,06,02,42,169,47,15,37,263,45,27,21,318,42,30,66,271,49,1*7F
$GAGSV,2,2,06,34,65,348,50,36,25,047,44,1*7C
$GAGSV,2,1,06,02,42,169,49,15,37,263,47,27,21,318,44,30,66,271,51,2*7F
$GAGSV,2,2,06,34,65,348,51,36,25,047,45,2*7F
$GAGSV,2,1,06,02,42,169,46,15,37,263,44,27,21,318,42,30,66,271,47,7*77
$GAGSV,2,2,06,34,65,348,48,36,25,047,42,7*75
$GNGGA,072145.00,3207.95442967,N,11841.73943693,E,1,28,0.6,7.3932,M,1.7756,M,,*4E
$GNRMC,072145.00,A,3207.95442967,N,11841.73943693,E,0.003,165.0,030424,6.1,W,A,C*5F
#HEADINGA,COM3,9984,92.0,FINE,2308,285723.000,618922,15,18;SOL_COMPUTED,NARROW_INT,1.9939,173.8104,-0.0445,0.0000,0.1305,0.3033,"999",46,38,38,35,0,01,3,f3*64abc1eb
$GPGSV,2,1,08,03,37,050,44,06,49,275,46,14,51,178,45,17,64,030,46,1*6F
$GPGSV,2,2,08,19,53,332,46,22,71,216,46,04,09,100,34,11,17,251,26,1*6C
$GPGSV,2,1,08,03,37,050,44,06,49,275,46,14,51,178,46,17,64,030,47,4*68
$GPGSV,2,2,08,19,53,332,44,22,71,216,44,04,09,100,31,11,17,251,31,4*6A
$GPGSV,2,1,05,03,37,050,47,06,49,275,49,14,51,178,50,04,09,100,33,8*6A
$GPGSV,2,2,05,11,17,251,34,8*5F
$GLGSV,2,1,08,74,49,256,48,73,29,200,50,75,23,320,44,69,29,118,47,1*75
$GLGSV,2,2,08,84,47,344,41,83,17,053,38,85,18,283,48,68,26,061,47,1*76
$GLGSV,2,1,07,73,29,200,46,75,23,320,45,69,29,118,42,84,47,344,44,3*74
$GLGSV,2,2,07,83,17,053,43,85,18,283,45,68,26,061,46,3*42
$GBGSV,5,1,18,01,43,137,44,02,35,230,40,03,51,195,45,07,85,014,47,1*7E
$GBGSV,5,2,18,08,54,203,43,10,71,319,45,12,36,299,44,13,40,208,45,1*73
$GBGSV,5,3,18,22,37,134,45,24,35,266,46,26,26,207,41,38,67,199,48,1*7D
$GBGSV,5,4,18,40,72,062,48,59,45,144,47,60,34,236,42,04,33,120,39,1*75
$GBGSV,5,5,18,19,31,068,44,44,54,324,48,1*73
$GBGSV,5,1,18,01,43,137,43,02,35,230,41,03,51,195,45,07,85,014,48,8*7E
$GBGSV,5,2,18,08,54,203,46,10,71,319,47,12,36,299,46,13,40,208,43,8*79
$GBGSV,5,3,18,22,37,134,46,24,35,266,47,26,26,207,43,38,67,199,50,8*7D
$GBGSV,5,4,18,40,72,062,51,59,45,144,47,60,34,236,44,04,33,120,39,8*72
$GBGSV,5,5,18,19,31,068,46,44,54,324,50,8*71
$GBGSV,3,1,09,01,43,137,44,02,35,230,44,03,51,195,47,07,85,014,49,B*03
$GBGSV,3,2,09,08,54,203,47,10,71,319,48,12,36,299,47,13,40,208,44,B*0D
$GBGSV,3,3,09,04,33,120,40,B*3F
$GAGSV,2,1,06,02,42,169,46,15,37,263,45,27,21,318,41,30,66,271,49,1*7D
$GAGSV,2,2,06,34,65,348,49,36,25,047,44,1*74
$GAGSV,2,1,06,02,42,169,49,15,37,263,47,27,21,318,44,30,66,271,51,2*7F
$GAGSV,2,2,06,34,65,348,51,36,25,047,45,2*7F
$GAGSV,2,1,06,02,42,169,46,15,37,263,44,27,21,318,41,30,66,271,47,7*74
$GAGSV,2,2,06,34,65,348,48,36,25,047,41,7*76
$GNGGA,072146.00,3207.95442922,N,11841.73943671,E,1,28,0.6,7.3928,M,1.7756,M,,*4B
$GNRMC,072146.00,A,3207.95442922,N,11841.73943671,E,0.002,161.7,030424,6.1,W,A,C*53
#HEADINGA,COM3,9984,92.0,FINE,2308,285724.000,619921,15,18;SOL_COMPUTED,NARROW_INT,1.9939,173.8103,-0.0446,0.0000,0.1295,0.3072,"999",46,38,38,35,0,01,3,f3*1e3b110d
$GPGSV,2,1,08,03,37,050,44,06,49,275,46,14,51,178,45,17,64,030,46,1*6F
$GPGSV,2,2,08,19,53,332,46,22,71,216,46,04,09,100,34,11,17,251,26,1*6C
$GPGSV,2,1,08,03,37,050,43,06,49,275,46,14,51,178,46,17,64,030,47,4*6F
$GPGSV,2,2,08,19,53,332,44,22,71,216,44,04,09,100,30,11,17,251,31,4*6B
$GPGSV,2,1,05,03,37,050,47,06,49,275,49,14,51,178,50,04,09,100,33,8*6A
$GPGSV,2,2,05,11,17,251,34,8*5F
$GLGSV,2,1,08,74,49,256,48,73,28,200,50,75,23,320,44,69,29,118,47,1*74
$GLGSV,2,2,08,84,47,344,41,83,17,053,37,85,18,283,47,68,26,061,48,1*79
$GLGSV,2,1,07,73,28,200,46,75,23,320,45,69,29,118,42,84,47,344,44,3*75
$GLGSV,2,2,07,83,17,053,43,85,18,283,45,68,26,061,46,3*42
$GBGSV,5,1,18,01,43,137,44,02,35,230,40,03,51,195,45,07,85,014,47,1*7E
$GBGSV,5,2,18,08,54,203,43,10,71,319,45,12,36,299,44,13,40,208,45,1*73
$GBGSV,5,3,18,22,37,134,45,24,35,266,46,26,26,207,41,38,67,199,48,1*7D
$GBGSV,5,4,18,40,72,062,48,59,45,144,47,60,34,236,42,04,33,120,39,1*75
$GBGSV,5,5,18,19,31,068,44,44,54,324,48,1*73
$GBGSV,5,1,18,01,43,137,43,02,35,230,41,03,51,195,45,07,85,014,48,8*7E
$GBGSV,5,2,18,08,54,203,46,10,71,319,47,12,36,299,46,13,40,208,43,8*79
$GBGSV,5,3,18,22,37,134,46,24,35,266,47,26,26,207,43,38,67,199,50,8*7D
$GBGSV,5,4,18,40,72,062,50,59,45,144,47,60,34,236,44,04,33,120,40,8*7D
$GBGSV,5,5,18,19,31,068,46,44,54,324,50,8*71
$GBGSV,3,1,09,01,43,137,44,02,35,230,44,03,51,195,47,07,85,014,49,B*03
$GBGSV,3,2,09,08,54,203,47,10,71,319,48,12,36,299,47,13,40,208,44,B*0D
$GBGSV,3,3,09,04,33,120,40,B*3F
$GAGSV,2,1,06,02,42,169,46,15,37,263,45,27,21,318,42,30,66,271,49,1*7E
$GAGSV,2,2,06,34,65,348,50,36,25,047,44,1*7C
$GAGSV,2,1,06,02,42,169,49,15,37,263,47,27,21,318,44,30,66,271,51,2*7F
$GAGSV,2,2,06,34,65,348,51,36,25,047,46,2*7C
$GAGSV,2,1,06,02,42,169,46,15,37,263,44,27,21,318,41,30,66,271,47,7*74
$GAGSV,2,2,06,34,65,348,48,36,25,047,41,7*76
$GNGGA,072147.00,3207.95442894,N,11841.73943643,E,1,28,0.6,7.3920,M,1.7756,M,,*4F
$GNRMC,072147.00,A,3207.95442894,N,11841.73943643,E,0.001,171.5,030424,6.1,W,A,C*5F
#HEADINGA,COM3,9984,92.0,FINE,2308,285725.000,620921,15,18;SOL_COMPUTED,NARROW_INT,1.9939,173.8102,-0.0447,0.0000,0.1303,0.3025,"999",46,38,38,35,0,01,3,f3*3ead2964
$GPGSV,2,1,08,03,37,050,44,06,49,275,46,14,51,178,46,17,64,030,46,1*6C
$GPGSV,2,2,08,19,53,332,46,22,71,216,46,04,09,100,34,11,17,251,26,1*6C
$GPGSV,2,1,08,03,37,050,43,06,49,275,46,14,51,178,46,17,64,030,47,4*6F
$GPGSV,2,2,08,19,53,332,44,22,71,216,44,04,09,100,31,11,17,251,30,4*6B
$GPGSV,2,1,05,03,37,050,47,06,49,275,49,14,51,178,50,04,09,100,33,8*6A
$GPGSV,2,2,05,11,17,251,34,8*5F
$GLGSV,2,1,08,74,49,256,49,73,28,200,50,75,23,320,44,69,29,118,47,1*75
$GLGSV,2,2,08,84,47,344,41,83,17,053,38,85,18,283,47,68,26,061,48,1*76
$GLGSV,2,1,07,73,28,200,46,75,23,320,45,69,29,118,42,84,47,344,44,3*75
$GLGSV,2,2,07,83,17,053,43,85,18,283,45,68,26,061,46,3*42
$GBGSV,5,1,18,01,43,137,44,02,35,230,40,03,51,195,45,07,85,014,47,1*7E
$GBGSV,5,2,18,08,54,203,43,10,71,319,45,12,36,299,44,13,40,208,45,1*73
$GBGSV,5,3,18,22,37,134,45,24,35,266,47,26,26,207,41,38,67,199,48,1*7C
$GBGSV,5,4,18,40,72,062,49,59,45,144,47,60,34,236,42,04,33,120,39,1*74
$GBGSV,5,5,18,19,31,068,44,44,54,324,48,1*73
$GBGSV,5,1,18,01,43,137,43,02,35,230,41,03,51,195,45,07,85,014,48,8*7E
$GBGSV,5,2,18,08,54,203,46,10,71,319,47,12,36,299,46,13,40,208,43,8*79
$GBGSV,5,3,18,22,37,134,46,24,35,266,46,26,26,207,43,38,67,199,50,8*7C
$GBGSV,5,4,18,40,72,062,50,59,45,144,47,60,34,236,44,04,33,120,39,8*73
$GBGSV,5,5,18,19,31,068,45,44,54,324,50,8*72
$GBGSV,3,1,09,01,43,137,44,02,35,230,44,03,51,195,47,07,85,014,49,B*03
$GBGSV,3,2,09,08,54,203,47,10,71,319,48,12,36,299,47,13,40,208,44,B*0D
$GBGSV,3,3,09,04,33,120,40,B*3F
$GAGSV,2,1,06,02,42,169,46,15,37,263,45,27,21,318,42,30,66,271,49,1*7E
$GAGSV,2,2,06,34,65,348,50,36,25,047,44,1*7C
$GAGSV,2,1,06,02,42,169,49,15,37,263,47,27,21,318,44,30,66,271,51,2*7F
$GAGSV,2,2,06,34,65,348,51,36,25,047,46,2*7C
$GAGSV,2,1,06,02,42,169,46,15,37,263,44,27,21,318,41,30,66,271,48,7*7B
$GAGSV,2,2,06,34,65,348,48,36,25,047,41,7*76
$GNGGA,072148.00,3207.95442848,N,11841.73943612,E,1,28,0.6,7.3911,M,1.7756,M,,*47
$GNRMC,072148.00,A,3207.95442848,N,11841.73943612,E,0.002,184.9,030424,6.1,W,A,C*50
#HEADINGA,COM3,9984,92.0,FINE,2308,285726.000,621921,15,18;SOL_COMPUTED,NARROW_INT,1.9939,173.8102,-0.0447,0.0000,0.1294,0.3069,"999",46,38,38,35,0,01,3,f3*38d35e24
$GPGSV,2,1,08,03,37,050,44,06,49,275,46,14,51,178,46,17,64,030,46,1*6C
$GPGSV,2,2,08,19,53,332,46,22,71,216,46,04,09,100,34,11,17,251,27,1*6D
$GPGSV,2,1,08,03,37,050,43,06,49,275,46,14,51,178,46,17,64,030,47,4*6F
$GPGSV,2,2,08,19,53,332,44,22,71,216,44,04,09,100,31,11,17,251,30,4*6B
$GPGSV,2,1,05,03,37,050,48,06,49,275,49,14,51,178,50,04,09,100,33,8*65
$GPGSV,2,2,05,11,17,251,34,8*5F
$GLGSV,2,1,08,74,49,256,49,73,28,200,50,75,23,320,44,69,29,118,47,1*75
$GLGSV,2,2,08,84,47,344,41,83,17,053,37,85,18,283,48,68,26,061,48,1*76
$GLGSV,2,1,07,73,28,200,47,75,23,320,45,69,29,118,43,84,47,344,44,3*75
$GLGSV,2,2,07,83,17,053,44,85,18,283,45,68,26,061,46,3*45
$GBGSV,5,1,18,01,43,137,43,02,35,230,39,03,51,195,45,07,85,014,47,1*77
$GBGSV,5,2,18,08,54,203,43,10,71,319,45,12,36,299,43,13,40,208,45,1*74
$GBGSV,5,3,18,22,37,134,45,24,35,266,47,26,26,207,41,38,67,199,48,1*7C
$GBGSV,5,4,18,40,72,062,48,59,45,144,47,60,34,236,42,04,33,120,39,1*75
$GBGSV,5,5,18,19,31,068,44,44,54,324,48,1*73
$GBGSV,5,1,18,01,43,137,43,02,35,230,41,03,51,195,45,07,85,014,48,8*7E
$GBGSV,5,2,18,08,54,203,46,10,71,319,47,12,36,299,46,13,40,208,43,8*79
$GBGSV,5,3,18,22,37,134,46,24,35,266,46,26,26,207,43,38,67,199,50,8*7C
$GBGSV,5,4,18,40,72,062,50,59,45,144,47,60,34,236,44,04,33,120,39,8*73
$GBGSV,5,5,18,19,31,068,45,44,54,324,50,8*72
$GBGSV,3,1,09,01,43,137,45,02,35,230,44,03,51,195,47,07,85,014,49,B*02
$GBGSV,3,2,09,08,54,203,47,10,71,319,48,12,36,299,47,13,40,208,44,B*0D
$GBGSV,3,3,09,04,33,120,40,B*3F
$GAGSV,2,1,06,02,42,169,46,15,37,263,45,27,21,318,42,30,66,271,49,1*7E
$GAGSV,2,2,06,34,65,348,50,36,25,047,44,1*7C
$GAGSV,2,1,06,02,42,169,49,15,37,263,47,27,21,318,44,30,66,271,51,2*7F
$GAGSV,2,2,06,34,65,348,51,36,25,047,45,2*7F
$GAGSV,2,1,06,02,42,169,46,15,37,263,44,27,21,318,41,30,66,271,47,7*74
$GAGSV,2,2,06,34,65,348,48,36,25,047,41,7*76
$GNGGA,072149.00,3207.95442813,N,11841.73943583,E,1,28,0.6,7.3903,M,1.7756,M,,*40
$GNRMC,072149.00,A,3207.95442813,N,11841.73943583,E,0.001,184.3,030424,6.1,W,A,C*5D
#HEADINGA,COM3,9984,92.0,FINE,2308,285727.000,622921,15,18;SOL_COMPUTED,NARROW_INT,1.9939,173.8101,-0.0448,0.0000,0.1295,0.3070,"999",46,38,38,35,0,01,3,f3*dab60ede
$GPGSV,2,1,08,03,37,050,44,06,49,275,46,14,51,178,46,17,64,030,46,1*6C
$GPGSV,2,2,08,19,53,332,46,22,71,216,46,04,09,100,34,11,17,251,27,1*6D
$GPGSV,2,1,08,03,37,050,43,06,49,275,46,14,51,178,46,17,64,030,47,4*6F
$GPGSV,2,2,08,19,53,332,44,22,71,216,44,04,09,100,30,11,17,251,30,4*6A
$GPGSV,2,1,05,03,37,050,47,06,49,275,49,14,51,178,50,04,09,100,33,8*6A
$GPGSV,2,2,05,11,17,251,34,8*5F
$GLGSV,2,1,08,74,49,256,48,73,28,200,50,75,23,320,44,69,29,118,47,1*74
$GLGSV,2,2,08,84,47,344,41,83,17,053,37,85,18,283,47,68,26,061,47,1*76
$GLGSV,2,1,07,73,28,200,46,75,23,320,45,69,29,118,42,84,47,344,44,3*75
$GLGSV,2,2,07,83,17,053,43,85,18,283,44,68,26,061,46,3*43
$GBGSV,5,1,18,01,43,137,43,02,35,230,40,03,51,195,45,07,85,014,47,1*79
$GBGSV,5,2,18,08,54,203,43,10,71,319,45,12,36,299,43,13,40,208,45,1*74
$GBGSV,5,3,18,22,37,134,45,24,35,266,47,26,26,207,41,38,67,199,47,1*73
$GBGSV,5,4,18,40,72,062,48,59,45,144,47,60,34,236,42,04,33,120,39,1*75
$GBGSV,5,5,18,19,31,068,44,44,54,324,48,1*73
$GBGSV,5,1,18,01,43,137,43,02,35,230,41,03,51,195,45,07,85,014,48,8*7E
$GBGSV,5,2,18,08,54,203,46,10,71,319,47,12,36,299,46,13,40,208,43,8*79
$GBGSV,5,3,18,22,37,134,46,24,35,266,46,26,26,207,43,38,67,199,50,8*7C
$GBGSV,5,4,18,40,72,062,50,59,45,144,47,60,34,236,44,04,33,120,39,8*73
$GBGSV,5,5,18,19,31,068,45,44,54,324,50,8*72
$GBGSV,3,1,09,01,43,137,45,02,35,230,44,03,51,195,47,07,85,014,49,B*02
$GBGSV,3,2,09,08,54,203,47,10,71,319,48,12,36,299,47,13,40,208,44,B*0D
$GBGSV,3,3,09,04,33,120,40,B*3F
$GAGSV,2,1,06,02,42,169,46,15,37,263,46,27,21,318,42,30,66,271,49,1*7D
$GAGSV,2,2,06,34,65,348,50,36,25,047,44,1*7C
$GAGSV,2,1,06,02,42,169,49,15,37,263,47,27,21,318,44,30,66,271,51,2*7F
$GAGSV,2,2,06,34,65,348,51,36,25,047,45,2*7F
$GAGSV,2,1,06,02,42,169,46,15,37,263,44,27,21,318,41,30,66,271,47,7*74
$GAGSV,2,2,06,34,65,348,48,36,25,047,41,7*76
$GNGGA,072150.00,3207.95442768,N,11841.73943563,E,1,28,0.6,7.3897,M,1.7756,M,,*49
$GNRMC,072150.00,A,3207.95442768,N,11841.73943563,E,0.002,169.1,030424,6.1,W,A,C*5A
#HEADINGA,COM3,9984,92.0,FINE,2308,285728.000,623921,15,18;SOL_COMPUTED,NARROW_INT,1.9939,173.8100,-0.0449,0.0000,0.1292,0.3063,"999",46,38,38,35,0,01,3,f3*f0bb4cc6
$GPGSV,2,1,08,03,37,050,44,06,49,275,46,14,51,178,46,17,64,030,46,1*6C
$GPGSV,2,2,08,19,53,332,46,22,71,216,46,04,09,100,35,11,17,251,28,1*63
$GPGSV,2,1,08,03,37,050,43,06,49,275,46,14,51,178,46,17,64,030,47,4*6F
$GPGSV,2,2,08,19,53,332,44,22,71,216,44,04,09,100,31,11,17,251,30,4*6B
$GPGSV,2,1,05,03,37,050,48,06,49,275,49,14,51,178,50,04,09,100,33,8*65
$GPGSV,2,2,05,11,17,251,34,8*5F
$GLGSV,2,1,08,74,49,256,48,73,28,200,50,75,23,320,44,69,29,118,47,1*74
$GLGSV,2,2,08,84,47,344,41,83,17,053,38,85,18,283,48,68,26,061,48,1*79
$GLGSV,2,1,07,73,28,200,47,75,23,320,45,69,29,118,43,84,47,344,44,3*75
$GLGSV,2,2,07,83,17,053,44,85,18,283,44,68,26,061,46,3*44
$GBGSV,5,1,18,01,43,137,43,02,35,230,40,03,51,195,45,07,85,014,47,1*79
$GBGSV,5,2,18,08,54,203,43,10,71,319,45,12,36,299,43,13,40,208,45,1*74
$GBGSV,5,3,18,22,37,134,45,24,35,266,47,26,26,207,41,38,67,199,48,1*7C
$GBGSV,5,4,18,40,72,062,49,59,45,144,47,60,34,236,42,04,33,120,39,1*74
$GBGSV,5,5,18,19,31,068,44,44,54,324,48,1*73
$GBGSV,5,1,18,01,43,137,43,02,35,230,41,03,51,195,45,07,85,014,48,8*7E
$GBGSV,5,2,18,08,54,203,46,10,71,319,47,12,36,299,46,13,40,208,43,8*79
$GBGSV,5,3,18,22,37,134,46,24,35,266,46,26,26,207,43,38,67,199,50,8*7C
$GBGSV,5,4,18,40,72,062,50,59,45,144,47,60,34,236,44,04,33,120,39,8*73
$GBGSV,5,5,18,19,31,068,46,44,54,324,50,8*71
$GBGSV,3,1,09,01,43,137,45,02,35,230,44,03,51,195,47,07,85,014,49,B*02
$GBGSV,3,2,09,08,54,203,48,10,71,319,48,12,36,299,47,13,40,208,44,B*02
$GBGSV,3,3,09,04,33,120,41,B*3E
$GAGSV,2,1,06,02,42,169,47,15,37,263,46,27,21,318,42,30,66,271,49,1*7C
$GAGSV,2,2,06,34,65,348,50,36,25,047,44,1*7C
$GAGSV,2,1,06,02,42,169,49,15,37,263,47,27,21,318,44,30,66,271,51,2*7F
$GAGSV,2,2,06,34,65,348,51,36,25,047,46,2*7C
$GAGSV,2,1,06,02,42,169,46,15,37,263,44,27,21,318,41,30,66,271,47,7*74
$GAGSV,2,2,06,34,65,348,48,36,25,047,41,7*76
$GNGGA,072151.00,3207.95442719,N,11841.73943544,E,1,28,0.6,7.3890,M,1.7756,M,,*4C
$GNRMC,072151.00,A,3207.95442719,N,11841.73943544,E,0.002,171.7,030424,6.1,W,A,C*57
#HEADINGA,COM3,9984,92.0,FINE,2308,285729.000,624921,16,18;SOL_COMPUTED,NARROW_INT,1.9939,173.8100,-0.0449,0.0000,0.1292,0.3058,"999",46,38,38,35,0,01,3,f3*bdcb8fb6
$GPGSV,2,1,08,03,37,050,44,06,50,275,46,14,51,178,46,17,64,030,46,1*64
$GPGSV,2,2,08,19,53,332,46,22,71,216,46,04,09,100,34,11,17,251,29,1*63
$GPGSV,2,1,08,03,37,050,43,06,50,275,46,14,51,178,46,17,64,030,47,4*67
$GPGSV,2,2,08,19,53,332,45,22,71,216,44,04,09,100,31,11,17,251,29,4*62
$GPGSV,2,1,05,03,37,050,48,06,50,275,49,14,51,178,50,04,09,100,34,8*6A
$GPGSV,2,2,05,11,17,251,34,8*5F
$GLGSV,2,1,08,74,49,256,48,73,28,200,50,75,23,320,44,69,29,118,47,1*74
$GLGSV,2,2,08,84,47,344,41,83,17,053,38,85,18,283,48,68,26,061,48,1*79
$GLGSV,2,1,07,73,28,200,47,75,23,320,45,69,29,118,43,84,47,344,44,3*75
$GLGSV,2,2,07,83,17,053,44,85,18,283,44,68,26,061,46,3*44
$GBGSV,5,1,18,01,43,137,43,02,35,230,40,03,51,195,45,07,85,014,47,1*79
$GBGSV,5,2,18,08,54,203,43,10,71,319,45,12,36,299,43,13,40,208,45,1*74
$GBGSV,5,3,18,22,37,134,45,24,35,266,46,26,26,207,41,38,67,199,47,1*72
$GBGSV,5,4,18,40,72,062,48,59,45,144,47,60,34,236,42,04,33,120,39,1*75
$GBGSV,5,5,18,19,31,068,44,44,54,324,48,1*73
$GBGSV,5,1,18,01,43,137,43,02,35,230,41,03,51,195,45,07,85,014,48,8*7E
$GBGSV,5,2,18,08,54,203,46,10,71,319,47,12,36,299,46,13,40,208,43,8*79
$GBGSV,5,3,18,22,37,134,46,24,35,266,46,26,26,207,43,38,67,199,50,8*7C
$GBGSV,5,4,18,40,72,062,50,59,45,144,47,60,34,236,44,04,33,120,39,8*73
$GBGSV,5,5,18,19,31,068,46,44,54,324,50,8*71
$GBGSV,3,1,09,01,43,137,45,02,35,230,44,03,51,195,47,07,85,014,49,B*02
$GBGSV,3,2,09,08,54,203,48,10,71,319,48,12,36,299,47,13,40,208,44,B*02
$GBGSV,3,3,09,04,33,120,41,B*3E
$GAGSV,2,1,06,02,42,169,47,15,37,263,46,27,21,318,42,30,66,271,49,1*7C
$GAGSV,2,2,06,34,65,348,50,36,25,047,44,1*7C
$GAGSV,2,1,06,02,42,169,49,15,37,263,47,27,21,318,44,30,66,271,51,2*7F
$GAGSV,2,2,06,34,65,348,51,36,25,047,46,2*7C
$GAGSV,2,1,06,02,42,169,46,15,37,263,44,27,21,318,42,30,66,271,48,7*78
$GAGSV,2,2,06,34,65,348,48,36,25,047,42,7*75
$GNGGA,072152.00,3207.95442676,N,11841.73943537,E,1,28,0.6,7.3883,M,1.7756,M,,*41
$GNRMC,072152.00,A,3207.95442676,N,11841.73943537,E,0.002,149.4,030424,6.1,W,A,C*50
#HEADINGA,COM3,9984,92.0,FINE,2308,285730.000,625921,15,18;SOL_COMPUTED,NARROW_INT,1.9939,173.8099,-0.0450,0.0000,0.1294,0.3070,"999",46,38,38,35,0,01,3,f3*0150f670
$GPGSV,2,1,08,03,37,050,44,06,50,275,46,14,51,178,45,17,64,030,46,1*67
$GPGSV,2,2,08,19,53,332,46,22,71,216,46,04,09,100,35,11,17,251,29,1*62
$GPGSV,2,1,08,03,37,050,43,06,50,275,46,14,51,178,46,17,64,030,46,4*66
$GPGSV,2,2,08,19,53,332,44,22,71,216,44,04,09,100,32,11,17,251,29,4*60
$GPGSV,2,1,05,03,37,050,48,06,50,275,49,14,51,178,50,04,09,100,35,8*6B
$GPGSV,2,2,05,11,17,251,34,8*5F
$GLGSV,2,1,08,74,49,256,48,73,28,200,49,75,23,320,44,69,29,118,45,1*7E
$GLGSV,2,2,08,84,47,344,41,83,17,053,38,85,18,283,47,68,26,061,48,1*76
$GLGSV,2,1,07,73,28,200,47,75,23,320,45,69,29,118,43,84,47,344,44,3*75
$GLGSV,2,2,07,83,17,053,44,85,18,283,44,68,26,061,47,3*45
$GBGSV,5,1,18,01,43,137,42,02,35,230,40,03,51,195,45,07,85,014,47,1*78
$GBGSV,5,2,18,08,54,203,43,10,71,319,45,12,36,299,43,13,40,208,44,1*75
$GBGSV,5,3,18,22,37,134,44,24,35,266,47,26,26,207,41,38,67,199,47,1*72
$GBGSV,5,4,18,40,72,062,48,59,45,144,45,60,34,236,42,04,33,120,38,1*76
$GBGSV,5,5,18,19,31,068,44,44,54,324,48,1*73
$GBGSV,5,1,18,01,43,137,42,02,35,230,41,03,51,195,45,07,85,014,48,8*7F
$GBGSV,5,2,18,08,54,203,46,10,71,319,46,12,36,299,46,13,40,208,43,8*78
$GBGSV,5,3,18,22,37,134,45,24,35,266,46,26,26,207,42,38,67,199,50,8*7E
$GBGSV,5,4,18,40,72,062,50,59,45,144,46,60,34,236,44,04,33,120,38,8*73
$GBGSV,5,5,18,19,31,068,45,44,54,324,50,8*72
$GBGSV,3,1,09,01,43,137,44,02,35,230,44,03,51,195,47,07,85,014,49,B*03
$GBGSV,3,2,09,08,54,203,48,10,71,319,48,12,36,299,47,13,40,208,44,B*02
$GBGSV,3,3,09,04,33,120,39,B*31
$GAGSV,2,1,06,02,42,169,47,15,37,263,46,27,21,318,42,30,66,271,49,1*7C
$GAGSV,2,2,06,34,65,348,50,36,25,047,44,1*7C
$GAGSV,2,1,06,02,42,169,49,15,37,263,47,27,21,318,43,30,66,271,51,2*78
$GAGSV,2,2,06,34,65,348,51,36,25,047,45,2*7F
$GAGSV,2,1,06,02,42,169,46,15,37,263,43,27,21,318,42,30,66,271,47,7*70
$GAGSV,2,2,06,34,65,348,48,36,25,047,42,7*75
$GNGGA,072153.00,3207.95442624,N,11841.73943521,E,1,28,0.6,7.3881,M,1.7756,M,,*42
$GNRMC,072153.00,A,3207.95442624,N,11841.73943521,E,0.002,168.2,030424,6.1,W,A,C*54
#HEADINGA,COM3,9984,92.0,FINE,2308,285731.000,626922,15,18;SOL_COMPUTED,NARROW_INT,1.9939,173.8099,-0.0450,0.0000,0.1298,0.3087,"999",46,38,38,35,0,01,3,f3*aa6d1075
$GPGSV,2,1,08,03,37,050,44,06,50,275,46,14,51,178,45,17,64,030,46,1*67
$GPGSV,2,2,08,19,53,332,46,22,71,216,46,04,09,100,36,11,17,251,31,1*68
$GPGSV,2,1,08,03,37,050,42,06,50,275,46,14,51,178,46,17,64,030,47,4*66
$GPGSV,2,2,08,19,53,332,44,22,71,216,44,04,09,100,32,11,17,251,30,4*68
$GPGSV,2,1,05,03,37,050,47,06,50,275,49,14,51,178,50,04,09,100,35,8*64
$GPGSV,2,2,05,11,17,251,34,8*5F
$GLGSV,2,1,08,74,49,256,48,73,28,200,50,75,23,320,44,69,29,118,43,1*70
$GLGSV,2,2,08,84,47,344,41,83,17,054,37,85,18,283,46,68,26,061,48,1*7F
$GLGSV,2,1,07,73,28,200,47,75,23,320,45,69,29,118,43,84,47,344,44,3*75
$GLGSV,2,2,07,83,17,054,45,85,18,283,44,68,26,061,47,3*43
$GBGSV,5,1,18,01,43,137,40,02,35,230,39,03,51,195,45,07,85,014,47,1*74
$GBGSV,5,2,18,08,54,203,43,10,71,319,45,12,36,299,43,13,40,208,44,1*75
$GBGSV,5,3,18,22,37,134,44,24,35,266,47,26,26,207,41,38,67,199,47,1*72
$GBGSV,5,4,18,40,72,062,48,59,45,144,45,60,34,236,42,04,33,120,36,1*78
$GBGSV,5,5,18,19,31,068,44,44,54,324,49,1*72
$GBGSV,5,1,18,01,43,137,42,02,35,230,41,03,51,195,45,07,85,014,48,8*7F
$GBGSV,5,2,18,08,54,203,46,10,71,319,47,12,36,299,46,13,40,208,43,8*79
$GBGSV,5,3,18,22,37,134,45,24,35,266,46,26,26,207,42,38,67,199,50,8*7E
$GBGSV,5,4,18,40,72,062,51,59,45,144,45,60,34,236,44,04,33,120,38,8*71
$GBGSV,5,5,18,19,31,068,45,44,54,324,50,8*72
$GBGSV,3,1,09,01,43,137,43,02,35,230,44,03,51,195,47,07,85,014,49,B*04
$GBGSV,3,2,09,08,54,203,47,10,71,319,48,12,36,299,47,13,40,208,44,B*0D
$GBGSV,3,3,09,04,33,120,39,B*31
$GAGSV,2,1,06,02,42,169,46,15,37,263,45,27,21,318,41,30,66,271,49,1*7D
$GAGSV,2,2,06,34,65,348,50,36,25,047,44,1*7C
$GAGSV,2,1,06,02,42,169,48,15,37,263,47,27,21,318,43,30,66,271,51,2*79
$GAGSV,2,2,06,34,65,348,51,36,25,047,45,2*7F
$GAGSV,2,1,06,02,42,169,45,15,37,263,43,27,21,318,42,30,66,271,47,7*73
$GAGSV,2,2,06,34,65,348,48,36,25,047,42,7*75
$GNGGA,072154.00,3207.95442574,N,11841.73943512,E,1,28,0.6,7.3878,M,1.7756,M,,*45
$GNRMC,072154.00,A,3207.95442574,N,11841.73943512,E,0.002,160.3,030424,6.1,W,A,C*5C
#HEADINGA,COM3,9984,92.0,FINE,2308,285732.000,627921,15,18;SOL_COMPUTED,NARROW_INT,1.9939,173.8098,-0.0451,0.0000,0.1296,0.3084,"999",46,38,38,35,0,01,3,f3*ee115267
$GPGSV,2,1,08,03,37,050,44,06,50,275,46,14,51,178,46,17,64,030,46,1*64
$GPGSV,2,2,08,19,53,332,46,22,71,216,46,04,09,100,33,11,17,251,31,1*6D
$GPGSV,2,1,08,03,37,050,42,06,50,275,46,14,51,178,46,17,64,030,47,4*66
$GPGSV,2,2,08,19,53,332,44,22,71,216,44,04,09,100,31,11,17,251,29,4*63
$GPGSV,2,1,05,03,37,050,48,06,50,275,49,14,51,178,50,04,09,100,33,8*6D
$GPGSV,2,2,05,11,17,251,34,8*5F
$GLGSV,2,1,08,74,49,256,48,73,28,200,49,75,23,320,44,69,29,118,41,1*7A
$GLGSV,2,2,08,84,47,344,41,83,17,054,37,85,18,283,47,68,26,061,48,1*7E
$GLGSV,2,1,07,73,28,200,47,75,23,320,45,69,29,118,42,84,47,344,44,3*74
$GLGSV,2,2,07,83,17,054,44,85,18,283,44,68,26,061,46,3*43
$GBGSV,5,1,18,01,43,137,42,02,35,230,40,03,51,195,44,07,85,014,47,1*79
$GBGSV,5,2,18,08,54,203,43,10,71,319,45,12,36,299,43,13,40,208,44,1*75
$GBGSV,5,3,18,22,37,134,44,24,35,266,47,26,26,207,42,38,67,199,47,1*71
$GBGSV,5,4,18,40,72,062,48,59,45,144,46,60,34,236,42,04,33,120,37,1*7A
$GBGSV,5,5,18,19,31,068,44,44,54,324,48,1*73
$GBGSV,5,1,18,01,43,137,42,02,35,230,41,03,51,195,45,07,85,014,48,8*7F
$GBGSV,5,2,18,08,54,203,46,10,71,319,47,12,36,299,46,13,40,208,43,8*79
$GBGSV,5,3,18,22,37,134,45,24,35,266,46,26,26,207,42,38,67,199,50,8*7E
$GBGSV,5,4,18,40,72,062,51,59,45,144,46,60,34,236,44,04,33,120,38,8*72
$GBGSV,5,5,18,19,31,068,45,44,54,324,50,8*72
$GBGSV,3,1,09,01,43,137,43,02,35,230,44,03,51,195,47,07,85,014,49,B*04
$GBGSV,3,2,09,08,54,203,47,10,71,319,48,12,36,299,47,13,40,208,44,B*0D
$GBGSV,3,3,09,04,33,120,39,B*31
$GAGSV,2,1,06,02,42,169,46,15,37,263,45,27,21,318,42,30,66,271,49,1*7E
$GAGSV,2,2,06,34,65,348,49,36,25,047,43,1*73
$GAGSV,2,1,06,02,42,169,48,15,37,263,47,27,21,318,44,30,66,271,51,2*7E
$GAGSV,2,2,06,34,65,348,51,36,25,047,45,2*7F
$GAGSV,2,1,06,02,42,169,45,15,37,263,43,27,21,318,41,30,66,271,47,7*70
$GAGSV,2,2,06,34,65,348,48,36,25,047,42,7*75
$GNGGA,072155.00,3207.95442530,N,11841.73943502,E,1,28,0.6,7.3877,M,1.7756,M,,*4A
