$GNGGA,074634.00,3207.95403458,N,11841.73959603,E,1,28,0.6,7.2436,M,1.7757,M,,*46
$GNRMC,074634.00,A,3207.95403458,N,11841.73959603,E,0.008,203.1,030424,6.1,W,A,C*57
#HEADINGA,COM3,9984,91.0,FINE,2308,287212.000,2107923,16,18;SOL_COMPUTED,NARROW_INT,1.9938,203.6939,0.1976,0.0000,0.1432,0.2685,"999",52,41,41,37,0,01,3,f3*cb0145d2
$GPGSV,3,1,09,03,28,043,42,06,54,294,46,14,38,176,44,09,14,131,23,1*6D
$GPGSV,3,2,09,17,64,057,46,19,61,348,46,22,60,200,46,04,13,090,22,1*63
$GPGSV,3,3,09,11,24,261,42,1*58
$GPGSV,3,1,09,03,28,043,40,06,54,294,47,14,38,176,44,09,14,131,31,4*68
$GPGSV,3,2,09,17,64,057,46,19,61,348,45,22,60,200,44,04,13,090,20,4*65
$GPGSV,3,3,09,11,24,261,39,4*51
$GPGSV,2,1,06,03,28,043,46,06,54,294,50,14,38,176,46,09,14,131,34,8*6D
$GPGSV,2,2,06,04,13,090,15,11,24,261,43,8*64
$GLGSV,2,1,08,74,41,239,45,73,16,196,41,75,29,308,48,69,38,105,51,1*7E
$GLGSV,2,2,08,84,45,003,42,83,11,065,25,85,23,295,50,68,24,047,47,1*78
$GLGSV,2,1,07,73,16,196,41,75,29,308,45,69,38,105,48,84,45,003,44,3*77
$GLGSV,2,2,07,83,11,065,37,85,23,295,43,68,24,047,46,3*4D
$GBGSV,6,1,21,01,44,137,44,02,35,230,37,03,51,195,44,07,88,072,46,1*7D
$GBGSV,6,2,21,08,58,213,43,10,74,311,45,12,41,310,43,13,44,216,44,1*77
$GBGSV,6,3,21,22,45,123,47,24,31,254,46,26,18,201,36,38,71,213,48,1*7D
$GBGSV,6,4,21,40,74,080,47,59,45,144,45,60,34,236,43,04,33,120,39,1*7A
$GBGSV,6,5,21,19,28,057,45,44,58,340,48,25,12,307,35,21,18,177,39,1*76
$GBGSV,6,6,21,34,17,291,42,1*48
$GBGSV,6,1,21,01,44,137,44,02,35,230,41,03,51,195,45,07,88,072,47,8*75
$GBGSV,6,2,21,08,58,213,46,10,74,311,47,12,41,310,48,13,44,216,45,8*73
$GBGSV,6,3,21,22,45,123,49,24,31,254,45,26,18,201,35,38,71,213,50,8*73
$GBGSV,6,4,21,40,74,080,50,59,45,144,48,60,34,236,44,04,33,120,42,8*73
$GBGSV,6,5,21,19,28,057,46,44,58,340,51,25,12,307,35,21,18,177,40,8*7A
$GBGSV,6,6,21,34,17,291,43,8*40
$GBGSV,3,1,09,01,44,137,46,02,35,230,43,03,51,195,47,07,88,072,49,B*0C
$GBGSV,3,2,09,08,58,213,48,10,74,311,48,12,41,310,48,13,44,216,45,B*07
$GBGSV,3,3,09,04,33,120,45,B*3A
$GAGSV,2,1,07,02,32,171,43,15,41,274,45,27,28,313,43,30,64,247,49,1*77
$GAGSV,2,2,07,34,60,005,49,36,19,053,40,05,16,107,30,1*43
$GAGSV,2,1,07,02,32,171,46,15,41,274,47,27,28,313,45,30,64,247,51,2*7C
$GAGSV,2,2,07,34,60,005,52,36,19,053,43,05,16,107,31,2*48
$GAGSV,2,1,07,02,32,171,42,15,41,274,44,27,28,313,41,30,64,247,48,7*72
$GAGSV,2,2,07,34,60,005,45,36,19,053,40,05,16,107,29,7*41
$GNGGA,074635.00,3207.95403444,N,11841.73959638,E,1,28,0.6,7.2449,M,1.7757,M,,*4A
$GNRMC,074635.00,A,3207.95403444,N,11841.73959638,E,0.008,197.2,030424,6.1,W,A,C*5E
#HEADINGA,COM3,9984,91.0,FINE,2308,287213.000,2108923,16,18;SOL_COMPUTED,NARROW_INT,1.9938,203.7567,0.1979,0.0000,0.1435,0.2686,"999",52,41,41,37,0,01,3,f3*7e5b50dd
$GPGSV,3,1,09,03,28,043,42,06,54,294,46,14,38,176,44,09,14,131,23,1*6D
$GPGSV,3,2,09,17,64,057,46,19,61,348,46,22,60,200,46,04,13,090,23,1*62
$GPGSV,3,3,09,11,24,261,42,1*58
$GPGSV,3,1,09,03,28,043,40,06,54,294,47,14,38,176,44,09,14,131,30,4*69
$GPGSV,3,2,09,17,64,057,46,19,61,348,44,22,60,200,44,04,13,090,23,4*67
$GPGSV,3,3,09,11,24,261,39,4*51
$GPGSV,2,1,06,03,28,043,46,06,54,294,50,14,38,176,46,09,14,131,35,8*6C
$GPGSV,2,2,06,04,13,090,17,11,24,261,43,8*66
$GLGSV,2,1,08,74,41,239,45,73,16,196,41,75,29,308,48,69,38,105,51,1*7E
$GLGSV,2,2,08,84,45,003,42,83,11,065,25,85,23,295,50,68,24,047,47,1*78
$GLGSV,2,1,07,73,16,196,40,75,29,308,45,69,38,105,48,84,45,003,44,3*76
$GLGSV,2,2,07,83,11,065,37,85,23,295,43,68,24,047,46,3*4D
$GBGSV,6,1,21,01,44,137,45,02,35,230,37,03,51,195,44,07,88,072,46,1*7C
$GBGSV,6,2,21,08,58,213,43,10,74,311,45,12,41,310,43,13,44,216,44,1*77
$GBGSV,6,3,21,22,45,123,48,24,31,254,46,26,18,201,36,38,71,213,48,1*72
$GBGSV,6,4,21,40,74,080,48,59,45,144,45,60,34,236,43,04,33,120,39,1*75
$GBGSV,6,5,21,19,28,056,45,44,58,340,48,25,12,307,36,21,18,177,39,1*74
$GBGSV,6,6,21,34,17,291,42,1*48
$GBGSV,6,1,21,01,44,137,45,02,35,230,41,03,51,195,45,07,88,072,47,8*74
$GBGSV,6,2,21,08,58,213,46,10,74,311,47,12,41,310,48,13,44,216,45,8*73
$GBGSV,6,3,21,22,45,123,49,24,31,254,45,26,18,201,34,38,71,213,50,8*72
$GBGSV,6,4,21,40,74,080,50,59,45,144,48,60,34,236,44,04,33,120,42,8*73
$GBGSV,6,5,21,19,28,056,46,44,58,340,51,25,12,307,35,21,18,177,40,8*7B
$GBGSV,6,6,21,34,17,291,43,8*40
$GBGSV,3,1,09,01,44,137,46,02,35,230,43,03,51,195,47,07,88,072,49,B*0C
$GBGSV,3,2,09,08,58,213,47,10,74,311,48,12,41,310,48,13,44,216,46,B*0B
$GBGSV,3,3,09,04,33,120,45,B*3A
$GAGSV,2,1,07,02,32,171,43,15,41,274,46,27,28,313,43,30,64,247,49,1*74
$GAGSV,2,2,07,34,60,005,49,36,19,053,40,05,16,107,30,1*43
$GAGSV,2,1,07,02,32,171,46,15,41,274,47,27,28,313,45,30,64,247,51,2*7C
$GAGSV,2,2,07,34,60,005,52,36,19,053,43,05,16,107,32,2*4B
$GAGSV,2,1,07,02,32,171,42,15,41,274,44,27,28,313,41,30,64,247,47,7*7D
$GAGSV,2,2,07,34,60,005,45,36,19,053,40,05,16,107,29,7*41
$GNGGA,074636.00,3207.95403441,N,11841.73959683,E,1,28,0.6,7.2459,M,1.7757,M,,*4D
$GNRMC,074636.00,A,3207.95403441,N,11841.73959683,E,0.007,194.4,030424,6.1,W,A,C*52
#HEADINGA,COM3,9984,91.0,FINE,2308,287214.000,2109923,16,18;SOL_COMPUTED,NARROW_INT,1.9938,203.8195,0.1981,0.0000,0.1436,0.2683,"999",52,41,41,37,0,01,3,f3*e8acf4eb
$GPGSV,3,1,09,03,28,043,42,06,54,294,46,14,38,176,43,09,14,131,22,1*6B
$GPGSV,3,2,09,17,64,057,46,19,61,348,46,22,60,200,46,04,13,090,23,1*62
$GPGSV,3,3,09,11,24,261,42,1*58
$GPGSV,3,1,09,03,28,043,41,06,54,294,47,14,38,176,44,09,14,131,31,4*69
$GPGSV,3,2,09,17,64,057,46,19,61,348,44,22,60,200,44,04,13,090,23,4*67
$GPGSV,3,3,09,11,24,261,39,4*51
$GPGSV,2,1,06,03,28,043,46,06,54,294,50,14,38,176,47,09,14,131,36,8*6E
$GPGSV,2,2,06,04,13,090,17,11,24,261,43,8*66
$GLGSV,2,1,08,74,41,239,45,73,16,196,42,75,29,308,49,69,38,105,51,1*7C
$GLGSV,2,2,08,84,45,003,41,83,11,065,24,85,23,295,50,68,24,047,47,1*7A
$GLGSV,2,1,07,73,16,196,40,75,29,308,45,69,38,105,48,84,45,003,44,3*76
$GLGSV,2,2,07,83,11,065,35,85,23,295,43,68,24,047,46,3*4F
$GBGSV,6,1,21,01,44,137,45,02,35,230,37,03,51,195,44,07,88,073,46,1*7D
$GBGSV,6,2,21,08,58,213,42,10,74,311,45,12,41,310,44,13,44,216,45,1*70
$GBGSV,6,3,21,22,45,123,47,24,31,254,46,26,18,201,35,38,71,213,48,1*7E
$GBGSV,6,4,21,40,74,080,48,59,45,144,45,60,34,236,43,04,33,120,39,1*75
$GBGSV,6,5,21,19,28,056,45,44,58,340,48,25,12,307,36,21,18,177,39,1*74
$GBGSV,6,6,21,34,17,291,41,1*4B
$GBGSV,6,1,21,01,44,137,45,02,35,230,41,03,51,195,45,07,88,073,47,8*75
$GBGSV,6,2,21,08,58,213,46,10,74,311,47,12,41,310,48,13,44,216,45,8*73
$GBGSV,6,3,21,22,45,123,49,24,31,254,45,26,18,201,34,38,71,213,50,8*72
$GBGSV,6,4,21,40,74,080,50,59,45,144,48,60,34,236,44,04,33,120,42,8*73
$GBGSV,6,5,21,19,28,056,46,44,58,340,51,25,12,307,35,21,18,177,40,8*7B
$GBGSV,6,6,21,34,17,291,43,8*40
$GBGSV,3,1,09,01,44,137,46,02,35,230,43,03,51,195,47,07,88,073,49,B*0D
$GBGSV,3,2,09,08,58,213,47,10,74,311,48,12,41,310,49,13,44,216,46,B*0A
$GBGSV,3,3,09,04,33,120,44,B*3B
$GAGSV,2,1,07,02,32,171,44,15,41,274,46,27,28,313,43,30,64,247,49,1*73
$GAGSV,2,2,07,34,60,005,49,36,19,053,41,05,16,107,30,1*42
$GAGSV,2,1,07,02,32,171,46,15,41,274,47,27,28,313,45,30,64,247,51,2*7C
$GAGSV,2,2,07,34,60,005,52,36,19,053,43,05,16,107,32,2*4B
$GAGSV,2,1,07,02,32,171,42,15,41,274,44,27,28,313,41,30,64,247,48,7*72
$GAGSV,2,2,07,34,60,005,45,36,19,053,40,05,16,107,30,7*49
$GNGGA,074637.00,3207.95403451,N,11841.73959732,E,1,28,0.6,7.2464,M,1.7757,M,,*48
$GNRMC,074637.00,A,3207.95403451,N,11841.73959732,E,0.006,195.2,030424,6.1,W,A,C*5F
#HEADINGA,COM3,9984,91.0,FINE,2308,287215.000,2110923,16,18;SOL_COMPUTED,NARROW_INT,1.9938,203.8822,0.1983,0.0000,0.1436,0.2690,"999",52,41,41,37,0,01,3,f3*de55802b
$GPGSV,3,1,09,03,28,043,41,06,54,294,46,14,38,176,43,09,14,131,20,1*6A
$GPGSV,3,2,09,17,64,057,46,19,61,348,46,22,60,199,46,04,13,090,22,1*60
$GPGSV,3,3,09,11,24,261,42,1*58
$GPGSV,3,1,09,03,28,043,40,06,54,294,47,14,38,176,44,09,14,131,32,4*6B
$GPGSV,3,2,09,17,64,057,46,19,61,348,44,22,60,199,44,04,13,090,24,4*63
$GPGSV,3,3,09,11,24,261,39,4*51
$GPGSV,2,1,06,03,28,043,46,06,54,294,50,14,38,176,47,09,14,131,36,8*6E
$GPGSV,2,2,06,04,13,090,17,11,24,261,43,8*66
$GLGSV,2,1,08,74,41,239,45,73,16,196,42,75,29,308,49,69,38,105,51,1*7C
$GLGSV,2,2,08,84,45,003,41,83,11,065,24,85,23,295,50,68,24,047,47,1*7A
$GLGSV,2,1,07,73,16,196,39,75,29,308,45,69,38,105,48,84,45,003,44,3*78
$GLGSV,2,2,07,83,11,065,36,85,23,295,44,68,24,047,46,3*4B
$GBGSV,6,1,21,01,44,137,44,02,35,230,37,03,51,195,44,07,88,073,45,1*7F
$GBGSV,6,2,21,08,58,213,42,10,74,311,45,12,41,310,43,13,44,216,44,1*76
$GBGSV,6,3,21,22,45,123,48,24,31,254,46,26,18,201,35,38,71,213,48,1*71
$GBGSV,6,4,21,40,74,080,47,59,45,144,45,60,34,236,43,04,33,120,39,1*7A
$GBGSV,6,5,21,19,28,056,45,44,58,340,48,25,12,307,36,21,18,177,40,1*7A
$GBGSV,6,6,21,34,17,291,41,1*4B
$GBGSV,6,1,21,01,44,137,44,02,35,230,41,03,51,195,45,07,88,073,47,8*74
$GBGSV,6,2,21,08,58,213,46,10,74,311,47,12,41,310,49,13,44,216,45,8*72
$GBGSV,6,3,21,22,45,123,49,24,31,254,45,26,18,201,34,38,71,213,50,8*72
$GBGSV,6,4,21,40,74,080,50,59,45,144,48,60,34,236,44,04,33,120,42,8*73
$GBGSV,6,5,21,19,28,056,46,44,58,340,51,25,12,307,35,21,18,177,40,8*7B
$GBGSV,6,6,21,34,17,291,43,8*40
$GBGSV,3,1,09,01,44,137,46,02,35,230,43,03,51,195,47,07,88,073,49,B*0D
$GBGSV,3,2,09,08,58,213,47,10,74,311,48,12,41,310,49,13,44,216,46,B*0A
$GBGSV,3,3,09,04,33,120,44,B*3B
$GAGSV,2,1,07,02,32,171,44,15,41,274,46,27,28,313,43,30,64,247,49,1*73
$GAGSV,2,2,07,34,60,005,49,36,19,053,41,05,16,107,29,1*4A
$GAGSV,2,1,07,02,32,171,46,15,41,274,47,27,28,313,45,30,64,247,51,2*7C
$GAGSV,2,2,07,34,60,005,52,36,19,053,43,05,16,107,32,2*4B
$GAGSV,2,1,07,02,32,171,42,15,41,274,44,27,28,313,41,30,64,247,47,7*7D
$GAGSV,2,2,07,34,60,005,45,36,19,053,40,05,16,107,30,7*49
$GNGGA,074638.00,3207.95403452,N,11841.73959804,E,1,28,0.6,7.2466,M,1.7757,M,,*4C
$GNRMC,074638.00,A,3207.95403452,N,11841.73959804,E,0.006,181.9,030424,6.1,W,A,C*57
#HEADINGA,COM3,9984,91.0,FINE,2308,287216.000,2111923,16,18;SOL_COMPUTED,NARROW_INT,1.9938,203.9449,0.1986,0.0000,0.1433,0.2680,"999",52,41,41,37,0,01,3,f3*c2a5941c
$GPGSV,3,1,09,03,28,043,42,06,54,294,46,14,38,176,43,09,14,131,18,1*62
$GPGSV,3,2,09,17,64,057,46,19,61,348,46,22,60,199,46,04,13,090,22,1*60
$GPGSV,3,3,09,11,24,261,42,1*58
$GPGSV,3,1,09,03,28,043,40,06,54,294,47,14,38,176,44,09,14,131,31,4*68
$GPGSV,3,2,09,17,64,057,46,19,61,348,44,22,60,199,44,04,13,090,23,4*64
$GPGSV,3,3,09,11,24,261,39,4*51
$GPGSV,2,1,06,03,28,043,45,06,54,294,50,14,38,176,47,09,14,131,35,8*6E
$GPGSV,2,2,06,04,13,090,17,11,24,261,43,8*66
$GLGSV,2,1,08,74,41,239,45,73,16,196,42,75,29,308,49,69,38,105,51,1*7C
$GLGSV,2,2,08,84,45,003,41,83,11,065,23,85,23,295,50,68,24,047,48,1*72
$GLGSV,2,1,07,73,16,196,39,75,29,308,44,69,38,105,48,84,45,003,44,3*79
$GLGSV,2,2,07,83,11,065,36,85,23,295,44,68,24,047,46,3*4B
$GBGSV,6,1,21,01,44,137,44,02,35,230,37,03,51,195,44,07,88,073,46,1*7C
$GBGSV,6,2,21,08,58,213,42,10,74,311,45,12,41,310,44,13,44,216,44,1*71
$GBGSV,6,3,21,22,45,123,48,24,31,254,46,26,18,201,36,38,71,213,48,1*72
$GBGSV,6,4,21,40,74,080,47,59,45,144,45,60,34,236,43,04,33,120,39,1*7A
$GBGSV,6,5,21,19,28,056,45,44,58,340,48,25,12,307,36,21,18,177,40,1*7A
$GBGSV,6,6,21,34,17,291,41,1*4B
$GBGSV,6,1,21,01,44,137,44,02,35,230,40,03,51,195,45,07,88,073,47,8*75
$GBGSV,6,2,21,08,58,213,46,10,74,311,47,12,41,310,48,13,44,216,45,8*73
$GBGSV,6,3,21,22,45,123,49,24,31,254,45,26,18,201,34,38,71,213,50,8*72
$GBGSV,6,4,21,40,74,080,50,59,45,144,47,60,34,236,44,04,33,120,42,8*7C
$GBGSV,6,5,21,19,28,056,46,44,58,340,51,25,12,307,35,21,18,177,40,8*7B
$GBGSV,6,6,21,34,17,291,43,8*40
$GBGSV,3,1,09,01,44,137,46,02,35,230,43,03,51,195,47,07,88,073,49,B*0D
$GBGSV,3,2,09,08,58,213,47,10,74,311,48,12,41,310,49,13,44,216,46,B*0A
$GBGSV,3,3,09,04,33,120,44,B*3B
$GAGSV,2,1,07,02,32,171,44,15,41,274,46,27,28,313,43,30,64,247,49,1*73
$GAGSV,2,2,07,34,60,005,49,36,19,053,41,05,16,107,29,1*4A
$GAGSV,2,1,07,02,32,171,46,15,41,274,48,27,28,313,45,30,64,247,51,2*73
$GAGSV,2,2,07,34,60,005,52,36,19,053,43,05,16,107,33,2*4A
$GAGSV,2,1,07,02,32,171,43,15,41,274,44,27,28,313,41,30,64,247,47,7*7C
$GAGSV,2,2,07,34,60,005,45,36,19,053,40,05,16,107,30,7*49
$GNGGA,074639.00,3207.95403444,N,11841.73959892,E,1,28,0.6,7.2475,M,1.7757,M,,*47
$GNRMC,074639.00,A,3207.95403444,N,11841.73959892,E,0.007,175.1,030424,6.1,W,A,C*5C
#HEADINGA,COM3,9984,91.0,FINE,2308,287217.000,2112924,16,18;SOL_COMPUTED,NARROW_INT,1.9938,204.0075,0.1988,0.0000,0.1431,0.2679,"999",52,41,41,36,0,01,3,f3*96b85d83
$GPGSV,3,1,09,03,28,043,42,06,54,294,46,14,38,176,43,09,14,131,19,1*63
$GPGSV,3,2,09,17,64,057,46,19,61,348,46,22,60,199,46,04,13,090,22,1*60
$GPGSV,3,3,09,11,24,261,42,1*58
$GPGSV,3,1,09,03,28,043,41,06,54,294,47,14,38,176,43,09,14,131,31,4*6E
$GPGSV,3,2,09,17,64,057,46,19,61,348,45,22,60,199,44,04,13,090,21,4*67
$GPGSV,3,3,09,11,24,261,40,4*5F
$GPGSV,2,1,06,03,28,043,46,06,54,294,50,14,38,176,46,09,14,131,35,8*6C
$GPGSV,2,2,06,04,13,090,19,11,24,261,43,8*68
$GLGSV,2,1,08,74,41,239,44,73,16,196,41,75,29,308,49,69,38,105,51,1*7E
$GLGSV,2,2,08,84,45,003,41,83,11,065,23,85,23,295,50,68,24,047,48,1*72
$GLGSV,2,1,07,73,16,196,39,75,29,308,45,69,38,105,48,84,45,003,44,3*78
$GLGSV,2,2,07,83,11,065,36,85,23,295,44,68,24,047,45,3*48
$GBGSV,6,1,21,01,44,137,44,02,35,230,37,03,51,195,44,07,88,073,46,1*7C
$GBGSV,6,2,21,08,58,213,42,10,74,311,45,12,41,310,44,13,44,216,44,1*71
$GBGSV,6,3,21,22,45,123,48,24,31,254,46,26,18,201,35,38,71,213,48,1*71
$GBGSV,6,4,21,40,74,080,48,59,45,144,45,60,34,236,42,04,33,120,39,1*74
$GBGSV,6,5,21,19,28,056,45,44,58,340,48,25,12,307,36,21,18,177,40,1*7A
$GBGSV,6,6,21,34,17,291,41,1*4B
$GBGSV,6,1,21,01,44,137,44,02,35,230,40,03,51,195,45,07,88,073,47,8*75
$GBGSV,6,2,21,08,58,213,46,10,74,311,47,12,41,310,48,13,44,216,44,8*72
$GBGSV,6,3,21,22,45,123,49,24,31,254,44,26,18,201,33,38,71,213,50,8*74
$GBGSV,6,4,21,40,74,080,50,59,45,144,48,60,34,236,43,04,33,120,42,8*74
$GBGSV,6,5,21,19,28,056,46,44,58,340,50,25,12,307,35,21,18,177,40,8*7A
$GBGSV,6,6,21,34,17,291,42,8*41
$GBGSV,3,1,09,01,44,137,46,02,35,230,42,03,51,195,47,07,88,073,49,B*0C
$GBGSV,3,2,09,08,58,213,47,10,74,311,48,12,41,310,49,13,44,216,45,B*09
$GBGSV,3,3,09,04,33,120,44,B*3B
$GAGSV,2,1,07,02,32,171,44,15,41,274,46,27,28,313,42,30,64,247,49,1*72
$GAGSV,2,2,07,34,60,005,49,36,19,053,41,05,16,107,29,1*4A
$GAGSV,2,1,07,02,32,171,45,15,41,274,48,27,28,313,45,30,64,247,51,2*70
$GAGSV,2,2,07,34,60,005,51,36,19,053,42,05,16,107,32,2*49
$GAGSV,2,1,07,02,32,171,43,15,41,274,44,27,28,313,41,30,64,247,47,7*7C
$GAGSV,2,2,07,34,60,005,45,36,19,053,40,05,16,107,29,7*41
$GNGGA,074640.00,3207.95403443,N,11841.73959978,E,1,28,0.6,7.2483,M,1.7757,M,,*42
$GNRMC,074640.00,A,3207.95403443,N,11841.73959978,E,0.006,174.6,030424,6.1,W,A,C*57
#HEADINGA,COM3,9984,91.0,FINE,2308,287218.000,2113923,16,18;SOL_COMPUTED,NARROW_INT,1.9938,204.0700,0.1991,0.0000,0.1429,0.2679,"999",52,41,41,36,0,01,3,f3*6f74f897
$GPGSV,3,1,09,03,28,043,42,06,54,294,46,14,38,176,43,09,14,131,18,1*62
$GPGSV,3,2,09,17,64,057,46,19,61,348,46,22,60,199,46,04,13,090,22,1*60
$GPGSV,3,3,09,11,24,261,42,1*58
$GPGSV,3,1,09,03,28,043,40,06,54,294,47,14,38,176,44,09,14,131,32,4*6B
$GPGSV,3,2,09,17,64,057,46,19,61,348,45,22,60,199,44,04,13,090,22,4*64
$GPGSV,3,3,09,11,24,261,40,4*5F
$GPGSV,2,1,06,03,28,043,46,06,54,294,50,14,38,176,47,09,14,131,35,8*6D
$GPGSV,2,2,06,04,13,090,19,11,24,261,43,8*68
$GLGSV,2,1,08,74,41,239,43,73,16,196,40,75,29,308,49,69,38,105,51,1*78
$GLGSV,2,2,08,84,45,003,41,83,11,065,23,85,23,295,50,68,24,047,48,1*72
$GLGSV,2,1,07,73,16,196,38,75,29,308,45,69,38,105,48,84,45,003,44,3*79
$GLGSV,2,2,07,83,11,065,37,85,23,295,43,68,24,047,45,3*4E
$GBGSV,6,1,21,01,44,137,44,02,35,230,36,03,51,195,44,07,88,073,46,1*7D
$GBGSV,6,2,21,08,58,213,43,10,74,311,45,12,41,310,44,13,44,216,44,1*70
$GBGSV,6,3,21,22,45,123,48,24,31,254,47,26,18,201,36,38,71,213,48,1*73
$GBGSV,6,4,21,40,74,080,48,59,45,144,46,60,34,236,41,04,33,120,39,1*74
$GBGSV,6,5,21,19,28,056,44,44,58,340,48,25,12,307,36,21,18,177,41,1*7A
$GBGSV,6,6,21,34,17,291,42,1*48
$GBGSV,6,1,21,01,44,137,44,02,35,230,40,03,51,195,45,07,88,073,47,8*75
$GBGSV,6,2,21,08,58,213,47,10,74,311,47,12,41,310,48,13,44,216,43,8*74
$GBGSV,6,3,21,22,45,123,49,24,31,254,45,26,18,201,35,38,71,213,50,8*73
$GBGSV,6,4,21,40,74,080,50,59,45,144,48,60,34,236,42,04,33,120,42,8*75
$GBGSV,6,5,21,19,28,056,46,44,58,340,51,25,12,307,35,21,18,177,40,8*7B
$GBGSV,6,6,21,34,17,291,42,8*41
$GBGSV,3,1,09,01,44,137,46,02,35,230,43,03,51,195,47,07,88,073,49,B*0D
$GBGSV,3,2,09,08,58,213,48,10,74,311,47,12,41,310,48,13,44,216,44,B*09
$GBGSV,3,3,09,04,33,120,44,B*3B
$GAGSV,2,1,07,02,32,171,43,15,41,275,45,27,28,313,42,30,64,247,49,1*77
$GAGSV,2,2,07,34,60,005,49,36,19,053,40,05,16,107,30,1*43
$GAGSV,2,1,07,02,32,171,45,15,41,275,48,27,28,313,45,30,64,247,51,2*71
$GAGSV,2,2,07,34,60,005,51,36,19,053,42,05,16,107,32,2*49
$GAGSV,2,1,07,02,32,171,43,15,41,275,44,27,28,313,41,30,64,247,47,7*7D
$GAGSV,2,2,07,34,60,005,46,36,19,053,40,05,16,107,29,7*42
$GNGGA,074641.00,3207.95403444,N,11841.73960072,E,1,28,0.6,7.2492,M,1.7757,M,,*4D
$GNRMC,074641.00,A,3207.95403444,N,11841.73960072,E,0.006,164.1,030424,6.1,W,A,C*5E
#HEADINGA,COM3,9984,91.0,FINE,2308,287219.000,2114923,16,18;SOL_COMPUTED,NARROW_INT,1.9938,204.1324,0.1993,0.0000,0.1435,0.2676,"999",52,41,41,36,0,01,3,f3*a001147c
$GPGSV,3,1,09,03,28,043,41,06,54,294,46,14,38,176,43,09,14,131,13,1*6A
$GPGSV,3,2,09,17,64,057,45,19,61,348,46,22,60,199,46,04,13,090,21,1*60
$GPGSV,3,3,09,11,24,261,41,1*5B
$GPGSV,3,1,09,03,28,043,40,06,54,294,47,14,38,176,44,09,14,131,33,4*6A
$GPGSV,3,2,09,17,64,057,46,19,61,348,45,22,60,199,44,04,13,090,21,4*67
$GPGSV,3,3,09,11,24,261,39,4*51
$GPGSV,2,1,06,03,28,043,46,06,54,294,50,14,38,176,47,09,14,131,35,8*6D
$GPGSV,2,2,06,04,13,090,19,11,24,261,43,8*68
$GLGSV,2,1,08,74,41,239,45,73,16,196,41,75,29,308,49,69,38,105,51,1*7F
$GLGSV,2,2,08,84,45,003,41,83,11,065,23,85,23,295,49,68,24,047,49,1*7B
$GLGSV,2,1,07,73,16,196,38,75,29,308,45,69,38,105,48,84,45,003,44,3*79
$GLGSV,2,2,07,83,11,065,36,85,23,295,44,68,24,047,45,3*48
$GBGSV,6,1,21,01,44,137,45,02,35,230,36,03,51,195,44,07,88,073,46,1*7C
$GBGSV,6,2,21,08,58,213,43,10,74,311,45,12,41,310,44,13,44,216,44,1*70
$GBGSV,6,3,21,22,45,123,49,24,31,254,47,26,18,201,36,38,71,213,48,1*72
$GBGSV,6,4,21,40,74,080,48,59,45,144,46,60,34,236,42,04,33,120,40,1*79
$GBGSV,6,5,21,19,28,056,45,44,58,340,48,25,12,307,37,21,18,177,41,1*7A
$GBGSV,6,6,21,34,17,291,42,1*48
$GBGSV,6,1,21,01,44,137,44,02,35,230,40,03,51,195,45,07,88,073,47,8*75
$GBGSV,6,2,21,08,58,213,46,10,74,311,47,12,41,310,48,13,44,216,44,8*72
$GBGSV,6,3,21,22,45,123,49,24,31,254,46,26,18,201,35,38,71,213,50,8*70
$GBGSV,6,4,21,40,74,080,50,59,45,144,48,60,34,236,43,04,33,120,42,8*74
$GBGSV,6,5,21,19,28,056,46,44,58,340,50,25,12,307,35,21,18,177,40,8*7A
$GBGSV,6,6,21,34,17,291,42,8*41
$GBGSV,3,1,09,01,44,137,46,02,35,230,43,03,51,195,47,07,88,073,49,B*0D
$GBGSV,3,2,09,08,58,213,47,10,74,311,47,12,41,310,48,13,44,216,45,B*07
$GBGSV,3,3,09,04,33,120,44,B*3B
$GAGSV,2,1,07,02,32,171,43,15,41,275,45,27,28,313,43,30,64,247,49,1*76
$GAGSV,2,2,07,34,60,005,49,36,19,053,40,05,16,107,30,1*43
$GAGSV,2,1,07,02,32,171,45,15,41,275,48,27,28,313,45,30,64,247,51,2*71
$GAGSV,2,2,07,34,60,005,52,36,19,053,43,05,16,107,32,2*4B
$GAGSV,2,1,07,02,32,171,43,15,41,275,44,27,28,313,40,30,64,247,47,7*7C
$GAGSV,2,2,07,34,60,005,46,36,19,053,39,05,16,107,29,7*4C
$GNGGA,074642.00,3207.95403450,N,11841.73960191,E,1,28,0.6,7.2498,M,1.7757,M,,*4D
$GNRMC,074642.00,A,3207.95403450,N,11841.73960191,E,0.005,150.2,030424,6.1,W,A,C*53
#HEADINGA,COM3,9984,91.0,FINE,2308,287220.000,2115923,16,18;SOL_COMPUTED,NARROW_INT,1.9938,204.1949,0.1995,0.0000,0.1435,0.2677,"999",52,41,41,36,0,01,3,f3*ddcbecf6
$GPGSV,3,1,09,03,28,043,41,06,54,294,46,14,38,176,43,09,14,131,11,1*68
$GPGSV,3,2,09,17,64,057,45,19,61,348,46,22,60,199,46,04,13,090,21,1*60
$GPGSV,3,3,09,11,24,261,42,1*58
$GPGSV,3,1,09,03,28,043,39,06,54,294,47,14,38,176,44,09,14,131,33,4*64
$GPGSV,3,2,09,17,64,057,46,19,61,348,45,22,60,199,44,04,13,090,23,4*65
$GPGSV,3,3,09,11,24,261,39,4*51
$GPGSV,2,1,06,03,28,043,46,06,54,294,50,14,38,176,47,09,14,131,34,8*6C
$GPGSV,2,2,06,04,13,090,19,11,24,261,43,8*68
$GLGSV,2,1,08,74,41,239,45,73,16,196,41,75,29,308,49,69,38,105,52,1*7C
$GLGSV,2,2,08,84,45,003,40,83,11,065,23,85,23,296,49,68,24,047,48,1*78
$GLGSV,2,1,07,73,16,196,38,75,29,308,45,69,38,105,47,84,45,003,44,3*76
$GLGSV,2,2,07,83,11,065,36,85,23,296,44,68,24,047,45,3*4B
$GBGSV,6,1,21,01,44,137,45,02,35,230,38,03,51,195,44,07,88,074,46,1*75
$GBGSV,6,2,21,08,58,213,42,10,74,311,45,12,41,310,44,13,44,216,44,1*71
$GBGSV,6,3,21,22,45,123,49,24,31,254,47,26,18,201,36,38,71,213,48,1*72
$GBGSV,6,4,21,40,74,080,48,59,45,144,45,60,34,236,44,04,33,120,39,1*72
$GBGSV,6,5,21,19,28,056,45,44,58,340,48,25,12,307,37,21,18,177,40,1*7B
$GBGSV,6,6,21,34,17,291,42,1*48
$GBGSV,6,1,21,01,44,137,44,02,35,230,41,03,51,195,45,07,88,074,47,8*73
$GBGSV,6,2,21,08,58,213,46,10,74,311,47,12,41,310,48,13,44,216,44,8*72
$GBGSV,6,3,21,22,45,123,49,24,31,254,45,26,18,201,34,38,71,213,50,8*72
$GBGSV,6,4,21,40,74,080,50,59,45,144,48,60,34,236,44,04,33,120,42,8*73
$GBGSV,6,5,21,19,28,056,46,44,58,340,51,25,12,307,35,21,18,177,40,8*7B
$GBGSV,6,6,21,34,17,291,42,8*41
$GBGSV,3,1,09,01,44,137,46,02,35,230,44,03,51,195,47,07,88,074,49,B*0D
$GBGSV,3,2,09,08,58,213,47,10,74,311,48,12,41,310,48,13,44,216,45,B*08
$GBGSV,3,3,09,04,33,120,44,B*3B
$GAGSV,2,1,07,02,32,171,43,15,41,275,46,27,28,313,43,30,64,247,49,1*75
$GAGSV,2,2,07,34,60,005,49,36,19,053,40,05,16,107,30,1*43
$GAGSV,2,1,07,02,32,171,45,15,41,275,48,27,28,313,45,30,64,247,51,2*71
$GAGSV,2,2,07,34,60,005,51,36,19,053,43,05,16,107,32,2*48
$GAGSV,2,1,07,02,32,171,43,15,41,275,45,27,28,313,41,30,64,247,47,7*7C
$GAGSV,2,2,07,34,60,005,46,36,19,053,40,05,16,107,30,7*4A
$GNGGA,074643.00,3207.95403446,N,11841.73960309,E,1,28,0.6,7.2505,M,1.7757,M,,*4D
$GNRMC,074643.00,A,3207.95403446,N,11841.73960309,E,0.006,153.4,030424,6.1,W,A,C*50
#HEADINGA,COM3,9984,91.0,FINE,2308,287221.000,2116924,16,18;SOL_COMPUTED,NARROW_INT,1.9938,204.2572,0.1998,0.0000,0.1431,0.2654,"999",52,42,42,37,0,01,3,f3*080147dd
$GPGSV,2,1,08,03,28,043,41,06,54,294,46,14,38,176,43,17,64,057,45,1*60
$GPGSV,2,2,08,19,61,348,46,22,60,199,46,04,13,090,23,11,24,261,42,1*60
$GPGSV,3,1,09,03,28,043,40,06,54,294,47,14,38,176,44,09,14,131,32,4*6B
$GPGSV,3,2,09,17,64,057,46,19,61,348,45,22,60,199,44,04,13,090,21,4*67
$GPGSV,3,3,09,11,24,261,39,4*51
$GPGSV,2,1,06,03,28,043,46,06,54,294,50,14,38,176,47,09,14,131,34,8*6C
$GPGSV,2,2,06,04,13,090,21,11,24,261,43,8*63
$GLGSV,2,1,08,74,41,239,45,73,16,196,40,75,29,308,49,69,38,105,52,1*7D
$GLGSV,2,2,08,84,45,003,40,83,11,065,24,85,23,296,50,68,24,047,48,1*77
$GLGSV,2,1,07,73,16,196,37,75,29,308,44,69,38,105,47,84,45,003,44,3*78
$GLGSV,2,2,07,83,11,065,37,85,23,296,43,68,24,047,45,3*4D
$GBGSV,6,1,21,01,44,137,44,02,35,230,38,03,51,195,44,07,88,074,46,1*74
$GBGSV,6,2,21,08,58,213,42,10,74,311,45,12,41,310,44,13,44,216,44,1*71
$GBGSV,6,3,21,22,45,123,48,24,31,254,46,26,18,201,36,38,71,213,48,1*72
$GBGSV,6,4,21,40,74,080,48,59,45,144,45,60,34,236,44,04,33,120,39,1*72
$GBGSV,6,5,21,19,28,056,44,44,58,340,48,25,12,307,37,21,18,177,41,1*7B
$GBGSV,6,6,21,34,17,291,42,1*48
$GBGSV,6,1,21,01,44,137,45,02,35,230,42,03,51,195,45,07,88,074,48,8*7E
$GBGSV,6,2,21,08,58,213,46,10,74,311,47,12,41,310,48,13,44,216,45,8*73
$GBGSV,6,3,21,22,45,123,49,24,31,254,45,26,18,201,35,38,71,213,50,8*73
$GBGSV,6,4,21,40,74,080,50,59,45,144,48,60,34,236,45,04,33,120,42,8*72
$GBGSV,6,5,21,19,28,056,46,44,58,340,51,25,12,307,35,21,18,177,41,8*7A
$GBGSV,6,6,21,34,17,291,42,8*41
$GBGSV,3,1,09,01,44,137,46,02,35,230,45,03,51,195,47,07,88,074,49,B*0C
$GBGSV,3,2,09,08,58,213,47,10,74,311,48,12,41,310,48,13,44,216,45,B*08
$GBGSV,3,3,09,04,33,120,44,B*3B
$GAGSV,2,1,07,02,32,171,43,15,41,275,46,27,28,313,43,30,64,247,49,1*75
$GAGSV,2,2,07,34,60,005,49,36,19,053,41,05,16,107,30,1*42
$GAGSV,2,1,07,02,32,171,45,15,41,275,48,27,28,313,45,30,64,247,51,2*71
$GAGSV,2,2,07,34,60,005,51,36,19,053,42,05,16,107,32,2*49
$GAGSV,2,1,07,02,32,171,43,15,41,275,45,27,28,313,41,30,64,247,47,7*7C
$GAGSV,2,2,07,34,60,005,46,36,19,053,40,05,16,107,30,7*4A
$GNGGA,074644.00,3207.95403437,N,11841.73960421,E,1,28,0.6,7.2513,M,1.7757,M,,*46
$GNRMC,074644.00,A,3207.95403437,N,11841.73960421,E,0.006,157.9,030424,6.1,W,A,C*55
#HEADINGA,COM3,9984,88.0,FINE,2308,287222.000,2117923,16,18;SOL_COMPUTED,NARROW_INT,1.9938,204.3195,0.2000,0.0000,0.1429,0.2642,"999",52,42,42,37,0,01,3,f3*0dcce046
$GPGSV,3,1,09,03,28,043,41,06,54,294,46,14,38,176,43,09,14,131,14,1*6D
$GPGSV,3,2,09,17,64,057,45,19,61,348,46,22,60,199,46,04,13,090,22,1*63
$GPGSV,3,3,09,11,24,261,41,1*5B
$GPGSV,3,1,09,03,28,043,39,06,54,294,47,14,38,176,44,09,14,131,32,4*65
$GPGSV,3,2,09,17,64,057,46,19,61,348,45,22,60,199,44,04,13,090,23,4*65
$GPGSV,3,3,09,11,24,261,39,4*51
$GPGSV,2,1,06,03,28,043,46,06,54,294,50,14,38,176,47,09,14,131,33,8*6B
$GPGSV,2,2,06,04,13,090,22,11,24,261,44,8*67
$GLGSV,2,1,08,74,41,239,45,73,16,196,40,75,29,308,49,69,38,105,51,1*7E
$GLGSV,2,2,08,84,45,003,41,83,11,065,23,85,23,296,50,68,24,047,48,1*71
$GLGSV,2,1,07,73,16,196,37,75,29,308,44,69,38,105,47,84,45,003,44,3*78
$GLGSV,2,2,07,83,11,065,37,85,23,296,43,68,24,047,45,3*4D
$GBGSV,6,1,21,01,44,137,44,02,35,230,38,03,51,195,44,07,88,074,46,1*74
$GBGSV,6,2,21,08,58,213,42,10,74,311,44,12,41,310,44,13,44,216,44,1*70
$GBGSV,6,3,21,22,45,123,49,24,31,254,46,26,18,201,37,38,71,213,48,1*72
$GBGSV,6,4,21,40,74,080,48,59,45,144,45,60,34,236,44,04,33,120,40,1*7C
$GBGSV,6,5,21,19,28,056,44,44,58,340,48,25,12,307,37,21,18,177,40,1*7A
$GBGSV,6,6,21,34,17,291,42,1*48
$GBGSV,6,1,21,01,44,137,45,02,35,230,42,03,51,195,45,07,88,074,48,8*7E
$GBGSV,6,2,21,08,58,213,46,10,74,311,47,12,41,310,48,13,44,216,45,8*73
$GBGSV,6,3,21,22,45,123,49,24,31,254,45,26,18,201,36,38,71,213,50,8*70
$GBGSV,6,4,21,40,74,080,50,59,45,144,48,60,34,236,45,04,33,120,42,8*72
$GBGSV,6,5,21,19,28,056,46,44,58,340,51,25,12,307,36,21,18,177,41,8*79
$GBGSV,6,6,21,34,17,291,43,8*40
$GBGSV,3,1,09,01,44,137,46,02,35,230,45,03,51,195,47,07,88,074,49,B*0C
$GBGSV,3,2,09,08,58,213,47,10,74,311,48,12,41,310,48,13,44,216,45,B*08
$GBGSV,3,3,09,04,33,120,44,B*3B
$GAGSV,2,1,07,02,32,171,43,15,41,275,46,27,28,313,43,30,64,247,49,1*75
$GAGSV,2,2,07,34,60,005,49,36,19,053,41,05,16,107,29,1*4A
$GAGSV,2,1,07,02,32,171,45,15,41,275,48,27,28,313,45,30,64,247,51,2*71
$GAGSV,2,2,07,34,60,005,51,36,19,053,42,05,16,107,32,2*49
$GAGSV,2,1,07,02,32,171,43,15,41,275,44,27,28,313,41,30,64,247,47,7*7D
$GAGSV,2,2,07,34,60,005,46,36,19,053,40,05,16,107,31,7*4B
$GNGGA,074645.00,3207.95403425,N,11841.73960520,E,1,28,0.6,7.2521,M,1.7757,M,,*45
$GNRMC,074645.00,A,3207.95403425,N,11841.73960520,E,0.006,163.7,030424,6.1,W,A,C*5E
#HEADINGA,COM3,9984,88.0,FINE,2308,287223.000,2118925,16,18;SOL_COMPUTED,NARROW_INT,1.9938,204.3817,0.2002,0.0000,0.1441,0.2674,"999",52,42,42,38,0,01,3,f3*09462029
$GPGSV,3,1,09,03,28,043,41,06,54,294,46,14,38,176,43,09,14,131,12,1*6B
$GPGSV,3,2,09,17,64,057,45,19,61,348,47,22,60,199,46,04,13,090,23,1*63
$GPGSV,3,3,09,11,24,261,42,1*58
$GPGSV,3,1,09,03,28,043,39,06,54,294,47,14,38,176,43,09,14,131,32,4*62
$GPGSV,3,2,09,17,64,057,46,19,61,348,45,22,60,199,44,04,13,090,24,4*62
$GPGSV,3,3,09,11,24,261,39,4*51
$GPGSV,2,1,06,03,28,043,46,06,54,294,50,14,38,176,47,09,14,131,33,8*6B
$GPGSV,2,2,06,04,13,090,21,11,24,261,44,8*64
$GLGSV,2,1,08,74,41,239,45,73,16,196,40,75,29,308,49,69,38,105,51,1*7E
$GLGSV,2,2,08,84,45,003,41,83,11,065,23,85,23,296,50,68,24,047,48,1*71
$GLGSV,2,1,07,73,16,196,39,75,29,308,45,69,38,105,48,84,45,003,44,3*78
$GLGSV,2,2,07,83,11,065,37,85,23,296,44,68,24,047,45,3*4A
$GBGSV,6,1,21,01,44,137,44,02,35,230,38,03,51,195,44,07,88,074,46,1*74
$GBGSV,6,2,21,08,58,213,43,10,74,311,45,12,41,310,44,13,44,216,44,1*70
$GBGSV,6,3,21,22,45,123,48,24,31,254,46,26,18,201,36,38,71,213,48,1*72
$GBGSV,6,4,21,40,74,080,48,59,45,144,45,60,34,236,44,04,33,120,40,1*7C
$GBGSV,6,5,21,19,28,056,44,44,58,340,48,25,12,307,38,21,18,177,40,1*75
$GBGSV,6,6,21,34,17,291,42,1*48
$GBGSV,6,1,21,01,44,137,45,02,35,230,41,03,51,195,45,07,88,074,48,8*7D
$GBGSV,6,2,21,08,58,213,46,10,74,311,47,12,41,310,48,13,44,216,45,8*73
$GBGSV,6,3,21,22,45,123,49,24,31,254,45,26,18,201,34,38,71,213,50,8*72
$GBGSV,6,4,21,40,74,080,50,59,45,144,48,60,34,236,45,04,33,120,42,8*72
$GBGSV,6,5,21,19,28,056,46,44,58,340,51,25,12,307,36,21,18,177,41,8*79
$GBGSV,6,6,21,34,17,291,43,8*40
$GBGSV,3,1,09,01,44,137,47,02,35,230,45,03,51,195,47,07,88,074,49,B*0D
$GBGSV,3,2,09,08,58,213,47,10,74,311,48,12,41,310,48,13,44,216,45,B*08
$GBGSV,3,3,09,04,33,120,44,B*3B
$GAGSV,2,1,07,02,32,171,43,15,41,275,45,27,28,313,43,30,64,247,49,1*76
$GAGSV,2,2,07,34,60,005,49,36,19,053,41,05,16,107,30,1*42
$GAGSV,2,1,07,02,32,171,45,15,41,275,48,27,28,313,45,30,64,247,51,2*71
$GAGSV,2,2,07,34,60,005,51,36,19,053,42,05,16,107,32,2*49
$GAGSV,2,1,07,02,32,171,43,15,41,275,44,27,28,313,41,30,64,247,47,7*7D
$GAGSV,2,2,07,34,60,005,46,36,19,053,41,05,16,107,31,7*4A
$GNGGA,074646.00,3207.95403422,N,11841.73960634,E,1,28,0.6,7.2528,M,1.7757,M,,*4E
$GNRMC,074646.00,A,3207.95403422,N,11841.73960634,E,0.006,151.6,030424,6.1,W,A,C*5C
#HEADINGA,COM3,9984,90.0,FINE,2308,287224.000,2119923,16,18;SOL_COMPUTED,NARROW_INT,1.9938,204.4438,0.2005,0.0000,0.1429,0.2623,"999",52,42,42,38,0,01,3,f3*4135de5d
$GPGSV,2,1,08,03,28,043,41,06,54,294,46,14,38,176,43,17,64,057,45,1*60
$GPGSV,2,2,08,19,61,348,46,22,60,199,46,04,13,090,23,11,24,261,42,1*60
$GPGSV,3,1,09,03,28,043,39,06,54,294,47,14,38,176,43,09,14,131,33,4*63
$GPGSV,3,2,09,17,64,057,46,19,61,348,45,22,60,199,44,04,13,090,25,4*63
$GPGSV,3,3,09,11,24,261,39,4*51
$GPGSV,2,1,06,03,28,043,45,06,54,294,50,14,38,176,47,09,14,131,33,8*68
$GPGSV,2,2,06,04,13,090,21,11,24,261,44,8*64
$GLGSV,2,1,08,74,41,239,45,73,16,196,40,75,29,308,49,69,38,105,51,1*7E
$GLGSV,2,2,08,84,45,003,41,83,11,065,24,85,23,296,49,68,24,047,48,1*7E
$GLGSV,2,1,07,73,16,196,39,75,29,308,44,69,38,105,48,84,45,003,44,3*79
$GLGSV,2,2,07,83,11,065,36,85,23,296,44,68,24,047,45,3*4B
$GBGSV,6,1,21,01,44,137,44,02,35,230,38,03,51,195,44,07,88,074,46,1*74
$GBGSV,6,2,21,08,58,213,43,10,74,311,45,12,41,310,44,13,44,216,44,1*70
$GBGSV,6,3,21,22,45,123,48,24,31,254,46,26,18,201,36,38,71,213,48,1*72
$GBGSV,6,4,21,40,74,080,48,59,45,144,45,60,34,236,44,04,33,120,40,1*7C
$GBGSV,6,5,21,19,28,056,44,44,58,340,48,25,12,307,38,21,18,177,40,1*75
$GBGSV,6,6,21,34,17,291,42,1*48
$GBGSV,6,1,21,01,44,137,45,02,35,230,42,03,51,195,46,07,88,074,48,8*7D
$GBGSV,6,2,21,08,58,213,46,10,74,311,47,12,41,310,48,13,44,216,45,8*73
$GBGSV,6,3,21,22,45,123,49,24,31,254,45,26,18,201,34,38,71,213,50,8*72
$GBGSV,6,4,21,40,74,080,50,59,45,144,48,60,34,236,46,04,33,120,42,8*71
$GBGSV,6,5,21,19,28,056,46,44,58,340,51,25,12,307,36,21,18,177,41,8*79
$GBGSV,6,6,21,34,17,291,43,8*40
$GBGSV,3,1,09,01,44,137,46,02,35,230,44,03,51,195,47,07,88,074,48,B*0C
$GBGSV,3,2,09,08,58,213,47,10,74,311,47,12,41,310,48,13,44,216,45,B*07
$GBGSV,3,3,09,04,33,120,44,B*3B
$GAGSV,2,1,07,02,32,171,44,15,41,275,46,27,28,313,43,30,64,247,49,1*72
$GAGSV,2,2,07,34,60,005,49,36,19,053,41,05,16,107,31,1*43
$GAGSV,2,1,07,02,32,171,45,15,41,275,48,27,28,313,44,30,64,247,51,2*70
$GAGSV,2,2,07,34,60,005,51,36,19,053,42,05,16,107,32,2*49
$GAGSV,2,1,07,02,32,171,43,15,41,275,44,27,28,313,41,30,64,247,47,7*7D
$GAGSV,2,2,07,34,60,005,46,36,19,053,40,05,16,107,30,7*4A
$GNGGA,074647.00,3207.95403417,N,11841.73960745,E,1,28,0.6,7.2531,M,1.7757,M,,*46
$GNRMC,074647.00,A,3207.95403417,N,11841.73960745,E,0.006,152.2,030424,6.1,W,A,C*5B
#HEADINGA,COM3,9984,90.0,FINE,2308,287225.000,2120923,16,18;SOL_COMPUTED,NARROW_INT,1.9938,204.5059,0.2007,0.0000,0.1428,0.2603,"999",52,42,42,38,0,01,3,f3*7c843164
$GPGSV,2,1,08,03,28,043,42,06,54,294,45,14,38,176,43,17,64,057,45,1*60
$GPGSV,2,2,08,19,61,348,46,22,60,199,46,04,13,090,22,11,24,261,41,1*62
$GPGSV,3,1,09,03,28,043,40,06,54,294,47,14,38,176,43,09,14,131,33,4*6D
$GPGSV,3,2,09,17,64,057,46,19,61,348,45,22,60,199,44,04,13,090,24,4*62
$GPGSV,3,3,09,11,24,261,39,4*51
$GPGSV,2,1,06,03,28,043,45,06,54,294,50,14,38,176,47,09,14,131,34,8*6F
$GPGSV,2,2,06,04,13,090,21,11,24,261,44,8*64
$GLGSV,2,1,08,74,41,239,45,73,16,196,40,75,29,308,50,69,38,105,51,1*76
$GLGSV,2,2,08,84,45,003,40,83,11,065,25,85,23,296,49,68,24,047,48,1*7E
$GLGSV,2,1,07,73,16,196,38,75,29,308,44,69,38,105,48,84,45,003,44,3*78
$GLGSV,2,2,07,83,11,065,35,85,23,296,44,68,24,047,45,3*48
$GBGSV,6,1,21,01,44,137,45,02,35,230,38,03,51,195,44,07,88,074,46,1*75
$GBGSV,6,2,21,08,58,213,42,10,74,311,45,12,41,310,44,13,44,216,44,1*71
$GBGSV,6,3,21,22,46,123,49,24,31,254,46,26,18,201,36,38,71,213,48,1*70
$GBGSV,6,4,21,40,74,080,48,59,45,144,45,60,34,236,44,04,33,120,39,1*72
$GBGSV,6,5,21,19,28,056,44,44,58,340,48,25,12,307,38,21,18,177,40,1*75
$GBGSV,6,6,21,34,17,291,42,1*48
$GBGSV,6,1,21,01,44,137,45,02,35,230,42,03,51,195,46,07,88,074,48,8*7D
$GBGSV,6,2,21,08,58,213,46,10,74,311,47,12,41,310,48,13,44,216,45,8*73
$GBGSV,6,3,21,22,46,123,49,24,31,254,45,26,18,201,34,38,71,213,50,8*71
$GBGSV,6,4,21,40,74,080,50,59,45,144,48,60,34,236,46,04,33,120,42,8*71
$GBGSV,6,5,21,19,28,056,46,44,58,340,51,25,12,307,36,21,18,177,41,8*79
$GBGSV,6,6,21,34,17,291,43,8*40
$GBGSV,3,1,09,01,44,137,46,02,35,230,44,03,51,195,47,07,88,074,49,B*0D
$GBGSV,3,2,09,08,58,213,47,10,74,311,47,12,41,310,49,13,44,216,45,B*06
$GBGSV,3,3,09,04,33,120,44,B*3B
$GAGSV,2,1,07,02,32,171,44,15,41,275,46,27,28,313,43,30,64,247,49,1*72
$GAGSV,2,2,07,34,60,005,49,36,19,053,41,05,16,107,30,1*42
$GAGSV,2,1,07,02,32,171,45,15,41,275,48,27,28,313,44,30,64,247,51,2*70
$GAGSV,2,2,07,34,60,005,51,36,19,053,42,05,16,107,32,2*49
$GAGSV,2,1,07,02,32,171,43,15,41,275,44,27,28,313,41,30,64,247,47,7*7D
$GAGSV,2,2,07,34,60,005,46,36,19,053,40,05,16,107,31,7*4B
$GNGGA,074648.00,3207.95403400,N,11841.73960865,E,1,28,0.6,7.2538,M,1.7757,M,,*4B
$GNRMC,074648.00,A,3207.95403400,N,11841.73960865,E,0.007,149.2,030424,6.1,W,A,C*54
#HEADINGA,COM3,9984,88.0,FINE,2308,287226.000,2121923,16,18;SOL_COMPUTED,NARROW_INT,1.9938,204.5679,0.2010,0.0000,0.1425,0.2600,"999",52,42,42,38,0,01,3,f3*21e1a7dd
$GPGSV,2,1,08,03,28,043,41,06,54,294,45,14,38,176,42,17,64,057,45,1*62
$GPGSV,2,2,08,19,61,348,46,22,60,199,46,04,13,090,21,11,24,261,41,1*61
$GPGSV,3,1,09,03,28,043,40,06,54,294,47,14,38,176,43,09,14,131,32,4*6C
$GPGSV,3,2,09,17,64,057,46,19,61,348,45,22,60,199,44,04,13,090,22,4*64
$GPGSV,3,3,09,11,24,261,39,4*51
$GPGSV,2,1,06,03,28,043,45,06,54,294,50,14,38,176,47,09,14,131,34,8*6F
$GPGSV,2,2,06,04,13,090,22,11,24,261,44,8*67
$GLGSV,2,1,08,74,41,239,45,73,16,196,40,75,29,308,50,69,38,105,51,1*76
$GLGSV,2,2,08,84,45,003,41,83,11,065,23,85,23,296,49,68,24,047,48,1*79
$GLGSV,2,1,07,73,16,196,37,75,29,308,44,69,38,105,48,84,45,003,44,3*77
$GLGSV,2,2,07,83,11,065,36,85,23,296,44,68,24,047,45,3*4B
$GBGSV,6,1,21,01,44,137,45,02,35,230,38,03,51,195,44,07,88,075,46,1*74
$GBGSV,6,2,21,08,58,213,42,10,74,311,45,12,41,310,44,13,44,216,44,1*71
$GBGSV,6,3,21,22,46,123,49,24,31,254,46,26,18,201,35,38,71,213,48,1*73
$GBGSV,6,4,21,40,74,080,48,59,45,144,45,60,34,236,43,04,33,120,40,1*7B
$GBGSV,6,5,21,19,28,056,44,44,58,340,48,25,12,307,37,21,18,177,41,1*7B
$GBGSV,6,6,21,34,17,291,42,1*48
$GBGSV,6,1,21,01,44,137,45,02,35,230,42,03,51,195,45,07,88,075,48,8*7F
$GBGSV,6,2,21,08,58,213,46,10,74,311,47,12,41,310,49,13,44,216,45,8*72
$GBGSV,6,3,21,22,46,123,50,24,31,254,45,26,18,201,35,38,71,213,50,8*78
$GBGSV,6,4,21,40,74,080,50,59,45,144,48,60,34,236,46,04,33,120,43,8*70
$GBGSV,6,5,21,19,28,056,46,44,58,340,51,25,12,307,36,21,18,177,41,8*79
$GBGSV,6,6,21,34,17,291,43,8*40
$GBGSV,3,1,09,01,44,137,46,02,35,230,44,03,51,195,47,07,88,075,49,B*0C
$GBGSV,3,2,09,08,58,213,47,10,74,311,47,12,41,310,48,13,44,216,45,B*07
$GBGSV,3,3,09,04,33,120,44,B*3B
$GAGSV,2,1,07,02,32,171,44,15,41,275,46,27,28,313,42,30,64,247,49,1*73
$GAGSV,2,2,07,34,60,005,49,36,19,053,41,05,16,107,31,1*43
$GAGSV,2,1,07,02,32,171,45,15,41,275,48,27,28,313,45,30,64,247,51,2*71
$GAGSV,2,2,07,34,60,005,51,36,19,053,43,05,16,107,32,2*48
$GAGSV,2,1,07,02,32,171,43,15,41,275,45,27,28,313,41,30,64,247,47,7*7C
$GAGSV,2,2,07,34,60,005,46,36,19,053,40,05,16,107,31,7*4B
$GNGGA,074649.00,3207.95403367,N,11841.73960996,E,1,28,0.6,7.2544,M,1.7757,M,,*4A
$GNRMC,074649.00,A,3207.95403367,N,11841.73960996,E,0.008,148.4,030424,6.1,W,A,C*56
#HEADINGA,COM3,9984,85.0,FINE,2308,287227.000,2122923,16,18;SOL_COMPUTED,NARROW_INT,1.9938,204.6299,0.2012,0.0000,0.1427,0.2596,"999",52,42,42,38,0,01,3,f3*ea12501b
$GPGSV,2,1,08,03,28,043,42,06,54,294,45,14,38,176,42,17,64,057,45,1*61
$GPGSV,2,2,08,19,61,348,46,22,60,199,46,04,13,090,20,11,24,261,41,1*60
$GPGSV,3,1,09,03,28,043,40,06,54,294,47,14,38,176,43,09,14,131,31,4*6F
$GPGSV,3,2,09,17,64,057,46,19,61,348,45,22,60,199,44,04,13,090,22,4*64
$GPGSV,3,3,09,11,24,261,39,4*51
$GPGSV,2,1,06,03,28,043,46,06,54,294,50,14,38,176,47,09,14,131,34,8*6C
$GPGSV,2,2,06,04,13,090,21,11,24,261,44,8*64
$GLGSV,2,1,08,74,41,239,44,73,16,196,41,75,29,308,50,69,38,105,51,1*76
$GLGSV,2,2,08,84,45,003,40,83,11,065,23,85,23,296,49,68,24,047,48,1*78
$GLGSV,2,1,07,73,16,196,36,75,29,308,44,69,38,105,49,84,45,003,44,3*77
$GLGSV,2,2,07,83,11,065,36,85,23,296,44,68,24,047,45,3*4B
$GBGSV,6,1,21,01,44,137,44,02,35,230,38,03,51,195,44,07,88,075,46,1*75
$GBGSV,6,2,21,08,58,213,42,10,74,311,44,12,41,310,44,13,44,216,43,1*77
$GBGSV,6,3,21,22,46,123,48,24,31,254,46,26,18,201,35,38,71,213,48,1*72
$GBGSV,6,4,21,40,74,080,48,59,45,144,45,60,34,236,44,04,33,120,39,1*72
$GBGSV,6,5,21,19,28,056,44,44,58,340,48,25,12,307,37,21,18,177,41,1*7B
$GBGSV,6,6,21,34,17,291,41,1*4B
$GBGSV,6,1,21,01,44,137,45,02,35,230,42,03,51,195,46,07,88,075,48,8*7C
$GBGSV,6,2,21,08,58,213,46,10,74,311,47,12,41,310,48,13,44,216,45,8*73
$GBGSV,6,3,21,22,46,123,50,24,31,254,45,26,18,201,35,38,71,213,50,8*78
$GBGSV,6,4,21,40,74,080,50,59,45,144,48,60,34,236,46,04,33,120,43,8*70
$GBGSV,6,5,21,19,28,056,46,44,58,340,51,25,12,307,36,21,18,177,41,8*79
$GBGSV,6,6,21,34,17,291,43,8*40
$GBGSV,3,1,09,01,44,137,46,02,35,230,45,03,51,195,47,07,88,075,49,B*0D
$GBGSV,3,2,09,08,58,213,47,10,74,311,47,12,41,310,48,13,44,216,45,B*07
$GBGSV,3,3,09,04,33,120,44,B*3B
$GAGSV,2,1,07,02,32,171,44,15,41,275,46,27,28,313,43,30,64,247,49,1*72
$GAGSV,2,2,07,34,60,005,49,36,19,053,41,05,16,107,31,1*43
$GAGSV,2,1,07,02,32,171,44,15,41,275,48,27,28,313,44,30,64,247,51,2*71
$GAGSV,2,2,07,34,60,005,51,36,19,053,42,05,16,107,32,2*49
$GAGSV,2,1,07,02,32,171,43,15,41,275,45,27,28,313,41,30,64,247,47,7*7C
$GAGSV,2,2,07,34,60,005,46,36,19,053,40,05,16,107,32,7*48
$GNGGA,074650.00,3207.95403338,N,11841.73961126,E,1,28,0.6,7.2548,M,1.7757,M,,*46
$GNRMC,074650.00,A,3207.95403338,N,11841.73961126,E,0.007,145.7,030424,6.1,W,A,C*57
#HEADINGA,COM3,9984,86.0,FINE,2308,287228.000,2123923,16,18;SOL_COMPUTED,NARROW_INT,1.9938,204.6918,0.2014,0.0000,0.1428,0.2599,"999",52,42,42,38,0,01,3,f3*92637658
$GPGSV,2,1,08,03,28,043,41,06,54,294,45,14,38,176,42,17,64,057,45,1*62
$GPGSV,2,2,08,19,61,348,46,22,60,199,46,04,13,090,20,11,24,261,41,1*60
$GPGSV,3,1,09,03,28,043,39,06,54,294,47,14,38,176,43,09,14,131,31,4*61
$GPGSV,3,2,09,17,64,057,46,19,61,348,45,22,60,199,44,04,13,090,20,4*66
$GPGSV,3,3,09,11,24,261,39,4*51
$GPGSV,2,1,06,03,28,043,45,06,54,294,50,14,38,176,47,09,14,131,34,8*6F
$GPGSV,2,2,06,04,13,090,20,11,24,261,43,8*62
$GLGSV,2,1,08,74,41,239,44,73,16,196,41,75,29,308,50,69,38,105,51,1*76
$GLGSV,2,2,08,84,45,003,40,83,11,065,22,85,23,296,49,68,24,047,48,1*79
$GLGSV,2,1,07,73,16,196,36,75,29,308,44,69,38,105,48,84,45,003,44,3*76
$GLGSV,2,2,07,83,11,065,34,85,23,296,44,68,24,047,45,3*49
$GBGSV,6,1,21,01,44,137,44,02,35,230,39,03,51,195,44,07,88,075,46,1*74
$GBGSV,6,2,21,08,58,213,42,10,74,311,44,12,42,310,44,13,44,216,44,1*73
$GBGSV,6,3,21,22,46,123,49,24,31,254,46,26,18,201,36,38,71,213,48,1*70
$GBGSV,6,4,21,40,74,080,48,59,45,144,45,60,34,236,44,04,33,120,39,1*72
$GBGSV,6,5,21,19,28,056,43,44,58,340,48,25,12,307,37,21,18,177,40,1*7D
$GBGSV,6,6,21,34,17,291,42,1*48
$GBGSV,6,1,21,01,44,137,45,02,35,230,41,03,51,195,46,07,88,075,48,8*7F
$GBGSV,6,2,21,08,58,213,47,10,74,311,47,12,42,310,48,13,44,216,45,8*71
$GBGSV,6,3,21,22,46,123,50,24,31,254,45,26,18,201,35,38,71,213,50,8*78
$GBGSV,6,4,21,40,74,080,50,59,45,144,48,60,34,236,46,04,33,120,43,8*70
$GBGSV,6,5,21,19,28,056,46,44,58,340,51,25,12,307,36,21,18,177,40,8*78
$GBGSV,6,6,21,34,17,291,43,8*40
$GBGSV,3,1,09,01,44,137,46,02,35,230,45,03,51,195,47,07,88,075,48,B*0C
$GBGSV,3,2,09,08,58,213,47,10,74,311,47,12,42,310,48,13,44,216,45,B*04
$GBGSV,3,3,09,04,33,120,44,B*3B
$GAGSV,2,1,07,02,32,171,44,15,41,275,45,27,28,313,43,30,64,247,49,1*71
$GAGSV,2,2,07,34,60,005,49,36,19,053,41,05,16,107,32,1*40
$GAGSV,2,1,07,02,32,171,44,15,41,275,48,27,28,313,44,30,64,247,51,2*71
$GAGSV,2,2,07,34,60,005,52,36,19,053,42,05,16,107,33,2*4B
$GAGSV,2,1,07,02,32,171,43,15,41,275,45,27,28,313,41,30,64,247,47,7*7C
$GAGSV,2,2,07,34,60,005,46,36,19,053,39,05,16,107,31,7*45
$GNGGA,074651.00,3207.95403299,N,11841.73961252,E,1,28,0.6,7.2557,M,1.7757,M,,*43
$GNRMC,074651.00,A,3207.95403299,N,11841.73961252,E,0.008,150.0,030424,6.1,W,A,C*50
#HEADINGA,COM3,9984,86.0,FINE,2308,287229.000,2124923,16,18;SOL_COMPUTED,NARROW_INT,1.9938,204.7536,0.2017,0.0000,0.1429,0.2603,"999",52,42,42,38,0,01,3,f3*af81c21c
$GPGSV,2,1,08,03,28,043,41,06,54,294,45,14,38,176,42,17,64,057,44,1*63
$GPGSV,2,2,08,19,61,348,46,22,60,199,46,04,13,090,20,11,24,261,41,1*60
$GPGSV,3,1,09,03,28,043,40,06,54,294,47,14,38,176,43,09,14,131,32,4*6C
$GPGSV,3,2,09,17,64,057,45,19,61,348,45,22,60,199,44,04,13,090,20,4*65
$GPGSV,3,3,09,11,24,261,39,4*51
$GPGSV,2,1,06,03,28,043,45,06,54,294,50,14,38,176,47,09,14,131,34,8*6F
$GPGSV,2,2,06,04,13,090,21,11,24,261,44,8*64
$GLGSV,2,1,08,74,41,239,44,73,16,196,41,75,29,308,50,69,38,105,51,1*76
$GLGSV,2,2,08,84,45,003,40,83,11,065,22,85,23,296,49,68,24,047,48,1*79
$GLGSV,2,1,07,73,16,196,38,75,29,308,44,69,38,105,48,84,45,003,44,3*78
$GLGSV,2,2,07,83,11,065,33,85,23,296,45,68,24,047,46,3*4C
$GBGSV,6,1,21,01,44,137,44,02,35,230,39,03,51,195,44,07,88,075,46,1*74
$GBGSV,6,2,21,08,58,213,42,10,74,311,45,12,42,310,44,13,44,216,43,1*75
$GBGSV,6,3,21,22,46,123,48,24,31,254,46,26,18,201,36,38,71,213,48,1*71
$GBGSV,6,4,21,40,74,080,48,59,45,144,45,60,34,236,44,04,33,120,39,1*72
$GBGSV,6,5,21,19,28,056,43,44,58,340,48,25,12,307,36,21,18,177,41,1*7D
$GBGSV,6,6,21,34,17,291,41,1*4B
$GBGSV,6,1,21,01,44,137,45,02,35,230,41,03,51,195,45,07,88,075,48,8*7C
$GBGSV,6,2,21,08,58,213,46,10,74,311,47,12,42,310,48,13,44,216,45,8*70
$GBGSV,6,3,21,22,46,123,50,24,31,254,45,26,18,201,35,38,71,213,50,8*78
$GBGSV,6,4,21,40,74,080,50,59,45,144,48,60,34,236,45,04,33,120,43,8*73
$GBGSV,6,5,21,19,28,056,46,44,58,340,51,25,12,307,36,21,18,177,41,8*79
$GBGSV,6,6,21,34,17,291,43,8*40
$GBGSV,3,1,09,01,44,137,46,02,35,230,44,03,51,195,47,07,88,075,48,B*0D
$GBGSV,3,2,09,08,58,213,47,10,74,311,47,12,42,310,48,13,44,216,45,B*04
$GBGSV,3,3,09,04,33,120,44,B*3B
$GAGSV,2,1,07,02,32,171,44,15,41,275,45,27,28,313,43,30,64,247,49,1*71
$GAGSV,2,2,07,34,60,005,49,36,19,053,41,05,16,107,32,1*40
$GAGSV,2,1,07,02,32,171,45,15,41,275,48,27,28,313,44,30,64,247,51,2*70
$GAGSV,2,2,07,34,60,005,51,36,19,053,42,05,16,107,33,2*48
$GAGSV,2,1,07,02,32,171,43,15,41,275,44,27,28,313,41,30,64,247,47,7*7D
$GAGSV,2,2,07,34,60,005,46,36,19,053,40,05,16,107,32,7*48
$GNGGA,074652.00,3207.95403255,N,11841.73961377,E,1,28,0.6,7.2564,M,1.7757,M,,*46
$GNRMC,074652.00,A,3207.95403255,N,11841.73961377,E,0.008,151.2,030424,6.1,W,A,C*56
#HEADINGA,COM3,9984,87.0,FINE,2308,287230.000,2125923,16,18;SOL_COMPUTED,NARROW_INT,1.9938,204.8154,0.2019,0.0000,0.1429,0.2602,"999",52,42,42,38,0,01,3,f3*f61e877c
$GPGSV,2,1,08,03,28,043,40,06,54,294,45,14,38,176,42,17,64,057,44,1*62
$GPGSV,2,2,08,19,61,348,46,22,60,199,46,04,13,090,23,11,24,261,40,1*62
$GPGSV,3,1,09,03,28,043,40,06,54,294,47,14,38,176,43,09,14,131,32,4*6C
$GPGSV,3,2,09,17,64,057,46,19,61,348,45,22,60,199,44,04,13,090,19,4*6C
$GPGSV,3,3,09,11,24,261,39,4*51
$GPGSV,2,1,06,03,28,043,45,06,54,294,50,14,38,176,47,09,14,131,35,8*6E
$GPGSV,2,2,06,04,13,090,21,11,24,261,43,8*63
$GLGSV,2,1,08,74,41,239,44,73,16,196,40,75,29,308,50,69,38,105,51,1*77
$GLGSV,2,2,08,84,45,003,40,83,11,065,23,85,23,296,49,68,24,047,48,1*78
$GLGSV,2,1,07,73,16,196,38,75,29,308,43,69,38,105,48,84,45,003,44,3*7F
$GLGSV,2,2,07,83,11,065,33,85,23,296,44,68,24,047,45,3*4E
$GBGSV,6,1,21,01,44,137,44,02,35,230,39,03,51,195,44,07,88,075,46,1*74
$GBGSV,6,2,21,08,58,213,42,10,74,311,45,12,42,310,44,13,44,216,44,1*72
$GBGSV,6,3,21,22,46,123,48,24,31,254,46,26,18,201,37,38,71,213,48,1*70
$GBGSV,6,4,21,40,74,080,48,59,45,144,45,60,34,236,43,04,33,120,40,1*7B
$GBGSV,6,5,21,19,28,056,44,44,58,340,48,25,12,307,36,21,18,177,41,1*7A
$GBGSV,6,6,21,34,17,291,41,1*4B
$GBGSV,6,1,21,01,44,137,45,02,35,230,42,03,51,195,45,07,88,075,48,8*7F
$GBGSV,6,2,21,08,58,213,46,10,74,311,47,12,42,310,48,13,44,216,45,8*70
$GBGSV,6,3,21,22,46,123,50,24,31,254,44,26,18,201,36,38,71,213,50,8*7A
$GBGSV,6,4,21,40,74,080,50,59,45,144,48,60,34,236,45,04,33,120,43,8*73
$GBGSV,6,5,21,19,28,056,45,44,58,340,51,25,12,307,36,21,18,177,40,8*7B
$GBGSV,6,6,21,34,17,291,43,8*40
$GBGSV,3,1,09,01,44,137,46,02,35,230,44,03,51,195,47,07,88,075,48,B*0D
$GBGSV,3,2,09,08,58,213,47,10,74,311,47,12,42,310,49,13,44,216,45,B*05
$GBGSV,3,3,09,04,33,120,44,B*3B
$GAGSV,2,1,07,02,32,171,44,15,41,275,45,27,28,313,43,30,64,247,49,1*71
$GAGSV,2,2,07,34,60,005,49,36,19,053,41,05,16,107,32,1*40
$GAGSV,2,1,07,02,32,171,45,15,41,275,48,27,28,313,45,30,64,247,51,2*71
$GAGSV,2,2,07,34,60,005,51,36,19,053,42,05,16,107,34,2*4F
$GAGSV,2,1,07,02,32,171,44,15,41,275,44,27,28,313,41,30,64,247,47,7*7A
$GAGSV,2,2,07,34,60,005,46,36,19,053,40,05,16,107,32,7*48
$GNGGA,074653.00,3207.95403198,N,11841.73961504,E,1,28,0.6,7.2569,M,1.7757,M,,*4A
$GNRMC,074653.00,A,3207.95403198,N,11841.73961504,E,0.008,154.0,030424,6.1,W,A,C*50
#HEADINGA,COM3,9984,89.0,FINE,2308,287231.000,2126923,16,18;SOL_COMPUTED,NARROW_INT,1.9938,204.8771,0.2022,0.0000,0.1428,0.2600,"999",52,42,42,38,0,01,3,f3*d0ec280f
$GPGSV,2,1,08,03,28,043,40,06,54,294,45,14,38,176,42,17,64,057,44,1*62
$GPGSV,2,2,08,19,61,348,46,22,60,199,46,04,13,090,23,11,24,261,41,1*63
$GPGSV,3,1,09,03,28,043,40,06,54,294,47,14,38,176,43,09,14,131,32,4*6C
$GPGSV,3,2,09,17,64,057,46,19,61,348,45,22,60,199,44,04,13,090,20,4*66
$GPGSV,3,3,09,11,24,261,39,4*51
$GPGSV,2,1,06,03,28,043,45,06,54,294,50,14,38,176,47,09,14,131,35,8*6E
$GPGSV,2,2,06,04,13,090,20,11,24,261,43,8*62
$GLGSV,2,1,08,74,41,239,44,73,16,196,41,75,29,308,50,69,38,105,51,1*76
$GLGSV,2,2,08,84,45,003,40,83,11,065,22,85,23,296,50,68,24,047,48,1*71
$GLGSV,2,1,07,73,16,196,38,75,29,308,44,69,38,105,48,84,45,003,44,3*78
$GLGSV,2,2,07,83,11,065,34,85,23,296,45,68,24,047,45,3*48
$GBGSV,6,1,21,01,44,137,44,02,35,230,39,03,51,195,45,07,88,075,46,1*75
$GBGSV,6,2,21,08,58,213,42,10,74,311,45,12,42,310,45,13,44,216,44,1*73
$GBGSV,6,3,21,22,46,123,48,24,31,254,46,26,18,201,37,38,71,213,48,1*70
$GBGSV,6,4,21,40,74,080,48,59,45,144,45,60,34,236,44,04,33,120,40,1*7C
$GBGSV,6,5,21,19,28,056,44,44,58,340,48,25,12,307,36,21,18,177,41,1*7A
$GBGSV,6,6,21,34,17,291,42,1*48
$GBGSV,6,1,21,01,44,137,45,02,35,230,41,03,51,195,46,07,88,075,48,8*7F
$GBGSV,6,2,21,08,58,213,46,10,74,311,47,12,42,310,48,13,44,216,45,8*70
$GBGSV,6,3,21,22,46,123,50,24,31,254,44,26,18,201,36,38,71,213,50,8*7A
$GBGSV,6,4,21,40,74,080,50,59,45,144,48,60,34,236,46,04,33,120,43,8*70
$GBGSV,6,5,21,19,28,056,45,44,58,340,51,25,12,307,36,21,18,177,40,8*7B
$GBGSV,6,6,21,34,17,291,43,8*40
$GBGSV,3,1,09,01,44,137,46,02,35,230,44,03,51,195,47,07,88,075,49,B*0C
$GBGSV,3,2,09,08,58,213,47,10,74,311,47,12,42,310,49,13,44,216,45,B*05
$GBGSV,3,3,09,04,33,120,44,B*3B
$GAGSV,2,1,07,02,32,171,44,15,41,275,46,27,28,313,43,30,64,247,49,1*72
$GAGSV,2,2,07,34,60,005,49,36,19,053,41,05,16,107,31,1*43
$GAGSV,2,1,07,02,32,171,45,15,41,275,48,27,28,313,45,30,64,247,51,2*71
$GAGSV,2,2,07,34,60,005,52,36,19,053,42,05,16,107,33,2*4B
$GAGSV,2,1,07,02,32,171,43,15,41,275,44,27,28,313,41,30,64,247,47,7*7D
$GAGSV,2,2,07,34,60,005,46,36,19,053,40,05,16,107,32,7*48
$GNGGA,074654.00,3207.95403158,N,11841.73961639,E,1,28,0.6,7.2572,M,1.7757,M,,*46
$GNRMC,074654.00,A,3207.95403158,N,11841.73961639,E,0.008,147.8,030424,6.1,W,A,C*5C
#HEADINGA,COM3,9984,90.0,FINE,2308,287232.000,2127923,16,18;SOL_COMPUTED,NARROW_INT,1.9938,204.9388,0.2024,0.0000,0.1428,0.2602,"999",52,42,42,38,0,01,3,f3*c3a5c226
$GPGSV,2,1,08,03,28,043,40,06,54,294,45,14,38,176,42,17,64,057,44,1*62
$GPGSV,2,2,08,19,61,348,46,22,60,199,46,04,13,090,22,11,24,261,41,1*62
$GPGSV,3,1,09,03,28,043,40,06,54,294,47,14,38,176,43,09,14,131,32,4*6C
$GPGSV,3,2,09,17,64,057,45,19,61,348,45,22,60,199,44,04,13,090,20,4*65
$GPGSV,3,3,09,11,24,261,39,4*51
$GPGSV,2,1,06,03,28,043,46,06,54,294,50,14,38,176,47,09,14,131,35,8*6D
$GPGSV,2,2,06,04,13,090,21,11,24,261,43,8*63
$GLGSV,2,1,08,74,41,239,44,73,16,196,41,75,29,308,50,69,38,105,51,1*76
$GLGSV,2,2,08,84,45,003,41,83,11,065,21,85,23,296,50,68,24,047,47,1*7C
$GLGSV,2,1,07,73,16,196,37,75,29,308,44,69,38,105,48,84,45,003,44,3*77
$GLGSV,2,2,07,83,11,065,33,85,23,296,45,68,24,047,45,3*4F
$GBGSV,6,1,21,01,44,137,44,02,35,230,38,03,51,195,44,07,88,075,46,1*75
$GBGSV,6,2,21,08,58,213,42,10,74,311,45,12,42,310,44,13,44,216,44,1*72
$GBGSV,6,3,21,22,46,123,48,24,31,254,47,26,18,201,37,38,71,213,48,1*71
$GBGSV,6,4,21,40,74,080,47,59,45,144,46,60,34,236,44,04,33,120,40,1*70
$GBGSV,6,5,21,19,28,056,43,44,58,340,48,25,12,307,37,21,18,177,40,1*7D
$GBGSV,6,6,21,34,17,291,42,1*48
$GBGSV,6,1,21,01,44,137,45,02,35,230,42,03,51,195,46,07,88,075,48,8*7C
$GBGSV,6,2,21,08,58,213,46,10,74,311,47,12,42,310,48,13,44,216,45,8*70
$GBGSV,6,3,21,22,46,123,50,24,31,254,45,26,18,201,37,38,71,213,50,8*7A
$GBGSV,6,4,21,40,74,080,50,59,45,144,48,60,34,236,46,04,33,120,43,8*70
$GBGSV,6,5,21,19,28,056,45,44,58,340,51,25,12,307,36,21,18,177,40,8*7B
$GBGSV,6,6,21,34,17,291,43,8*40
$GBGSV,3,1,09,01,44,137,46,02,35,230,44,03,51,195,47,07,88,075,49,B*0C
$GBGSV,3,2,09,08,58,213,47,10,74,311,47,12,42,310,49,13,44,216,45,B*05
$GBGSV,3,3,09,04,33,120,44,B*3B
$GAGSV,2,1,07,02,32,171,44,15,41,275,46,27,28,313,43,30,64,247,49,1*72
$GAGSV,2,2,07,34,60,005,49,36,19,053,41,05,16,107,31,1*43
$GAGSV,2,1,07,02,32,171,45,15,41,275,48,27,28,313,44,30,64,247,51,2*70
$GAGSV,2,2,07,34,60,005,51,36,19,053,42,05,16,107,33,2*48
$GAGSV,2,1,07,02,32,171,43,15,41,275,45,27,28,313,41,30,64,247,47,7*7C
$GAGSV,2,2,07,34,60,005,46,36,19,053,40,05,16,107,32,7*48
$GNGGA,074655.00,3207.95403114,N,11841.73961774,E,1,28,0.6,7.2576,M,1.7757,M,,*43
$GNRMC,074655.00,A,3207.95403114,N,11841.73961774,E,0.008,150.2,030424,6.1,W,A,C*51
#HEADINGA,COM3,9984,90.0,FINE,2308,287233.000,2128923,16,18;SOL_COMPUTED,NARROW_INT,1.9938,205.0004,0.2027,0.0000,0.1429,0.2604,"999",52,42,42,38,0,01,3,f3*d3de7ef5
$GPGSV,2,1,08,03,28,043,41,06,54,294,45,14,38,176,42,17,64,057,45,1*62
$GPGSV,2,2,08,19,61,348,46,22,60,199,46,04,13,090,22,11,24,261,41,1*62
$GPGSV,3,1,09,03,28,043,40,06,54,294,47,14,38,176,44,09,14,131,32,4*6B
$GPGSV,3,2,09,17,64,057,46,19,61,348,45,22,60,199,44,04,13,090,21,4*67
$GPGSV,3,3,09,11,24,261,39,4*51
$GPGSV,2,1,06,03,28,043,46,06,54,294,50,14,38,176,47,09,14,131,35,8*6D
$GPGSV,2,2,06,04,13,090,23,11,24,261,43,8*61
$GLGSV,2,1,08,74,41,239,44,73,16,196,39,75,29,308,50,69,38,105,50,1*78
$GLGSV,2,2,08,84,45,003,42,83,11,065,22,85,23,296,50,68,24,047,47,1*7C
$GLGSV,2,1,07,73,16,196,37,75,29,308,43,69,38,105,48,84,45,003,44,3*70
$GLGSV,2,2,07,83,11,065,33,85,23,296,45,68,24,047,46,3*4C
$GBGSV,6,1,21,01,44,137,44,02,35,230,38,03,51,195,44,07,88,076,46,1*76
$GBGSV,6,2,21,08,58,213,43,10,74,311,45,12,42,310,45,13,44,216,44,1*72
$GBGSV,6,3,21,22,46,123,48,24,31,254,47,26,18,201,37,38,71,213,48,1*71
$GBGSV,6,4,21,40,74,080,48,59,45,144,46,60,34,236,44,04,33,120,40,1*7F
$GBGSV,6,5,21,19,28,056,44,44,58,340,48,25,12,307,36,21,18,177,40,1*7B
$GBGSV,6,6,21,34,17,291,42,1*48
$GBGSV,6,1,21,01,44,137,45,02,35,230,42,03,51,195,46,07,88,076,48,8*7F
$GBGSV,6,2,21,08,58,213,46,10,74,311,47,12,42,310,48,13,44,216,45,8*70
$GBGSV,6,3,21,22,46,123,50,24,31,254,45,26,18,201,36,38,71,213,50,8*7B
$GBGSV,6,4,21,40,74,080,50,59,45,144,48,60,34,236,46,04,33,120,43,8*70
$GBGSV,6,5,21,19,28,056,45,44,58,340,51,25,12,307,36,21,18,177,40,8*7B
$GBGSV,6,6,21,34,17,291,43,8*40
$GBGSV,3,1,09,01,44,137,46,02,35,230,44,03,51,195,47,07,88,076,49,B*0F
$GBGSV,3,2,09,08,58,213,47,10,74,311,47,12,42,310,49,13,44,216,45,B*05
$GBGSV,3,3,09,04,33,120,44,B*3B
$GAGSV,2,1,07,02,32,171,44,15,41,275,46,27,28,313,43,30,64,247,49,1*72
$GAGSV,2,2,07,34,60,005,49,36,19,053,41,05,16,107,32,1*40
$GAGSV,2,1,07,02,32,171,45,15,41,275,48,27,28,313,45,30,64,247,51,2*71
$GAGSV,2,2,07,34,60,005,51,36,19,053,42,05,16,107,32,2*49
$GAGSV,2,1,07,02,32,171,43,15,41,275,44,27,28,313,41,30,64,247,47,7*7D
$GAGSV,2,2,07,34,60,005,46,36,19,053,39,05,16,107,32,7*46
$GNGGA,074656.00,3207.95403067,N,11841.73961901,E,1,28,0.6,7.2590,M,1.7757,M,,*41
$GNRMC,074656.00,A,3207.95403067,N,11841.73961901,E,0.008,154.0,030424,6.1,W,A,C*5D
#HEADINGA,COM3,9984,91.0,FINE,2308,287234.000,2129923,16,18;SOL_COMPUTED,NARROW_INT,1.9938,205.0619,0.2029,0.0000,0.1426,0.2594,"999",52,42,42,38,0,01,3,f3*7de38e7d
$GPGSV,2,1,08,03,28,043,41,06,54,294,45,14,38,176,43,17,64,057,45,1*63
$GPGSV,2,2,08,19,61,348,46,22,60,199,46,04,13,090,23,11,24,261,41,1*63
$GPGSV,3,1,09,03,28,043,40,06,54,294,47,14,38,176,44,09,14,131,32,4*6B
$GPGSV,3,2,09,17,64,057,46,19,61,348,45,22,60,199,44,04,13,090,21,4*67
$GPGSV,3,3,09,11,24,261,39,4*51
$GPGSV,2,1,06,03,28,043,46,06,54,294,50,14,38,176,47,09,14,131,35,8*6D
$GPGSV,2,2,06,04,13,090,23,11,24,261,43,8*61
$GLGSV,2,1,08,74,41,239,44,73,16,196,39,75,29,308,50,69,38,105,50,1*78
$GLGSV,2,2,08,84,45,003,41,83,11,065,22,85,23,296,50,68,24,047,48,1*70
$GLGSV,2,1,07,73,16,196,37,75,29,308,44,69,38,105,48,84,45,003,44,3*77
$GLGSV,2,2,07,83,11,065,34,85,23,296,45,68,24,047,46,3*4B
$GBGSV,6,1,21,01,44,137,44,02,35,230,38,03,51,195,45,07,88,076,46,1*77
$GBGSV,6,2,21,08,58,213,43,10,74,311,45,12,42,310,45,13,44,216,44,1*72
$GBGSV,6,3,21,22,46,123,49,24,31,254,47,26,18,201,37,38,71,213,48,1*70
$GBGSV,6,4,21,40,74,080,48,59,45,144,46,60,34,236,44,04,33,120,40,1*7F
$GBGSV,6,5,21,19,28,056,44,44,58,340,49,25,12,307,37,21,18,177,41,1*7A
$GBGSV,6,6,21,34,17,291,42,1*48
$GBGSV,6,1,21,01,44,137,45,02,35,230,42,03,51,195,46,07,88,076,48,8*7F
$GBGSV,6,2,21,08,58,213,46,10,74,311,47,12,42,310,48,13,44,216,45,8*70
$GBGSV,6,3,21,22,46,123,50,24,31,254,45,26,18,201,36,38,71,213,50,8*7B
$GBGSV,6,4,21,40,74,080,50,59,45,144,48,60,34,236,45,04,33,120,43,8*73
$GBGSV,6,5,21,19,28,056,45,44,58,340,51,25,12,307,36,21,18,177,41,8*7A
$GBGSV,6,6,21,34,17,291,43,8*40
$GBGSV,3,1,09,01,44,137,46,02,35,230,44,03,51,195,47,07,88,076,49,B*0F
$GBGSV,3,2,09,08,58,213,48,10,74,311,48,12,42,310,48,13,44,216,45,B*04
$GBGSV,3,3,09,04,33,120,44,B*3B
$GAGSV,2,1,07,02,32,171,44,15,42,275,45,27,28,313,43,30,64,247,49,1*72
$GAGSV,2,2,07,34,60,005,49,36,19,053,41,05,16,107,31,1*43
$GAGSV,2,1,07,02,32,171,45,15,42,275,48,27,28,313,45,30,64,247,51,2*72
$GAGSV,2,2,07,34,60,005,51,36,19,053,42,05,16,107,33,2*48
$GAGSV,2,1,07,02,32,171,43,15,42,275,44,27,28,313,41,30,64,247,47,7*7E
$GAGSV,2,2,07,34,60,005,46,36,19,053,39,05,16,107,31,7*45
$GNGGA,074657.00,3207.95403008,N,11841.73962018,E,1,28,0.6,7.2604,M,1.7757,M,,*45
$GNRMC,074657.00,A,3207.95403008,N,11841.73962018,E,0.008,158.0,030424,6.1,W,A,C*5B
#HEADINGA,COM3,9984,91.0,FINE,2308,287235.000,2130924,16,18;SOL_COMPUTED,NARROW_INT,1.9938,205.1234,0.2032,0.0000,0.1427,0.2592,"999",52,42,42,38,0,01,3,f3*fcf29819
$GPGSV,3,1,09,03,28,043,41,06,54,294,45,14,38,176,43,09,14,131,18,1*62
$GPGSV,3,2,09,17,64,057,45,19,61,348,46,22,60,199,45,04,13,090,23,1*61
$GPGSV,3,3,09,11,24,261,41,1*5B
$GPGSV,3,1,09,03,28,043,40,06,54,294,47,14,38,176,44,09,14,131,33,4*6A
$GPGSV,3,2,09,17,64,057,46,19,61,348,45,22,60,199,44,04,13,090,21,4*67
$GPGSV,3,3,09,11,24,261,40,4*5F
$GPGSV,2,1,06,03,28,043,46,06,54,294,50,14,38,176,47,09,14,131,35,8*6D
$GPGSV,2,2,06,04,13,090,23,11,24,261,43,8*61
$GLGSV,2,1,08,74,41,239,44,73,16,196,39,75,29,308,50,69,38,105,50,1*78
$GLGSV,2,2,08,84,45,003,41,83,11,065,21,85,23,296,51,68,24,047,48,1*72
$GLGSV,2,1,07,73,16,196,37,75,29,308,44,69,38,105,49,84,45,003,44,3*76
$GLGSV,2,2,07,83,11,065,34,85,23,296,45,68,24,047,45,3*48
$GBGSV,6,1,21,01,44,137,44,02,35,230,38,03,51,195,44,07,88,076,46,1*76
$GBGSV,6,2,21,08,58,213,43,10,74,311,45,12,42,310,45,13,44,216,44,1*72
$GBGSV,6,3,21,22,46,123,48,24,31,254,47,26,18,201,37,38,71,214,48,1*76
$GBGSV,6,4,21,40,74,080,48,59,45,144,46,60,34,236,44,04,33,120,40,1*7F
$GBGSV,6,5,21,19,28,056,44,44,58,340,48,25,12,307,37,21,18,177,41,1*7B
$GBGSV,6,6,21,34,17,291,42,1*48
$GBGSV,6,1,21,01,44,137,45,02,35,230,41,03,51,195,46,07,88,076,48,8*7C
$GBGSV,6,2,21,08,58,213,46,10,74,311,47,12,42,310,48,13,44,216,45,8*70
$GBGSV,6,3,21,22,46,123,50,24,31,254,45,26,18,201,36,38,71,214,50,8*7C
$GBGSV,6,4,21,40,74,080,50,59,45,144,48,60,34,236,45,04,33,120,42,8*72
$GBGSV,6,5,21,19,28,056,46,44,58,340,51,25,12,307,35,21,18,177,41,8*7A
$GBGSV,6,6,21,34,17,291,42,8*41
$GBGSV,3,1,09,01,44,137,46,02,35,230,44,03,51,195,47,07,88,076,49,B*0F
$GBGSV,3,2,09,08,58,213,48,10,74,311,48,12,42,310,49,13,44,216,45,B*05
$GBGSV,3,3,09,04,33,120,44,B*3B
$GAGSV,2,1,07,02,32,171,44,15,42,275,46,27,28,313,43,30,64,247,49,1*71
$GAGSV,2,2,07,34,60,005,49,36,19,053,41,05,16,107,31,1*43
$GAGSV,2,1,07,02,32,171,45,15,42,275,48,27,28,313,45,30,64,247,51,2*72
$GAGSV,2,2,07,34,60,005,51,36,19,053,42,05,16,107,33,2*48
$GAGSV,2,1,07,02,32,171,43,15,42,275,44,27,28,313,41,30,64,247,47,7*7E
$GAGSV,2,2,07,34,60,005,46,36,19,053,39,05,16,107,30,7*44
$GNGGA,074658.00,3207.95402948,N,11841.73962139,E,1,28,0.6,7.2616,M,1.7757,M,,*47
$GNRMC,074658.00,A,3207.95402948,N,11841.73962139,E,0.008,152.9,030424,6.1,W,A,C*59
#HEADINGA,COM3,9984,91.0,FINE,2308,287236.000,2131923,16,18;SOL_COMPUTED,NARROW_INT,1.9938,205.1848,0.2034,0.0000,0.1425,0.2659,"999",52,41,41,38,0,01,3,f3*749896e8
$GPGSV,3,1,09,03,28,043,41,06,54,294,45,14,38,176,43,09,14,131,24,1*6D
$GPGSV,3,2,09,17,64,057,45,19,61,348,46,22,60,199,46,04,13,090,22,1*63
$GPGSV,3,3,09,11,24,261,41,1*5B
$GPGSV,3,1,09,03,28,043,40,06,54,294,47,14,38,176,44,09,14,131,32,4*6B
$GPGSV,3,2,09,17,64,057,46,19,61,348,45,22,60,199,44,04,13,090,19,4*6C
$GPGSV,3,3,09,11,24,261,40,4*5F
$GPGSV,2,1,06,03,28,043,46,06,54,294,50,14,38,176,47,09,14,131,36,8*6E
$GPGSV,2,2,06,04,13,090,22,11,24,261,43,8*60
$GLGSV,2,1,08,74,41,239,45,73,16,196,39,75,29,308,49,69,38,105,50,1*71
$GLGSV,2,2,08,84,45,003,42,83,11,065,21,85,23,296,51,68,24,047,48,1*71
$GLGSV,2,1,07,73,16,196,37,75,29,308,45,69,38,105,49,84,45,003,44,3*77
$GLGSV,2,2,07,83,11,065,34,85,23,296,45,68,24,047,45,3*48
$GBGSV,6,1,21,01,44,137,44,02,35,230,38,03,51,195,45,07,88,076,46,1*77
$GBGSV,6,2,21,08,58,213,43,10,74,311,45,12,42,310,45,13,44,216,44,1*72
$GBGSV,6,3,21,22,46,123,48,24,31,254,46,26,18,201,36,38,71,214,48,1*76
$GBGSV,6,4,21,40,74,080,48,59,45,144,46,60,34,236,44,04,33,120,40,1*7F
$GBGSV,6,5,21,19,28,056,44,44,58,340,48,25,12,307,36,21,18,177,41,1*7A
$GBGSV,6,6,21,34,17,291,41,1*4B
$GBGSV,6,1,21,01,44,137,44,02,35,230,42,03,51,195,46,07,88,076,48,8*7E
$GBGSV,6,2,21,08,58,213,46,10,74,311,47,12,42,310,48,13,44,216,45,8*70
$GBGSV,6,3,21,22,46,123,50,24,31,254,45,26,18,201,36,38,71,214,50,8*7C
$GBGSV,6,4,21,40,74,080,50,59,45,144,48,60,34,236,46,04,33,120,42,8*71
$GBGSV,6,5,21,19,28,056,45,44,58,340,51,25,12,307,35,21,18,177,41,8*79
$GBGSV,6,6,21,34,17,291,42,8*41
$GBGSV,3,1,09,01,44,137,47,02,35,230,45,03,51,195,47,07,88,076,49,B*0F
$GBGSV,3,2,09,08,58,213,48,10,74,311,48,12,42,310,49,13,44,216,45,B*05
$GBGSV,3,3,09,04,33,120,44,B*3B
$GAGSV,2,1,07,02,32,171,44,15,42,275,46,27,28,313,43,30,64,247,49,1*71
$GAGSV,2,2,07,34,60,005,49,36,19,053,41,05,16,107,32,1*40
$GAGSV,2,1,07,02,32,171,44,15,42,275,48,27,28,313,44,30,64,247,51,2*72
$GAGSV,2,2,07,34,60,005,51,36,19,053,42,05,16,107,33,2*48
$GAGSV,2,1,07,02,32,171,43,15,42,275,44,27,28,313,41,30,64,247,47,7*7E
$GAGSV,2,2,07,34,60,005,46,36,19,053,39,05,16,107,27,7*42
$GNGGA,074659.00,3207.95402877,N,11841.73962267,E,1,28,0.6,7.2625,M,1.7757,M,,*43
$GNRMC,074659.00,A,3207.95402877,N,11841.73962267,E,0.009,153.3,030424,6.1,W,A,C*57
#HEADINGA,COM3,9984,91.0,FINE,2308,287237.000,2132923,16,18;SOL_COMPUTED,NARROW_INT,1.9938,205.2461,0.2036,0.0000,0.1429,0.2666,"999",52,41,41,38,0,01,3,f3*6b1f7078
