*4A
$GBGSV,5,1,19,01,44,137,44,02,35,230,40,03,51,195,46,07,87,025,48,8*7D
$GBGSV,5,2,19,08,56,208,47,10,73,315,47,12,39,305,47,13,42,212,44,8*7A
$GBGSV,5,3,19,22,42,129,48,24,33,259,45,26,22,204,36,38,69,206,50,8*7A
$GBGSV,5,4,19,40,73,071,50,59,45,144,48,60,34,236,44,04,33,120,41,8*71
$GBGSV,5,5,19,19,30,061,44,44,56,332,51,34,14,288,39,8*44
$GBGSV,3,1,09,01,44,137,45,02,35,230,45,03,51,195,48,07,87,025,49,B*0B
$GBGSV,3,2,09,08,56,208,49,10,73,315,48,12,39,305,49,13,42,212,45,B*09
$GBGSV,3,3,09,04,33,120,45,B*3A
$GAGSV,2,1,07,02,37,170,43,15,39,269,45,27,25,315,43,30,65,258,49,1*74
$GAGSV,2,2,07,34,62,358,49,36,22,050,43,05,13,111,35,1*45
$GAGSV,2,1,07,02,37,170,45,15,39,269,48,27,25,315,46,30,65,258,51,2*70
$GAGSV,2,2,07,34,62,358,51,36,22,050,45,05,13,111,38,2*44
$GAGSV,2,1,07,02,37,170,45,15,39,269,45,27,25,315,41,30,65,258,47,7*78
$GAGSV,2,2,07,34,62,358,48,36,22,050,40,05,13,111,37,7*43
$GNGGA,073505.00,3207.95429315,N,11841.73984317,E,1,28,0.6,8.0747,M,1.7757,M,,*4E
$GNRMC,073505.00,A,3207.95429315,N,11841.73984317,E,0.005,158.2,030424,6.1,W,A,C*54
#HEADINGA,COM3,9984,91.0,FINE,2308,286523.000,1418921,16,18;SOL_COMPUTED,NARROW_INT,1.9932,182.1561,0.0441,0.0000,0.1356,0.2701,"999",49,41,41,38,0,01,3,f3*efab2e60
$GPGSV,2,1,08,03,32,045,44,06,52,285,46,14,44,177,45,17,65,044,47,1*63
$GPGSV,2,2,08,19,57,340,46,22,65,205,46,04,11,095,33,11,21,256,41,1*6A
$GPGSV,2,1,08,03,32,045,40,06,52,285,48,14,44,177,45,17,65,044,46,4*6D
$GPGSV,2,2,08,19,57,340,44,22,65,205,44,04,11,095,19,11,21,256,42,4*64
$GPGSV,2,1,05,03,32,045,47,06,52,285,51,14,44,177,48,04,11,095,33,8*61
$GPGSV,2,2,05,11,21,256,46,8*58
$GLGSV,2,1,08,74,45,246,45,73,22,198,43,75,27,314,49,69,34,112,50,1*70
$GLGSV,2,2,08,84,46,354,42,83,14,060,29,85,21,289,49,68,25,053,49,1*7B
$GLGSV,2,1,07,73,22,198,42,75,27,314,46,69,34,112,46,84,46,354,45,3*7A
$GLGSV,2,2,07,83,14,060,37,85,21,289,44,68,25,053,46,3*41
$GBGSV,5,1,19,01,44,137,43,02,35,230,39,03,51,195,46,07,87,025,47,1*72
$GBGSV,5,2,19,08,56,208,41,10,73,315,45,12,39,305,44,13,42,212,45,1*75
$GBGSV,5,3,19,22,42,129,48,24,33,259,45,26,22,204,35,38,69,206,48,1*79
$GBGSV,5,4,19,40,73,071,48,59,45,144,45,60,34,236,44,04,33,120,41,1*7C
$GBGSV,5,5,19,19,30,061,44,44,56,332,48,34,14,288,40,1*4B
$GBGSV,5,1,19,01,44,137,44,02,35,230,40,03,51,195,46,07,87,025,48,8*7D
$GBGSV,5,2,19,08,56,208,47,10,73,315,47,12,39,305,47,13,42,212,44,8*7A
$GBGSV,5,3,19,22,42,129,48,24,33,259,45,26,22,204,36,38,69,206,50,8*7A
$GBGSV,5,4,19,40,73,071,51,59,45,144,48,60,34,236,44,04,33,120,41,8*70
$GBGSV,5,5,19,19,30,061,44,44,56,332,51,34,14,288,39,8*44
$GBGSV,3,1,09,01,44,137,45,02,35,230,45,03,51,195,48,07,87,025,49,B*0B
$GBGSV,3,2,09,08,56,208,49,10,73,315,48,12,39,305,49,13,42,212,45,B*09
$GBGSV,3,3,09,04,33,120,45,B*3A
$GAGSV,2,1,07,02,37,170,43,15,40,269,45,27,25,315,43,30,65,258,49,1*7A
$GAGSV,2,2,07,34,62,358,49,36,22,050,43,05,13,111,35,1*45
$GAGSV,2,1,07,02,37,170,45,15,40,269,48,27,25,315,46,30,65,258,51,2*7E
$GAGSV,2,2,07,34,62,358,51,36,22,050,45,05,13,111,38,2*44
$GAGSV,2,1,07,02,37,170,45,15,40,269,45,27,25,315,41,30,65,258,47,7*76
$GAGSV,2,2,07,34,62,358,48,36,22,050,39,05,13,111,37,7*4D
$GNGGA,073506.00,3207.95429292,N,11841.73984331,E,1,28,0.6,8.0727,M,1.7757,M,,*41
$GNRMC,073506.00,A,3207.95429292,N,11841.73984331,E,0.004,157.5,030424,6.1,W,A,C*54
#HEADINGA,COM3,9984,91.0,FINE,2308,286524.000,1419922,15,18;SOL_COMPUTED,NARROW_INT,1.9932,182.1983,0.0443,0.0000,0.1358,0.2703,"999",49,41,41,38,0,01,3,f3*4b67d3bd
$GPGSV,2,1,08,03,32,045,44,06,52,285,45,14,44,177,45,17,65,044,47,1*60
$GPGSV,2,2,08,19,57,340,46,22,65,205,46,04,11,095,33,11,21,256,41,1*6A
$GPGSV,2,1,08,03,32,045,40,06,52,285,48,14,44,177,45,17,65,044,46,4*6D
$GPGSV,2,2,08,19,57,340,44,22,65,205,44,04,11,095,21,11,21,256,42,4*6F
$GPGSV,2,1,05,03,32,045,47,06,52,285,51,14,44,177,48,04,11,095,33,8*61
$GPGSV,2,2,05,11,21,256,46,8*58
$GLGSV,2,1,08,74,45,246,45,73,22,198,43,75,27,314,49,69,34,112,50,1*70
$GLGSV,2,2,08,84,46,354,42,83,14,060,29,85,21,289,49,68,25,053,49,1*7B
$GLGSV,2,1,07,73,22,198,41,75,27,314,45,69,34,112,46,84,46,354,45,3*7A
$GLGSV,2,2,07,83,14,060,37,85,21,289,44,68,25,053,46,3*41
$GBGSV,5,1,19,01,44,137,43,02,35,230,39,03,51,195,46,07,87,025,47,1*72
$GBGSV,5,2,19,08,56,208,41,10,73,315,45,12,39,305,44,13,42,212,45,1*75
$GBGSV,5,3,19,22,42,129,48,24,33,259,45,26,22,204,34,38,69,206,48,1*78
$GBGSV,5,4,19,40,73,071,48,59,45,144,45,60,34,236,44,04,33,120,41,1*7C
$GBGSV,5,5,19,19,30,061,43,44,56,332,48,34,14,288,40,1*4C
$GBGSV,5,1,19,01,44,137,44,02,35,230,40,03,51,195,46,07,87,025,48,8*7D
$GBGSV,5,2,19,08,56,208,47,10,73,315,47,12,39,305,47,13,42,212,44,8*7A
$GBGSV,5,3,19,22,42,129,48,24,33,259,45,26,22,204,36,38,69,206,50,8*7A
$GBGSV,5,4,19,40,73,071,51,59,45,144,48,60,34,236,44,04,33,120,41,8*70
$GBGSV,5,5,19,19,30,061,44,44,56,332,51,34,14,288,40,8*4A
$GBGSV,3,1,09,01,44,137,45,02,35,230,45,03,51,195,48,07,87,025,49,B*0B
$GBGSV,3,2,09,08,56,208,49,10,73,315,48,12,39,305,49,13,42,212,45,B*09
$GBGSV,3,3,09,04,33,120,45,B*3A
$GAGSV,2,1,07,02,37,170,43,15,40,269,46,27,25,315,43,30,65,258,49,1*79
$GAGSV,2,2,07,34,62,358,49,36,22,050,43,05,13,111,35,1*45
$GAGSV,2,1,07,02,37,170,45,15,40,269,48,27,25,315,46,30,65,258,51,2*7E
$GAGSV,2,2,07,34,62,358,51,36,22,050,45,05,13,111,38,2*44
$GAGSV,2,1,07,02,37,170,44,15,40,269,45,27,25,315,41,30,65,258,47,7*77
$GAGSV,2,2,07,34,62,358,48,36,22,050,39,05,13,111,37,7*4D
$GNGGA,073507.00,3207.95429257,N,11841.73984340,E,1,28,0.6,8.0715,M,1.7757,M,,*4E
$GNRMC,073507.00,A,3207.95429257,N,11841.73984340,E,0.005,162.1,030424,6.1,W,A,C*59
#HEADINGA,COM3,9984,91.0,FINE,2308,286525.000,1420922,16,18;SOL_COMPUTED,NARROW_INT,1.9932,182.2404,0.0446,0.0000,0.1359,0.2702,"999",49,41,41,38,0,01,3,f3*0f6ba8ce
$GPGSV,2,1,08,03,32,045,44,06,52,285,45,14,44,177,45,17,65,044,47,1*60
$GPGSV,2,2,08,19,57,340,46,22,65,205,46,04,11,095,33,11,21,256,41,1*6A
$GPGSV,2,1,08,03,32,045,40,06,52,285,48,14,44,177,45,17,65,044,46,4*6D
$GPGSV,2,2,08,19,57,340,44,22,65,205,44,04,11,095,22,11,21,256,42,4*6C
$GPGSV,2,1,05,03,32,045,47,06,52,285,51,14,44,177,48,04,11,095,32,8*60
$GPGSV,2,2,05,11,21,256,46,8*58
$GLGSV,2,1,08,74,45,246,45,73,22,198,43,75,27,314,49,69,34,112,50,1*70
$GLGSV,2,2,08,84,46,354,42,83,14,060,29,85,21,290,49,68,25,053,49,1*73
$GLGSV,2,1,07,73,22,198,41,75,27,314,45,69,34,112,46,84,46,354,45,3*7A
$GLGSV,2,2,07,83,14,060,37,85,21,290,44,68,25,053,46,3*49
$GBGSV,5,1,19,01,44,137,42,02,35,230,39,03,51,195,45,07,87,025,47,1*70
$GBGSV,5,2,19,08,56,208,41,10,73,315,44,12,39,305,44,13,42,212,45,1*74
$GBGSV,5,3,19,22,42,129,48,24,33,259,45,26,22,204,34,38,69,206,48,1*78
$GBGSV,5,4,19,40,73,071,48,59,45,144,45,60,34,236,44,04,33,120,41,1*7C
$GBGSV,5,5,19,19,30,061,43,44,56,332,48,34,14,288,40,1*4C
$GBGSV,5,1,19,01,44,137,44,02,35,230,40,03,51,195,46,07,87,025,48,8*7D
$GBGSV,5,2,19,08,56,208,47,10,73,315,47,12,39,305,47,13,42,212,44,8*7A
$GBGSV,5,3,19,22,42,129,48,24,33,259,46,26,22,204,36,38,69,206,50,8*79
$GBGSV,5,4,19,40,73,071,51,59,45,144,48,60,34,236,44,04,33,120,41,8*70
$GBGSV,5,5,19,19,30,061,44,44,56,332,51,34,14,288,40,8*4A
$GBGSV,3,1,09,01,44,137,45,02,35,230,45,03,51,195,48,07,87,025,49,B*0B
$GBGSV,3,2,09,08,56,208,49,10,73,315,48,12,39,305,49,13,42,212,45,B*09
$GBGSV,3,3,09,04,33,120,45,B*3A
$GAGSV,2,1,07,02,37,170,43,15,40,269,46,27,25,315,43,30,65,258,49,1*79
$GAGSV,2,2,07,34,62,358,49,36,22,050,43,05,13,111,35,1*45
$GAGSV,2,1,07,02,37,170,45,15,40,269,48,27,25,315,46,30,65,258,51,2*7E
$GAGSV,2,2,07,34,62,358,51,36,22,050,45,05,13,111,38,2*44
$GAGSV,2,1,07,02,37,170,44,15,40,269,45,27,25,315,41,30,65,258,47,7*77
$GAGSV,2,2,07,34,62,358,48,36,22,050,39,05,13,111,37,7*4D
$GNGGA,073508.00,3207.95429215,N,11841.73984351,E,1,28,0.6,8.0704,M,1.7757,M,,*47
$GNRMC,073508.00,A,3207.95429215,N,11841.73984351,E,0.005,160.4,030424,6.1,W,A,C*57
#HEADINGA,COM3,9984,91.0,FINE,2308,286526.000,1421921,16,18;SOL_COMPUTED,NARROW_INT,1.9932,182.2823,0.0449,0.0000,0.1356,0.2682,"999",49,41,41,38,0,01,3,f3*35c84aa6
$GPGSV,2,1,08,03,32,045,44,06,52,285,45,14,44,177,45,17,65,044,47,1*60
$GPGSV,2,2,08,19,57,340,46,22,65,205,46,04,11,095,34,11,21,256,41,1*6D
$GPGSV,2,1,08,03,32,045,40,06,52,285,48,14,44,177,45,17,65,044,46,4*6D
$GPGSV,2,2,08,19,57,340,44,22,65,205,44,04,11,095,20,11,21,256,42,4*6E
$GPGSV,2,1,05,03,32,045,47,06,52,285,51,14,44,177,48,04,11,095,32,8*60
$GPGSV,2,2,05,11,21,256,46,8*58
$GLGSV,2,1,08,74,45,246,45,73,22,198,43,75,27,314,49,69,34,112,50,1*70
$GLGSV,2,2,08,84,46,354,42,83,14,060,29,85,21,290,49,68,25,053,49,1*73
$GLGSV,2,1,07,73,22,198,42,75,27,314,45,69,34,112,46,84,46,354,45,3*79
$GLGSV,2,2,07,83,14,060,37,85,21,290,44,68,25,053,46,3*49
$GBGSV,5,1,19,01,44,137,43,02,35,230,39,03,51,195,45,07,87,025,47,1*71
$GBGSV,5,2,19,08,56,208,42,10,73,315,44,12,39,305,44,13,42,212,45,1*77
$GBGSV,5,3,19,22,42,129,48,24,33,259,45,26,22,204,34,38,69,206,48,1*78
$GBGSV,5,4,19,40,73,071,48,59,45,144,45,60,34,236,44,04,33,120,40,1*7D
$GBGSV,5,5,19,19,30,061,43,44,56,332,48,34,14,288,40,1*4C
$GBGSV,5,1,19,01,44,137,43,02,35,230,40,03,51,195,46,07,87,025,48,8*7A
$GBGSV,5,2,19,08,56,208,47,10,73,315,47,12,39,305,47,13,42,212,44,8*7A
$GBGSV,5,3,19,22,42,129,48,24,33,259,45,26,22,204,36,38,69,206,50,8*7A
$GBGSV,5,4,19,40,73,071,50,59,45,144,48,60,34,236,44,04,33,120,41,8*71
$GBGSV,5,5,19,19,30,061,44,44,56,332,51,34,14,288,39,8*44
$GBGSV,3,1,09,01,44,137,45,02,35,230,45,03,51,195,48,07,87,025,49,B*0B
$GBGSV,3,2,09,08,56,208,49,10,73,315,48,12,39,305,50,13,42,212,45,B*01
$GBGSV,3,3,09,04,33,120,45,B*3A
$GAGSV,2,1,07,02,37,170,43,15,40,269,46,27,25,315,43,30,65,258,49,1*79
$GAGSV,2,2,07,34,62,358,49,36,22,050,42,05,13,111,35,1*44
$GAGSV,2,1,07,02,37,170,45,15,40,269,48,27,25,315,45,30,65,258,51,2*7D
$GAGSV,2,2,07,34,62,358,51,36,22,050,45,05,13,111,38,2*44
$GAGSV,2,1,07,02,37,170,44,15,40,269,44,27,25,315,41,30,65,258,47,7*76
$GAGSV,2,2,07,34,62,358,47,36,22,050,38,05,13,111,37,7*43
$GNGGA,073509.00,3207.95429175,N,11841.73984372,E,1,28,0.6,8.0693,M,1.7757,M,,*4D
$GNRMC,073509.00,A,3207.95429175,N,11841.73984372,E,0.005,152.8,030424,6.1,W,A,C*5F
#HEADINGA,COM3,9984,91.0,FINE,2308,286527.000,1422922,16,18;SOL_COMPUTED,NARROW_INT,1.9932,182.3242,0.0451,0.0000,0.1355,0.2677,"999",49,42,42,38,0,01,3,f3*a5596d93
$GPGSV,2,1,08,03,32,045,44,06,52,285,45,14,44,177,45,17,65,044,47,1*60
$GPGSV,2,2,08,19,57,340,46,22,65,205,46,04,11,095,34,11,21,256,41,1*6D
$GPGSV,2,1,08,03,32,045,40,06,52,285,48,14,44,177,45,17,65,044,46,4*6D
$GPGSV,2,2,08,19,57,340,44,22,65,205,44,04,11,095,18,11,21,256,42,4*65
$GPGSV,2,1,05,03,32,045,47,06,52,285,51,14,44,177,48,04,11,095,32,8*60
$GPGSV,2,2,05,11,21,256,46,8*58
$GLGSV,2,1,08,74,45,246,45,73,22,198,43,75,27,314,49,69,34,112,50,1*70
$GLGSV,2,2,08,84,46,354,42,83,14,060,30,85,21,290,49,68,25,053,49,1*7B
$GLGSV,2,1,07,73,22,198,42,75,27,314,45,69,34,112,46,84,46,354,46,3*7A
$GLGSV,2,2,07,83,14,060,37,85,21,290,43,68,25,053,46,3*4E
$GBGSV,5,1,19,01,44,137,43,02,35,230,40,03,51,195,45,07,87,025,47,1*7F
$GBGSV,5,2,19,08,56,208,42,10,73,315,45,12,39,305,44,13,42,212,45,1*76
$GBGSV,5,3,19,22,42,129,48,24,33,259,45,26,22,204,33,38,69,206,48,1*7F
$GBGSV,5,4,19,40,73,071,48,59,45,144,45,60,34,236,44,04,33,120,41,1*7C
$GBGSV,5,5,19,19,30,061,44,44,56,332,48,34,14,288,40,1*4B
$GBGSV,5,1,19,01,44,137,44,02,35,230,40,03,51,195,46,07,87,025,48,8*7D
$GBGSV,5,2,19,08,56,208,47,10,73,315,47,12,39,305,47,13,42,212,44,8*7A
$GBGSV,5,3,19,22,42,129,48,24,33,259,45,26,22,204,36,38,69,206,50,8*7A
$GBGSV,5,4,19,40,73,071,50,59,45,144,48,60,34,236,43,04,33,120,41,8*76
$GBGSV,5,5,19,19,30,061,44,44,56,332,51,34,14,288,39,8*44
$GBGSV,3,1,09,01,44,137,45,02,35,230,45,03,51,195,48,07,87,025,49,B*0B
$GBGSV,3,2,09,08,56,208,49,10,73,315,48,12,39,305,49,13,42,212,45,B*09
$GBGSV,3,3,09,04,33,120,45,B*3A
$GAGSV,2,1,07,02,37,170,43,15,40,269,46,27,25,315,43,30,65,258,49,1*79
$GAGSV,2,2,07,34,62,358,49,36,22,050,43,05,13,111,36,1*46
$GAGSV,2,1,07,02,37,170,45,15,40,269,48,27,25,315,46,30,65,258,51,2*7E
$GAGSV,2,2,07,34,62,358,51,36,22,050,45,05,13,111,38,2*44
$GAGSV,2,1,07,02,37,170,44,15,40,269,44,27,25,315,41,30,65,258,47,7*76
$GAGSV,2,2,07,34,62,358,47,36,22,050,38,05,13,111,36,7*42
$GNGGA,073510.00,3207.95429141,N,11841.73984394,E,1,28,0.6,8.0687,M,1.7757,M,,*4F
$GNRMC,073510.00,A,3207.95429141,N,11841.73984394,E,0.005,148.1,030424,6.1,W,A,C*5A
#HEADINGA,COM3,9984,89.0,FINE,2308,286528.000,1423922,16,18;SOL_COMPUTED,NARROW_INT,1.9932,182.3660,0.0454,0.0000,0.1356,0.2678,"999",49,42,42,37,0,01,3,f3*73f440d9
$GPGSV,2,1,08,03,32,045,44,06,52,285,45,14,44,177,45,17,65,044,47,1*60
$GPGSV,2,2,08,19,57,340,46,22,65,205,46,04,11,095,34,11,21,256,41,1*6D
$GPGSV,2,1,08,03,32,045,40,06,52,285,48,14,44,177,45,17,65,044,46,4*6D
$GPGSV,2,2,08,19,57,340,44,22,65,205,44,04,11,095,19,11,21,256,42,4*64
$GPGSV,2,1,05,03,32,045,47,06,52,285,51,14,44,177,48,04,11,095,33,8*61
$GPGSV,2,2,05,11,21,256,46,8*58
$GLGSV,2,1,08,74,45,246,45,73,22,198,43,75,27,314,49,69,34,112,50,1*70
$GLGSV,2,2,08,84,46,354,41,83,14,060,29,85,21,290,49,68,25,053,49,1*70
$GLGSV,2,1,07,73,22,198,42,75,27,314,46,69,34,112,46,84,46,354,46,3*79
$GLGSV,2,2,07,83,14,060,38,85,21,290,43,68,25,053,46,3*41
$GBGSV,5,1,19,01,44,137,43,02,35,230,40,03,51,195,45,07,87,025,47,1*7F
$GBGSV,5,2,19,08,56,208,42,10,73,315,44,12,39,305,44,13,42,212,45,1*77
$GBGSV,5,3,19,22,42,129,48,24,33,259,45,26,22,204,34,38,69,206,48,1*78
$GBGSV,5,4,19,40,73,071,48,59,45,144,45,60,34,236,44,04,33,120,41,1*7C
$GBGSV,5,5,19,19,30,061,43,44,56,332,48,34,14,288,40,1*4C
$GBGSV,5,1,19,01,44,137,44,02,35,230,40,03,51,195,46,07,87,025,48,8*7D
$GBGSV,5,2,19,08,56,208,47,10,73,315,47,12,39,305,47,13,42,212,44,8*7A
$GBGSV,5,3,19,22,42,129,48,24,33,259,45,26,22,204,36,38,69,206,50,8*7A
$GBGSV,5,4,19,40,73,071,50,59,45,144,48,60,34,236,44,04,33,120,41,8*71
$GBGSV,5,5,19,19,30,061,44,44,56,332,51,34,14,288,39,8*44
$GBGSV,3,1,09,01,44,137,45,02,35,230,45,03,51,195,48,07,87,025,49,B*0B
$GBGSV,3,2,09,08,56,208,49,10,73,315,48,12,39,305,49,13,42,212,45,B*09
$GBGSV,3,3,09,04,33,120,45,B*3A
$GAGSV,2,1,07,02,37,170,43,15,40,269,46,27,25,315,43,30,65,258,49,1*79
$GAGSV,2,2,07,34,62,358,49,36,22,050,42,05,13,111,36,1*47
$GAGSV,2,1,07,02,37,170,45,15,40,269,48,27,25,315,45,30,65,258,51,2*7D
$GAGSV,2,2,07,34,62,358,51,36,22,050,44,05,13,111,38,2*45
$GAGSV,2,1,07,02,37,170,44,15,40,269,44,27,25,315,41,30,65,258,47,7*76
$GAGSV,2,2,07,34,62,358,47,36,22,050,39,05,13,111,36,7*43
$GNGGA,073511.00,3207.95429103,N,11841.73984414,E,1,28,0.6,8.0682,M,1.7757,M,,*42
$GNRMC,073511.00,A,3207.95429103,N,11841.73984414,E,0.005,151.0,030424,6.1,W,A,C*5B
#HEADINGA,COM3,9984,88.0,FINE,2308,286529.000,1424921,16,18;SOL_COMPUTED,NARROW_INT,1.9932,182.4077,0.0456,0.0000,0.1354,0.2670,"999",49,42,42,37,0,01,3,f3*635d3d13
$GPGSV,2,1,08,03,32,045,44,06,52,285,45,14,44,177,45,17,65,044,47,1*60
$GPGSV,2,2,08,19,57,340,46,22,65,205,46,04,11,095,35,11,21,256,41,1*6C
$GPGSV,2,1,08,03,32,045,40,06,52,285,48,14,44,177,45,17,65,044,46,4*6D
$GPGSV,2,2,08,19,57,340,44,22,65,205,44,04,11,095,20,11,21,256,42,4*6E
$GPGSV,2,1,05,03,32,045,47,06,52,285,51,14,44,177,48,04,11,095,32,8*60
$GPGSV,2,2,05,11,21,256,46,8*58
$GLGSV,2,1,08,74,45,246,45,73,22,198,42,75,27,314,49,69,34,112,50,1*71
$GLGSV,2,2,08,84,46,354,42,83,14,060,30,85,21,290,48,68,25,053,49,1*7A
$GLGSV,2,1,07,73,22,198,42,75,27,314,46,69,34,112,46,84,46,354,46,3*79
$GLGSV,2,2,07,83,14,060,38,85,21,290,43,68,25,053,46,3*41
$GBGSV,5,1,19,01,44,137,43,02,35,230,40,03,51,195,45,07,87,025,47,1*7F
$GBGSV,5,2,19,08,56,208,42,10,73,315,45,12,39,305,44,13,42,212,45,1*76
$GBGSV,5,3,19,22,42,129,48,24,33,259,45,26,22,204,34,38,69,206,48,1*78
$GBGSV,5,4,19,40,73,071,48,59,45,144,45,60,34,236,44,04,33,120,41,1*7C
$GBGSV,5,5,19,19,30,061,43,44,56,332,48,34,14,288,40,1*4C
$GBGSV,5,1,19,01,44,137,43,02,35,230,40,03,51,195,46,07,87,025,48,8*7A
$GBGSV,5,2,19,08,56,208,47,10,73,315,47,12,39,305,47,13,42,212,44,8*7A
$GBGSV,5,3,19,22,42,129,48,24,33,259,45,26,22,204,36,38,69,206,50,8*7A
$GBGSV,5,4,19,40,73,071,50,59,45,144,47,60,34,236,43,04,33,120,41,8*79
$GBGSV,5,5,19,19,30,061,44,44,56,332,51,34,14,288,39,8*44
$GBGSV,3,1,09,01,44,137,45,02,35,230,45,03,51,195,48,07,87,025,49,B*0B
$GBGSV,3,2,09,08,56,208,49,10,73,315,48,12,39,305,50,13,42,212,45,B*01
$GBGSV,3,3,09,04,33,120,45,B*3A
$GAGSV,2,1,07,02,37,170,43,15,40,269,46,27,25,315,43,30,65,258,49,1*79
$GAGSV,2,2,07,34,62,358,49,36,22,050,42,05,13,111,36,1*47
$GAGSV,2,1,07,02,37,170,45,15,40,269,48,27,25,315,45,30,65,258,51,2*7D
$GAGSV,2,2,07,34,62,358,51,36,22,050,44,05,13,111,38,2*45
$GAGSV,2,1,07,02,37,170,44,15,40,269,44,27,25,315,41,30,65,258,47,7*76
$GAGSV,2,2,07,34,62,358,47,36,22,050,38,05,13,111,36,7*42
$GNGGA,073512.00,3207.95429059,N,11841.73984424,E,1,28,0.6,8.0672,M,1.7757,M,,*43
$GNRMC,073512.00,A,3207.95429059,N,11841.73984424,E,0.005,156.7,030424,6.1,W,A,C*55
#HEADINGA,COM3,9984,90.0,FINE,2308,286530.000,1425922,15,18;SOL_COMPUTED,NARROW_INT,1.9932,182.4493,0.0458,0.0000,0.1356,0.2676,"999",49,42,42,37,0,01,3,f3*9c42490b
$GPGSV,2,1,08,03,32,045,44,06,52,285,45,14,44,177,46,17,65,044,47,1*63
$GPGSV,2,2,08,19,57,340,46,22,65,205,46,04,11,095,35,11,21,256,41,1*6C
$GPGSV,2,1,07,03,32,045,40,06,52,285,47,14,44,177,45,17,65,044,46,4*6D
$GPGSV,2,2,07,19,57,340,44,22,65,205,44,11,21,256,42,4*5B
$GPGSV,2,1,05,03,32,045,47,06,52,285,51,14,44,177,48,04,11,095,32,8*60
$GPGSV,2,2,05,11,21,256,46,8*58
$GLGSV,2,1,08,74,45,246,45,73,22,198,42,75,27,314,49,69,34,112,50,1*71
$GLGSV,2,2,08,84,46,354,41,83,14,060,29,85,21,290,48,68,25,053,49,1*71
$GLGSV,2,1,07,73,22,198,42,75,27,314,46,69,34,112,46,84,46,354,46,3*79
$GLGSV,2,2,07,83,14,060,38,85,21,290,43,68,25,053,46,3*41
$GBGSV,5,1,19,01,44,137,43,02,35,230,40,03,51,195,45,07,87,025,48,1*70
$GBGSV,5,2,19,08,56,208,42,10,73,315,45,12,39,305,44,13,42,212,45,1*76
$GBGSV,5,3,19,22,42,129,48,24,33,259,46,26,22,204,33,38,69,206,48,1*7C
$GBGSV,5,4,19,40,73,071,48,59,45,144,45,60,34,236,44,04,33,120,41,1*7C
$GBGSV,5,5,19,19,30,061,44,44,56,332,48,34,14,288,40,1*4B
$GBGSV,5,1,19,01,44,137,43,02,35,230,40,03,51,195,46,07,87,025,48,8*7A
$GBGSV,5,2,19,08,56,208,46,10,73,315,47,12,39,305,47,13,42,212,44,8*7B
$GBGSV,5,3,19,22,42,129,47,24,33,259,45,26,22,204,36,38,69,206,50,8*75
$GBGSV,5,4,19,40,73,071,50,59,45,144,47,60,34,236,43,04,33,120,41,8*79
$GBGSV,5,5,19,19,30,061,44,44,56,332,51,34,14,288,39,8*44
$GBGSV,3,1,09,01,44,137,46,02,35,230,45,03,51,195,48,07,87,025,49,B*08
$GBGSV,3,2,09,08,56,208,49,10,73,315,48,12,39,305,50,13,42,212,45,B*01
$GBGSV,3,3,09,04,33,120,45,B*3A
$GAGSV,2,1,07,02,37,170,43,15,40,269,46,27,25,315,43,30,65,258,49,1*79
$GAGSV,2,2,07,34,62,358,49,36,22,050,42,05,13,111,36,1*47
$GAGSV,2,1,07,02,37,170,45,15,40,269,48,27,25,315,45,30,65,258,51,2*7D
$GAGSV,2,2,07,34,62,358,51,36,22,050,45,05,13,111,38,2*44
$GAGSV,2,1,07,02,37,170,44,15,40,269,44,27,25,315,41,30,65,258,47,7*76
$GAGSV,2,2,07,34,62,358,47,36,22,050,38,05,13,111,36,7*42
$GNGGA,073513.00,3207.95429017,N,11841.73984439,E,1,28,0.6,8.0661,M,1.7757,M,,*46
$GNRMC,073513.00,A,3207.95429017,N,11841.73984439,E,0.005,152.3,030424,6.1,W,A,C*52
#HEADINGA,COM3,9984,91.0,FINE,2308,286531.000,1426922,16,18;SOL_COMPUTED,NARROW_INT,1.9932,182.4908,0.0461,0.0000,0.1358,0.2675,"999",49,42,42,37,0,01,3,f3*bbb48885
$GPGSV,2,1,08,03,32,045,44,06,52,285,45,14,44,177,45,17,65,044,47,1*60
$GPGSV,2,2,08,19,57,340,46,22,65,205,46,04,11,095,35,11,21,256,41,1*6C
$GPGSV,2,1,07,03,32,045,40,06,52,285,47,14,44,177,45,17,65,044,46,4*6D
$GPGSV,2,2,07,19,57,340,44,22,65,205,44,11,21,256,42,4*5B
$GPGSV,2,1,05,03,32,045,47,06,52,285,51,14,44,177,48,04,11,095,31,8*63
$GPGSV,2,2,05,11,21,256,46,8*58
$GLGSV,2,1,08,74,45,246,45,73,22,198,43,75,27,314,49,69,34,112,50,1*70
$GLGSV,2,2,08,84,46,354,41,83,14,060,30,85,21,290,48,68,25,053,49,1*79
$GLGSV,2,1,07,73,22,198,42,75,27,314,45,69,34,112,46,84,46,354,46,3*7A
$GLGSV,2,2,07,83,14,060,38,85,21,290,43,68,25,053,46,3*41
$GBGSV,5,1,19,01,44,137,43,02,35,230,39,03,51,195,45,07,87,025,47,1*71
$GBGSV,5,2,19,08,56,208,42,10,73,315,45,12,39,305,44,13,42,212,45,1*76
$GBGSV,5,3,19,22,42,129,48,24,33,259,45,26,22,204,34,38,69,206,47,1*77
$GBGSV,5,4,19,40,73,071,48,59,45,144,45,60,34,236,44,04,33,120,41,1*7C
$GBGSV,5,5,19,19,30,061,43,44,56,332,48,34,14,288,40,1*4C
$GBGSV,5,1,19,01,44,137,43,02,35,230,39,03,51,195,45,07,87,025,47,8*78
$GBGSV,5,2,19,08,56,208,46,10,73,315,47,12,39,305,47,13,42,212,44,8*7B
$GBGSV,5,3,19,22,42,129,47,24,33,259,45,26,22,204,36,38,69,206,50,8*75
$GBGSV,5,4,19,40,73,071,50,59,45,144,47,60,34,236,43,04,33,120,40,8*78
$GBGSV,5,5,19,19,30,061,44,44,56,332,50,34,14,288,39,8*45
$GBGSV,3,1,09,01,44,137,46,02,35,230,45,03,51,195,48,07,87,025,49,B*08
$GBGSV,3,2,09,08,56,208,49,10,73,315,48,12,39,305,50,13,42,212,45,B*01
$GBGSV,3,3,09,04,33,120,45,B*3A
$GAGSV,2,1,07,02,37,170,43,15,40,269,46,27,25,315,43,30,65,258,49,1*79
$GAGSV,2,2,07,34,62,358,49,36,22,050,42,05,13,111,36,1*47
$GAGSV,2,1,07,02,37,170,45,15,40,269,48,27,25,315,45,30,65,258,51,2*7D
$GAGSV,2,2,07,34,62,358,51,36,22,050,44,05,13,111,38,2*45
$GAGSV,2,1,07,02,37,170,44,15,40,269,44,27,25,315,41,30,65,258,47,7*76
$GAGSV,2,2,07,34,62,358,47,36,22,050,38,05,13,111,36,7*42
$GNGGA,073514.00,3207.95428972,N,11841.73984450,E,1,28,0.6,8.0651,M,1.7757,M,,*46
$GNRMC,073514.00,A,3207.95428972,N,11841.73984450,E,0.005,155.1,030424,6.1,W,A,C*54
#HEADINGA,COM3,9984,91.0,FINE,2308,286532.000,1427922,15,18;SOL_COMPUTED,NARROW_INT,1.9932,182.5322,0.0463,0.0000,0.1359,0.2676,"999",49,42,42,37,0,01,3,f3*f6b7b6bd
$GPGSV,2,1,08,03,32,045,43,06,52,285,45,14,44,177,45,17,65,044,47,1*67
$GPGSV,2,2,08,19,57,340,46,22,65,205,46,04,11,095,35,11,21,257,41,1*6D
$GPGSV,2,1,08,03,32,045,40,06,52,285,47,14,44,177,45,17,65,044,46,4*62
$GPGSV,2,2,08,19,57,340,44,22,65,205,44,04,11,095,21,11,21,257,42,4*6E
$GPGSV,2,1,05,03,32,045,47,06,52,285,51,14,44,177,48,04,11,095,32,8*60
$GPGSV,2,2,05,11,21,257,46,8*59
$GLGSV,2,1,08,74,45,246,45,73,22,198,42,75,27,314,49,69,34,112,50,1*71
$GLGSV,2,2,08,84,46,354,41,83,14,060,32,85,21,290,48,68,25,053,48,1*7A
$GLGSV,2,1,07,73,22,198,42,75,27,314,45,69,34,112,46,84,46,354,45,3*79
$GLGSV,2,2,07,83,14,060,37,85,21,290,43,68,25,053,46,3*4E
$GBGSV,5,1,19,01,44,137,43,02,35,230,39,03,51,195,45,07,87,025,47,1*71
$GBGSV,5,2,19,08,56,208,42,10,73,315,45,12,39,305,44,13,42,212,44,1*77
$GBGSV,5,3,19,22,42,129,48,24,33,259,45,26,22,204,34,38,69,206,47,1*77
$GBGSV,5,4,19,40,73,071,48,59,45,144,45,60,34,236,44,04,33,120,41,1*7C
$GBGSV,5,5,19,19,30,061,43,44,56,332,48,34,14,288,40,1*4C
$GBGSV,5,1,19,01,44,137,43,02,35,230,39,03,51,195,45,07,87,025,47,8*78
$GBGSV,5,2,19,08,56,208,46,10,73,315,47,12,39,305,47,13,42,212,44,8*7B
$GBGSV,5,3,19,22,42,129,47,24,33,259,45,26,22,204,36,38,69,206,50,8*75
$GBGSV,5,4,19,40,73,071,50,59,45,144,47,60,34,236,43,04,33,120,40,8*78
$GBGSV,5,5,19,19,30,061,44,44,56,332,51,34,14,288,39,8*44
$GBGSV,3,1,09,01,44,137,46,02,35,230,45,03,51,195,48,07,87,025,49,B*08
$GBGSV,3,2,09,08,56,208,49,10,73,315,48,12,39,305,50,13,42,212,45,B*01
$GBGSV,3,3,09,04,33,120,45,B*3A
$GAGSV,2,1,07,02,37,170,43,15,40,269,46,27,25,315,43,30,65,257,49,1*76
$GAGSV,2,2,07,34,62,358,49,36,22,050,42,05,13,111,36,1*47
$GAGSV,2,1,07,02,37,170,45,15,40,269,48,27,25,315,45,30,65,257,51,2*72
$GAGSV,2,2,07,34,62,358,51,36,22,050,44,05,13,111,38,2*45
$GAGSV,2,1,07,02,37,170,44,15,40,269,44,27,25,315,41,30,65,257,47,7*79
$GAGSV,2,2,07,34,62,358,47,36,22,050,37,05,13,111,35,7*4E
$GNGGA,073515.00,3207.95428926,N,11841.73984455,E,1,28,0.6,8.0639,M,1.7757,M,,*4D
$GNRMC,073515.00,A,3207.95428926,N,11841.73984455,E,0.005,157.5,030424,6.1,W,A,C*57
#HEADINGA,COM3,9984,92.0,FINE,2308,286533.000,1428923,15,18;SOL_COMPUTED,NARROW_INT,1.9932,182.5735,0.0466,0.0000,0.1355,0.2667,"999",49,42,42,37,0,01,3,f3*4222c9f3
$GPGSV,2,1,08,03,32,045,44,06,52,285,45,14,44,177,46,17,65,044,47,1*63
$GPGSV,2,2,08,19,57,340,46,22,65,205,46,04,11,095,34,11,21,257,41,1*6C
$GPGSV,2,1,08,03,32,045,40,06,52,285,47,14,44,177,45,17,65,044,46,4*62
$GPGSV,2,2,08,19,57,340,44,22,65,205,44,04,11,095,21,11,21,257,42,4*6E
$GPGSV,2,1,05,03,32,045,47,06,52,285,51,14,44,177,48,04,11,095,31,8*63
$GPGSV,2,2,05,11,21,257,46,8*59
$GLGSV,2,1,08,74,45,246,45,73,22,198,42,75,27,314,49,69,34,112,49,1*79
$GLGSV,2,2,08,84,46,354,41,83,14,060,32,85,21,290,49,68,25,053,48,1*7B
$GLGSV,2,1,07,73,22,198,42,75,27,314,45,69,34,112,46,84,46,354,46,3*7A
$GLGSV,2,2,07,83,14,060,37,85,21,290,43,68,25,053,46,3*4E
$GBGSV,5,1,19,01,44,137,43,02,35,230,39,03,51,195,46,07,87,026,47,1*71
$GBGSV,5,2,19,08,56,208,42,10,73,315,45,12,39,305,45,13,42,212,44,1*76
$GBGSV,5,3,19,22,42,129,48,24,33,259,45,26,22,204,34,38,69,206,48,1*78
$GBGSV,5,4,19,40,73,071,48,59,45,144,45,60,34,236,44,04,33,120,41,1*7C
$GBGSV,5,5,19,19,30,061,43,44,56,332,48,34,14,288,40,1*4C
$GBGSV,5,1,19,01,44,137,43,02,35,230,39,03,51,195,46,07,87,026,47,8*78
$GBGSV,5,2,19,08,56,208,46,10,73,315,47,12,39,305,47,13,42,212,44,8*7B
$GBGSV,5,3,19,22,42,129,47,24,33,259,45,26,22,204,36,38,69,206,50,8*75
$GBGSV,5,4,19,40,73,071,50,59,45,144,47,60,34,236,43,04,33,120,40,8*78
$GBGSV,5,5,19,19,30,061,44,44,56,332,51,34,14,288,39,8*44
$GBGSV,3,1,09,01,44,137,46,02,35,230,45,03,51,195,48,07,87,026,49,B*0B
$GBGSV,3,2,09,08,56,208,49,10,73,315,48,12,39,305,50,13,42,212,45,B*01
$GBGSV,3,3,09,04,33,120,45,B*3A
$GAGSV,2,1,07,02,37,170,43,15,40,269,46,27,25,315,43,30,65,257,49,1*76
$GAGSV,2,2,07,34,62,358,49,36,22,050,42,05,13,111,36,1*47
$GAGSV,2,1,07,02,37,170,45,15,40,269,48,27,25,315,45,30,65,257,51,2*72
$GAGSV,2,2,07,34,62,358,51,36,22,050,44,05,13,111,39,2*44
$GAGSV,2,1,07,02,37,170,44,15,40,269,44,27,25,315,41,30,65,257,47,7*79
$GAGSV,2,2,07,34,62,358,48,36,22,050,38,05,13,111,35,7*4E
$GNGGA,073516.00,3207.95428853,N,11841.73984470,E,1,28,0.6,8.0627,M,1.7757,M,,*45
$GNRMC,073516.00,A,3207.95428853,N,11841.73984470,E,0.007,158.4,030424,6.1,W,A,C*5C
#HEADINGA,COM3,9984,91.0,FINE,2308,286534.000,1429922,16,18;SOL_COMPUTED,NARROW_INT,1.9932,182.6148,0.0468,0.0000,0.1354,0.2666,"999",49,42,42,37,0,01,3,f3*798fa60d
$GPGSV,2,1,08,03,32,045,44,06,52,285,46,14,44,177,43,17,65,044,47,1*65
$GPGSV,2,2,08,19,57,340,46,22,65,205,46,04,11,095,34,11,21,257,41,1*6C
$GPGSV,2,1,08,03,32,045,40,06,52,285,47,14,44,177,43,17,65,044,46,4*64
$GPGSV,2,2,08,19,57,340,44,22,65,205,44,04,11,095,20,11,21,257,42,4*6F
$GPGSV,2,1,05,03,32,045,47,06,52,285,51,14,44,177,46,04,11,095,30,8*6C
$GPGSV,2,2,05,11,21,257,45,8*5A
$GLGSV,2,1,08,74,45,246,45,73,22,198,44,75,27,314,49,69,34,112,49,1*7F
$GLGSV,2,2,08,84,46,354,41,83,14,060,31,85,21,290,49,68,25,053,49,1*79
$GLGSV,2,1,07,73,22,198,42,75,27,314,45,69,34,112,46,84,46,354,45,3*79
$GLGSV,2,2,07,83,14,060,38,85,21,290,43,68,25,053,47,3*40
$GBGSV,5,1,19,01,44,137,43,02,35,230,39,03,51,195,45,07,87,026,47,1*72
$GBGSV,5,2,19,08,56,208,43,10,73,315,45,12,39,305,45,13,42,212,44,1*77
$GBGSV,5,3,19,22,42,129,48,24,33,259,45,26,22,204,35,38,69,206,47,1*76
$GBGSV,5,4,19,40,73,071,48,59,45,144,46,60,34,236,44,04,33,120,41,1*7F
$GBGSV,5,5,19,19,30,061,43,44,56,332,48,34,14,288,40,1*4C
$GBGSV,5,1,19,01,44,137,43,02,35,230,39,03,51,195,45,07,87,026,47,8*7B
$GBGSV,5,2,19,08,56,208,47,10,73,315,47,12,39,305,47,13,42,212,44,8*7A
$GBGSV,5,3,19,22,42,129,48,24,33,259,45,26,22,204,37,38,69,206,50,8*7B
$GBGSV,5,4,19,40,73,071,50,59,45,144,48,60,34,236,44,04,33,120,40,8*70
$GBGSV,5,5,19,19,30,061,44,44,56,332,51,34,14,288,39,8*44
$GBGSV,3,1,09,01,44,137,46,02,35,230,44,03,51,195,47,07,87,026,49,B*05
$GBGSV,3,2,09,08,56,208,49,10,73,315,48,12,39,305,50,13,42,212,44,B*00
$GBGSV,3,3,09,04,33,120,45,B*3A
$GAGSV,2,1,07,02,37,170,41,15,40,269,46,27,25,315,42,30,65,257,49,1*75
$GAGSV,2,2,07,34,62,358,49,36,22,050,43,05,13,111,36,1*46
$GAGSV,2,1,07,02,37,170,43,15,40,269,48,27,25,315,45,30,65,257,51,2*74
$GAGSV,2,2,07,34,62,358,51,36,22,050,44,05,13,111,38,2*45
$GAGSV,2,1,07,02,37,170,42,15,40,269,45,27,25,315,41,30,65,257,47,7*7E
$GAGSV,2,2,07,34,62,358,48,36,22,050,38,05,13,111,35,7*4E
$GNGGA,073517.00,3207.95428782,N,11841.73984492,E,1,28,0.6,8.0610,M,1.7757,M,,*4F
$GNRMC,073517.00,A,3207.95428782,N,11841.73984492,E,0.007,151.7,030424,6.1,W,A,C*58
#HEADINGA,COM3,9984,89.0,FINE,2308,286535.000,1430922,16,18;SOL_COMPUTED,NARROW_INT,1.9932,182.6559,0.0471,0.0000,0.1356,0.2828,"999",49,40,40,35,0,01,3,f3*ed7a059a
$GPGSV,2,1,08,03,32,045,44,06,52,285,46,14,44,177,44,17,65,044,47,1*62
$GPGSV,2,2,08,19,57,340,46,22,65,205,46,04,11,095,34,11,21,257,41,1*6C
$GPGSV,2,1,08,03,32,045,40,06,52,285,47,14,44,177,43,17,65,044,46,4*64
$GPGSV,2,2,08,19,57,340,45,22,65,205,44,04,11,095,18,11,21,257,42,4*65
$GPGSV,2,1,05,03,32,045,47,06,52,285,51,14,44,177,46,04,11,095,31,8*6D
$GPGSV,2,2,05,11,21,257,45,8*5A
$GLGSV,2,1,08,74,45,246,44,73,22,198,42,75,27,314,48,69,34,112,50,1*71
$GLGSV,2,2,08,84,46,354,41,83,14,060,31,85,21,290,49,68,25,053,49,1*79
$GLGSV,2,1,07,73,22,198,40,75,27,314,45,69,34,112,46,84,46,354,45,3*7B
$GLGSV,2,2,07,83,14,060,38,85,21,290,43,68,25,053,47,3*40
$GBGSV,5,1,19,01,44,137,43,02,35,230,39,03,51,195,45,07,87,026,47,1*72
$GBGSV,5,2,19,08,56,208,43,10,73,315,45,12,39,305,45,13,42,212,44,1*77
$GBGSV,5,3,19,22,42,129,48,24,33,259,45,26,22,204,30,38,69,206,48,1*7C
$GBGSV,5,4,19,40,73,071,48,59,45,144,46,60,34,236,44,04,33,120,41,1*7F
$GBGSV,5,5,19,19,30,061,43,44,56,332,48,34,14,288,40,1*4C
$GBGSV,5,1,19,01,44,137,43,02,35,230,39,03,51,195,44,07,87,026,47,8*7A
$GBGSV,5,2,19,08,56,208,47,10,73,315,47,12,39,305,47,13,42,212,43,8*7D
$GBGSV,5,3,19,22,42,129,48,24,33,259,45,26,22,204,32,38,69,206,50,8*7E
$GBGSV,5,4,19,40,73,071,50,59,45,144,47,60,34,236,43,04,33,120,40,8*78
$GBGSV,5,5,19,19,30,061,45,44,56,332,51,34,14,288,39,8*45
$GBGSV,3,1,09,01,44,137,46,02,35,230,45,03,51,195,47,07,87,026,49,B*04
$GBGSV,3,2,09,08,56,208,49,10,73,315,48,12,39,305,50,13,42,212,44,B*00
$GBGSV,3,3,09,04,33,120,45,B*3A
$GAGSV,2,1,07,02,37,170,43,15,40,269,46,27,25,315,42,30,65,257,49,1*77
$GAGSV,2,2,07,34,62,358,49,36,22,050,43,05,13,111,36,1*46
$GAGSV,2,1,07,02,37,170,45,15,40,269,48,27,25,315,45,30,65,257,51,2*72
$GAGSV,2,2,07,34,62,358,51,36,22,050,44,05,13,111,38,2*45
$GAGSV,2,1,07,02,37,170,43,15,40,269,44,27,25,315,41,30,65,257,47,7*7E
$GAGSV,2,2,07,34,62,358,47,36,22,050,38,05,13,111,34,7*40
$GNGGA,073518.00,3207.95428731,N,11841.73984515,E,1,28,0.6,8.0596,M,1.7757,M,,*4B
$GNRMC,073518.00,A,3207.95428731,N,11841.73984515,E,0.006,145.8,030424,6.1,W,A,C*5A
#HEADINGA,COM3,9984,88.0,FINE,2308,286536.000,1431922,16,18;SOL_COMPUTED,NARROW_INT,1.9932,182.6969,0.0473,0.0000,0.1362,0.2712,"999",49,41,41,36,0,01,3,f3*befd31f7
$GPGSV,2,1,08,03,32,045,44,06,52,285,46,14,44,177,45,17,65,044,47,1*63
$GPGSV,2,2,08,19,57,340,46,22,65,205,46,04,11,095,35,11,21,257,41,1*6D
$GPGSV,2,1,08,03,32,045,40,06,52,285,47,14,44,177,45,17,65,044,46,4*62
$GPGSV,2,2,08,19,57,340,45,22,65,205,44,04,11,095,18,11,21,257,42,4*65
$GPGSV,2,1,05,03,32,045,47,06,52,285,51,14,44,177,48,04,11,095,30,8*62
$GPGSV,2,2,05,11,21,257,45,8*5A
$GLGSV,2,1,08,74,45,246,44,73,22,198,44,75,27,314,48,69,34,112,49,1*7F
$GLGSV,2,2,08,84,46,354,41,83,14,060,31,85,21,290,49,68,25,053,49,1*79
$GLGSV,2,1,07,73,22,198,42,75,27,314,46,69,34,112,46,84,46,354,45,3*7A
$GLGSV,2,2,07,83,14,060,38,85,21,290,43,68,25,053,47,3*40
$GBGSV,5,1,19,01,44,137,43,02,35,230,39,03,51,195,45,07,87,026,47,1*72
$GBGSV,5,2,19,08,56,208,43,10,73,315,45,12,39,305,45,13,42,212,44,1*77
$GBGSV,5,3,19,22,42,129,48,24,33,259,46,26,22,204,33,38,69,206,48,1*7C
$GBGSV,5,4,19,40,73,071,48,59,45,144,46,60,34,236,44,04,33,120,41,1*7F
$GBGSV,5,5,19,19,30,061,43,44,56,332,48,34,14,288,40,1*4C
$GBGSV,5,1,19,01,44,137,44,02,35,230,39,03,51,195,45,07,87,026,48,8*73
$GBGSV,5,2,19,08,56,208,47,10,73,315,47,12,39,305,47,13,42,212,44,8*7A
$GBGSV,5,3,19,22,42,129,48,24,33,259,45,26,22,204,34,38,69,206,50,8*78
$GBGSV,5,4,19,40,73,071,50,59,45,144,47,60,34,236,44,04,33,120,41,8*7E
$GBGSV,5,5,19,19,30,061,44,44,56,332,51,34,14,288,39,8*44
$GBGSV,3,1,09,01,44,137,46,02,35,230,45,03,51,195,48,07,87,026,49,B*0B
$GBGSV,3,2,09,08,56,208,49,10,73,315,48,12,39,305,50,13,42,212,45,B*01
$GBGSV,3,3,09,04,33,120,45,B*3A
$GAGSV,2,1,07,02,37,170,44,15,40,269,46,27,25,315,42,30,65,257,49,1*70
$GAGSV,2,2,07,34,62,358,49,36,22,050,43,05,13,111,36,1*46
$GAGSV,2,1,07,02,37,170,46,15,40,269,48,27,25,315,45,30,65,257,51,2*71
$GAGSV,2,2,07,34,62,358,51,36,22,050,44,05,13,111,38,2*45
$GAGSV,2,1,07,02,37,170,44,15,40,269,45,27,25,315,41,30,65,257,47,7*78
$GAGSV,2,2,07,34,62,358,48,36,22,050,38,05,13,111,35,7*4E
$GNGGA,073519.00,3207.95428680,N,11841.73984536,E,1,28,0.6,8.0584,M,1.7757,M,,*43
$GNRMC,073519.00,A,3207.95428680,N,11841.73984536,E,0.006,145.9,030424,6.1,W,A,C*50
#HEADINGA,COM3,9984,90.0,FINE,2308,286537.000,1432922,16,18;SOL_COMPUTED,NARROW_INT,1.9932,182.7379,0.0475,0.0000,0.1367,0.2717,"999",49,41,41,37,0,01,3,f3*7dc60432
$GPGSV,2,1,08,03,32,045,43,06,52,285,46,14,44,177,45,17,65,045,47,1*65
$GPGSV,2,2,08,19,57,340,46,22,65,205,46,04,11,095,34,11,21,257,41,1*6C
$GPGSV,2,1,08,03,32,045,40,06,52,285,47,14,44,177,44,17,65,045,46,4*62
$GPGSV,2,2,08,19,57,340,44,22,65,205,44,04,11,095,18,11,21,257,41,4*67
$GPGSV,2,1,05,03,32,045,47,06,52,285,51,14,44,177,48,04,11,095,29,8*6A
$GPGSV,2,2,05,11,21,257,45,8*5A
$GLGSV,2,1,08,74,45,246,44,73,22,198,44,75,27,314,47,69,34,112,49,1*70
$GLGSV,2,2,08,84,46,354,41,83,14,060,31,85,21,290,48,68,25,053,49,1*78
$GLGSV,2,1,07,73,22,198,42,75,27,314,46,69,34,112,46,84,46,354,45,3*7A
$GLGSV,2,2,07,83,14,060,38,85,21,290,43,68,25,053,47,3*40
$GBGSV,5,1,19,01,44,137,43,02,35,230,39,03,51,195,45,07,87,026,47,1*72
$GBGSV,5,2,19,08,56,208,43,10,73,315,45,12,39,305,45,13,42,212,43,1*70
$GBGSV,5,3,19,22,42,129,47,24,33,259,45,26,22,204,33,38,69,206,48,1*70
$GBGSV,5,4,19,40,73,071,48,59,45,144,46,60,34,236,44,04,33,120,41,1*7F
$GBGSV,5,5,19,19,30,061,43,44,56,332,48,34,14,288,40,1*4C
$GBGSV,5,1,19,01,44,137,43,02,35,230,40,03,51,195,45,07,87,026,48,8*7A
$GBGSV,5,2,19,08,56,208,47,10,73,315,47,12,39,305,47,13,42,212,44,8*7A
$GBGSV,5,3,19,22,42,129,48,24,33,259,45,26,22,204,35,38,69,206,50,8*79
$GBGSV,5,4,19,40,73,071,50,59,45,144,47,60,34,236,44,04,33,120,40,8*7F
$GBGSV,5,5,19,19,30,061,45,44,56,332,51,34,14,288,39,8*45
$GBGSV,3,1,09,01,44,137,46,02,35,230,45,03,51,195,47,07,87,026,49,B*04
$GBGSV,3,2,09,08,56,208,49,10,73,315,48,12,39,305,49,13,42,212,44,B*08
$GBGSV,3,3,09,04,33,120,45,B*3A
$GAGSV,2,1,07,02,37,170,44,15,40,269,46,27,25,315,42,30,65,257,49,1*70
$GAGSV,2,2,07,34,62,358,49,36,22,050,43,05,13,111,36,1*46
$GAGSV,2,1,07,02,37,170,46,15,40,269,48,27,25,315,45,30,65,257,51,2*71
$GAGSV,2,2,07,34,62,358,51,36,22,050,44,05,13,111,38,2*45
$GAGSV,2,1,07,02,37,170,45,15,40,269,44,27,25,315,41,30,65,257,47,7*78
$GAGSV,2,2,07,34,62,358,47,36,22,050,38,05,13,111,35,7*41
$GNGGA,073520.00,3207.95428619,N,11841.73984570,E,1,28,0.6,8.0574,M,1.7757,M,,*44
$GNRMC,073520.00,A,3207.95428619,N,11841.73984570,E,0.007,143.2,030424,6.1,W,A,C*54
#HEADINGA,COM3,9984,91.0,FINE,2308,286538.000,1433921,16,18;SOL_COMPUTED,NARROW_INT,1.9932,182.7788,0.0478,0.0000,0.1359,0.2707,"999",49,41,41,37,0,01,3,f3*27fb92db
$GPGSV,2,1,08,03,32,045,43,06,52,285,46,14,44,177,45,17,65,045,47,1*65
$GPGSV,2,2,08,19,57,340,46,22,65,205,46,04,11,095,34,11,21,257,41,1*6C
$GPGSV,2,1,08,03,32,045,41,06,52,285,47,14,44,177,44,17,65,045,46,4*63
$GPGSV,2,2,08,19,57,340,44,22,65,205,44,04,11,095,18,11,21,257,42,4*64
$GPGSV,2,1,05,03,32,045,47,06,52,285,51,14,44,177,48,04,11,095,30,8*62
$GPGSV,2,2,05,11,21,257,45,8*5A
$GLGSV,2,1,08,74,45,246,44,73,22,198,43,75,27,314,47,69,34,112,49,1*77
$GLGSV,2,2,08,84,46,354,41,83,14,060,31,85,21,290,49,68,25,053,49,1*79
$GLGSV,2,1,07,73,22,198,42,75,27,314,46,69,34,112,47,84,46,354,45,3*7B
$GLGSV,2,2,07,83,14,060,38,85,21,290,43,68,25,053,47,3*40
$GBGSV,5,1,19,01,44,137,43,02,35,230,39,03,51,195,45,07,87,026,47,1*72
$GBGSV,5,2,19,08,56,208,43,10,73,315,45,12,39,305,45,13,42,212,43,1*70
$GBGSV,5,3,19,22,42,129,47,24,33,259,45,26,22,204,35,38,69,206,48,1*76
$GBGSV,5,4,19,40,73,071,48,59,45,144,46,60,34,236,44,04,33,120,41,1*7F
$GBGSV,5,5,19,19,30,061,43,44,56,332,48,34,14,288,40,1*4C
$GBGSV,5,1,19,01,44,137,43,02,35,230,40,03,51,195,45,07,87,026,48,8*7A
$GBGSV,5,2,19,08,56,208,47,10,73,315,47,12,39,305,47,13,42,212,44,8*7A
$GBGSV,5,3,19,22,42,129,48,24,33,259,45,26,22,204,36,38,69,206,50,8*7A
$GBGSV,5,4,19,40,73,071,50,59,45,144,47,60,34,236,44,04,33,120,41,8*7E
$GBGSV,5,5,19,19,30,061,45,44,56,332,51,34,14,288,39,8*45
$GBGSV,3,1,09,01,44,137,46,02,35,230,45,03,51,195,48,07,87,026,49,B*0B
$GBGSV,3,2,09,08,56,208,49,10,73,315,48,12,39,305,49,13,42,212,44,B*08
$GBGSV,3,3,09,04,33,120,44,B*3B
$GAGSV,2,1,07,02,37,170,44,15,40,269,46,27,25,315,42,30,65,257,49,1*70
$GAGSV,2,2,07,34,62,358,49,36,22,050,43,05,13,111,36,1*46
$GAGSV,2,1,07,02,37,170,46,15,40,269,48,27,25,315,45,30,65,257,52,2*72
$GAGSV,2,2,07,34,62,358,52,36,22,050,44,05,13,111,39,2*47
$GAGSV,2,1,07,02,37,170,45,15,40,269,44,27,25,315,41,30,65,257,47,7*78
$GAGSV,2,2,07,34,62,358,47,36,22,050,38,05,13,111,35,7*41
$GNGGA,073521.00,3207.95428596,N,11841.73984621,E,1,28,0.6,8.0555,M,1.7757,M,,*45
$GNRMC,073521.00,A,3207.95428596,N,11841.73984621,E,0.006,138.3,030424,6.1,W,A,C*5A
#HEADINGA,COM3,9984,91.0,FINE,2308,286539.000,1434922,16,18;SOL_COMPUTED,NARROW_INT,1.9932,182.8195,0.0480,0.0000,0.1356,0.2702,"999",49,41,41,37,0,01,3,f3*4b8bbbe3
$GPGSV,2,1,08,03,32,045,43,06,52,285,46,14,44,177,45,17,65,045,47,1*65
$GPGSV,2,2,08,19,57,340,46,22,65,205,46,04,11,095,34,11,21,257,41,1*6C
$GPGSV,2,1,08,03,32,045,41,06,52,285,47,14,44,177,45,17,65,045,46,4*62
$GPGSV,2,2,08,19,57,340,44,22,65,205,44,04,11,095,19,11,21,257,42,4*65
$GPGSV,2,1,05,03,32,045,47,06,52,285,51,14,44,177,48,04,11,095,29,8*6A
$GPGSV,2,2,05,11,21,257,45,8*5A
$GLGSV,2,1,08,74,45,246,43,73,22,198,44,75,27,314,47,69,34,112,49,1*77
$GLGSV,2,2,08,84,46,354,42,83,14,060,31,85,21,290,49,68,25,053,49,1*7A
$GLGSV,2,1,07,73,22,198,41,75,27,314,46,69,34,112,47,84,46,354,45,3*78
$GLGSV,2,2,07,83,14,060,38,85,21,290,43,68,25,053,47,3*40
$GBGSV,5,1,19,01,44,137,43,02,35,230,40,03,51,195,45,07,87,026,47,1*7C
$GBGSV,5,2,19,08,56,208,43,10,73,315,45,12,39,305,45,13,42,212,44,1*77
$GBGSV,5,3,19,22,42,129,47,24,33,259,45,26,22,204,37,38,69,206,48,1*74
$GBGSV,5,4,19,40,73,071,48,59,45,144,46,60,34,236,44,04,33,120,41,1*7F
$GBGSV,5,5,19,19,30,061,42,44,56,332,48,34,14,288,40,1*4D
$GBGSV,5,1,19,01,44,137,43,02,35,230,40,03,51,195,45,07,87,026,48,8*7A
$GBGSV,5,2,19,08,56,208,47,10,73,315,47,12,39,305,47,13,42,212,43,8*7D
$GBGSV,5,3,19,22,42,129,48,24,33,259,45,26,22,204,37,38,69,206,50,8*7B
$GBGSV,5,4,19,40,73,071,50,59,45,144,47,60,34,236,44,04,33,120,40,8*7F
$GBGSV,5,5,19,19,30,061,45,44,56,332,51,34,14,288,39,8*45
$GBGSV,3,1,09,01,44,137,46,02,35,230,45,03,51,195,48,07,87,026,49,B*0B
$GBGSV,3,2,09,08,56,208,49,10,73,315,48,12,39,305,49,13,42,212,44,B*08
$GBGSV,3,3,09,04,33,120,44,B*3B
$GAGSV,2,1,07,02,37,170,44,15,40,269,46,27,25,315,42,30,65,257,49,1*70
$GAGSV,2,2,07,34,62,358,49,36,22,050,43,05,13,111,36,1*46
$GAGSV,2,1,07,02,37,170,46,15,40,269,48,27,25,315,45,30,65,257,51,2*71
$GAGSV,2,2,07,34,62,358,51,36,22,050,44,05,13,111,38,2*45
$GAGSV,2,1,07,02,37,170,44,15,40,269,44,27,25,315,41,30,65,257,47,7*79
$GAGSV,2,2,07,34,62,358,47,36,22,050,38,05,13,111,35,7*41
$GNGGA,073522.00,3207.95428571,N,11841.73984672,E,1,28,0.6,8.0534,M,1.7757,M,,*4E
$GNRMC,073522.00,A,3207.95428571,N,11841.73984672,E,0.006,137.1,030424,6.1,W,A,C*5B
#HEADINGA,COM3,9984,92.0,FINE,2308,286540.000,1435922,16,18;SOL_COMPUTED,NARROW_INT,1.9932,182.8602,0.0483,0.0000,0.1357,0.2704,"999",49,41,41,37,0,01,3,f3*70153019
$GPGSV,2,1,08,03,32,045,43,06,52,285,46,14,44,177,45,17,65,045,47,1*65
$GPGSV,2,2,08,19,57,340,46,22,65,205,46,04,11,095,34,11,21,257,41,1*6C
$GPGSV,2,1,08,03,32,045,41,06,52,285,47,14,44,177,44,17,65,045,46,4*63
$GPGSV,2,2,08,19,57,340,44,22,65,205,44,04,11,095,19,11,21,257,42,4*65
$GPGSV,2,1,05,03,32,045,47,06,52,285,51,14,44,177,48,04,11,095,29,8*6A
$GPGSV,2,2,05,11,21,257,45,8*5A
$GLGSV,2,1,08,74,45,246,44,73,22,198,44,75,27,314,47,69,34,111,49,1*73
$GLGSV,2,2,08,84,46,354,42,83,14,060,31,85,21,290,49,68,25,053,49,1*7A
$GLGSV,2,1,07,73,22,198,41,75,27,314,46,69,34,111,47,84,46,354,45,3*7B
$GLGSV,2,2,07,83,14,060,38,85,21,290,44,68,25,053,47,3*47
$GBGSV,5,1,19,01,44,137,43,02,35,230,40,03,51,195,45,07,87,026,47,1*7C
$GBGSV,5,2,19,08,56,208,43,10,73,315,45,12,39,305,45,13,42,212,44,1*77
$GBGSV,5,3,19,22,42,129,48,24,33,259,45,26,22,204,36,38,69,206,48,1*7A
$GBGSV,5,4,19,40,73,071,48,59,45,144,46,60,34,236,45,04,33,120,41,1*7E
$GBGSV,5,5,19,19,30,061,43,44,56,332,48,34,14,288,40,1*4C
$GBGSV,5,1,19,01,44,137,44,02,35,230,40,03,51,195,45,07,87,026,48,8*7D
$GBGSV,5,2,19,08,56,208,47,10,73,315,47,12,39,305,47,13,42,212,43,8*7D
$GBGSV,5,3,19,22,42,129,48,24,33,259,45,26,22,204,37,38,69,206,50,8*7B
$GBGSV,5,4,19,40,73,071,51,59,45,144,47,60,34,236,44,04,33,120,40,8*7E
$GBGSV,5,5,19,19,30,061,45,44,56,332,51,34,14,288,39,8*45
$GBGSV,3,1,09,01,44,137,46,02,35,230,45,03,51,195,48,07,87,026,49,B*0B
$GBGSV,3,2,09,08,56,208,49,10,73,315,48,12,39,305,49,13,42,212,44,B*08
$GBGSV,3,3,09,04,33,120,44,B*3B
$GAGSV,2,1,07,02,37,170,44,15,40,269,46,27,25,315,42,30,65,257,49,1*70
$GAGSV,2,2,07,34,62,358,49,36,22,050,43,05,13,111,36,1*46
$GAGSV,2,1,07,02,37,170,46,15,40,269,48,27,25,315,45,30,65,257,51,2*71
$GAGSV,2,2,07,34,62,358,51,36,22,050,44,05,13,111,38,2*45
$GAGSV,2,1,07,02,37,170,44,15,40,269,44,27,25,315,41,30,65,257,47,7*79
$GAGSV,2,2,07,34,62,358,47,36,22,050,38,05,13,111,35,7*41
$GNGGA,073523.00,3207.95428552,N,11841.73984717,E,1,28,0.6,8.0514,M,1.7757,M,,*4E
$GNRMC,073523.00,A,3207.95428552,N,11841.73984717,E,0.006,136.1,030424,6.1,W,A,C*58
#HEADINGA,COM3,9984,92.0,FINE,2308,286541.000,1436922,16,18;SOL_COMPUTED,NARROW_INT,1.9932,182.9008,0.0485,0.0000,0.1354,0.2701,"999",49,41,41,37,0,01,3,f3*ce1a2106
$GPGSV,2,1,08,03,32,045,43,06,52,285,46,14,44,177,45,17,65,045,47,1*65
$GPGSV,2,2,08,19,57,340,46,22,65,205,46,04,11,095,34,11,21,257,41,1*6C
$GPGSV,2,1,08,03,32,045,41,06,52,285,47,14,44,177,45,17,65,045,46,4*62
$GPGSV,2,2,08,19,57,340,44,22,65,205,44,04,11,095,22,11,21,257,42,4*6D
$GPGSV,2,1,05,03,32,045,47,06,52,285,51,14,44,177,48,04,11,095,30,8*62
$GPGSV,2,2,05,11,21,257,45,8*5A
$GLGSV,2,1,08,74,45,246,43,73,22,198,44,75,27,314,47,69,34,111,48,1*75
$GLGSV,2,2,08,84,46,354,42,83,14,060,32,85,21,290,49,68,25,053,49,1*79
$GLGSV,2,1,07,73,22,198,41,75,27,314,46,69,34,111,47,84,46,354,45,3*7B
$GLGSV,2,2,07,83,14,060,37,85,21,290,43,68,25,053,47,3*4F
$GBGSV,5,1,19,01,44,137,43,02,35,230,40,03,51,195,45,07,87,026,47,1*7C
$GBGSV,5,2,19,08,56,208,43,10,73,315,45,12,39,305,45,13,42,212,44,1*77
$GBGSV,5,3,19,22,42,129,48,24,33,259,46,26,22,204,36,38,69,206,48,1*79
$GBGSV,5,4,19,40,73,071,48,59,45,144,46,60,34,236,45,04,33,120,40,1*7F
$GBGSV,5,5,19,19,30,061,43,44,56,332,48,34,14,288,40,1*4C
$GBGSV,5,1,19,01,44,137,44,02,35,230,40,03,51,195,45,07,87,026,48,8*7D
$GBGSV,5,2,19,08,56,208,47,10,73,315,47,12,39,305,47,13,42,212,43,8*7D
$GBGSV,5,3,19,22,42,129,48,24,33,259,45,26,22,204,37,38,69,206,50,8*7B
$GBGSV,5,4,19,40,73,071,51,59,45,144,47,60,34,236,44,04,33,120,41,8*7F
$GBGSV,5,5,19,19,30,061,45,44,56,332,51,34,14,288,39,8*45
$GBGSV,3,1,09,01,44,137,46,02,35,230,45,03,51,195,48,07,87,026,50,B*03
$GBGSV,3,2,09,08,56,208,49,10,73,315,48,12,39,305,49,13,42,212,44,B*08
$GBGSV,3,3,09,04,33,120,44,B*3B
$GAGSV,2,1,07,02,37,170,44,15,40,269,46,27,25,315,42,30,65,257,49,1*70
$GAGSV,2,2,07,34,62,358,49,36,22,050,43,05,13,111,37,1*47
$GAGSV,2,1,07,02,37,170,46,15,40,269,48,27,25,315,45,30,65,257,51,2*71
$GAGSV,2,2,07,34,62,358,51,36,22,050,44,05,13,111,39,2*44
$GAGSV,2,1,07,02,37,170,44,15,40,269,44,27,25,315,41,30,65,257,47,7*79
$GAGSV,2,2,07,34,62,358,47,36,22,050,38,05,13,111,35,7*41
$GNGGA,073524.00,3207.95428521,N,11841.73984765,E,1,28,0.6,8.0495,M,1.7757,M,,*40
$GNRMC,073524.00,A,3207.95428521,N,11841.73984765,E,0.006,138.9,030424,6.1,W,A,C*58
#HEADINGA,COM3,9984,92.0,FINE,2308,286542.000,1437922,16,18;SOL_COMPUTED,NARROW_INT,1.9932,182.9413,0.0487,0.0000,0.1354,0.2661,"999",49,42,42,38,0,01,3,f3*4b0cb62b
$GPGSV,2,1,08,03,32,045,43,06,52,285,46,14,44,177,45,17,65,045,47,1*65
$GPGSV,2,2,08,19,57,340,46,22,65,205,46,04,11,095,33,11,21,257,41,1*6B
$GPGSV,2,1,08,03,32,045,41,06,52,285,47,14,44,177,45,17,65,045,46,4*62
$GPGSV,2,2,08,19,57,340,44,22,65,205,44,04,11,095,24,11,21,257,42,4*6B
$GPGSV,2,1,05,03,32,045,47,06,52,285,51,14,44,177,48,04,11,095,30,8*62
$GPGSV,2,2,05,11,21,257,45,8*5A
$GLGSV,2,1,08,74,45,246,43,73,22,198,43,75,27,314,47,69,34,111,48,1*72
$GLGSV,2,2,08,84,46,354,42,83,14,060,32,85,21,290,49,68,25,053,49,1*79
$GLGSV,2,1,07,73,22,198,41,75,27,314,46,69,34,111,47,84,46,354,45,3*7B
$GLGSV,2,2,07,83,14,060,37,85,21,290,43,68,25,053,47,3*4F
$GBGSV,5,1,19,01,44,137,43,02,35,230,39,03,51,195,45,07,87,026,47,1*72
$GBGSV,5,2,19,08,56,208,43,10,73,315,45,12,39,305,45,13,42,212,43,1*70
$GBGSV,5,3,19,22,42,129,48,24,33,259,45,26,22,204,35,38,69,206,48,1*79
$GBGSV,5,4,19,40,73,071,48,59,45,144,46,60,34,236,44,04,33,120,40,1*7E
$GBGSV,5,5,19,19,30,061,43,44,56,332,48,34,14,288,40,1*4C
$GBGSV,5,1,19,01,44,137,44,02,35,230,40,03,51,195,45,07,87,026,48,8*7D
$GBGSV,5,2,19,08,56,208,47,10,73,315,47,12,39,305,47,13,42,212,44,8*7A
$GBGSV,5,3,19,22,42,129,48,24,33,259,45,26,22,204,36,38,69,206,50,8*7A
$GBGSV,5,4,19,40,73,071,51,59,45,144,47,60,34,236,44,04,33,120,41,8*7F
$GBGSV,5,5,19,19,30,061,45,44,56,332,51,34,14,288,39,8*45
$GBGSV,3,1,09,01,44,137,46,02,35,230,45,03,51,195,48,07,87,026,49,B*0B
$GBGSV,3,2,09,08,56,208,49,10,73,315,48,12,39,305,49,13,42,212,44,B*08
$GBGSV,3,3,09,04,33,120,44,B*3B
$GAGSV,2,1,07,02,37,170,44,15,40,269,46,27,25,315,43,30,65,257,49,1*71
$GAGSV,2,2,07,34,62,358,49,36,22,050,43,05,13,111,37,1*47
$GAGSV,2,1,07,02,37,170,46,15,40,269,48,27,25,315,45,30,65,257,52,2*72
$GAGSV,2,2,07,34,62,358,52,36,22,050,44,05,13,111,39,2*47
$GAGSV,2,1,07,02,37,170,45,15,40,269,44,27,25,315,41,30,65,257,47,7*78
$GAGSV,2,2,07,34,62,358,47,36,22,050,38,05,13,111,35,7*41
$GNGGA,073525.00,3207.95428489,N,11841.73984810,E,1,28,0.6,8.0475,M,1.7757,M,,*41
$GNRMC,073525.00,A,3207.95428489,N,11841.73984810,E,0.006,139.3,030424,6.1,W,A,C*5C
#HEADINGA,COM3,9984,89.0,FINE,2308,286543.000,1438922,16,18;SOL_COMPUTED,NARROW_INT,1.9932,182.9818,0.0490,0.0000,0.1356,0.2663,"999",49,42,42,38,0,01,3,f3*96a2e413
$GPGSV,2,1,08,03,32,045,43,06,52,285,46,14,44,177,45,17,65,045,47,1*65
$GPGSV,2,2,08,19,57,340,46,22,65,205,46,04,11,095,33,11,21,257,41,1*6B
$GPGSV,2,1,08,03,32,045,41,06,52,285,47,14,44,177,44,17,65,045,46,4*63
$GPGSV,2,2,08,19,57,340,44,22,65,205,44,04,11,095,26,11,21,257,41,4*6A
$GPGSV,2,1,05,03,32,045,47,06,52,285,51,14,44,177,48,04,11,095,30,8*62
$GPGSV,2,2,05,11,21,257,45,8*5A
$GLGSV,2,1,08,74,45,246,43,73,22,198,43,75,27,314,47,69,34,111,48,1*72
$GLGSV,2,2,08,84,46,354,43,83,14,060,32,85,21,290,50,68,25,053,49,1*70
$GLGSV,2,1,07,73,22,198,41,75,27,314,46,69,34,111,47,84,46,354,45,3*7B
$GLGSV,2,2,07,83,14,060,37,85,21,290,43,68,25,053,47,3*4F
$GBGSV,5,1,19,01,44,137,43,02,35,230,39,03,51,195,45,07,87,026,47,1*72
$GBGSV,5,2,19,08,56,208,43,10,73,315,45,12,39,305,45,13,42,212,43,1*70
$GBGSV,5,3,19,22,42,129,47,24,33,259,45,26,22,204,34,38,69,206,48,1*77
$GBGSV,5,4,19,40,73,071,48,59,45,144,46,60,34,236,45,04,33,120,40,1*7F
$GBGSV,5,5,19,19,30,061,42,44,56,332,48,34,14,288,39,1*43
$GBGSV,5,1,19,01,44,137,43,02,35,230,39,03,51,195,45,07,87,026,48,8*74
$GBGSV,5,2,19,08,56,208,47,10,73,315,47,12,39,305,48,13,42,212,44,8*75
$GBGSV,5,3,19,22,42,129,49,24,33,259,45,26,22,204,35,38,69,206,50,8*78
$GBGSV,5,4,19,40,73,071,51,59,45,144,47,60,34,236,44,04,33,120,41,8*7F
$GBGSV,5,5,19,19,30,061,45,44,56,332,51,34,14,288,39,8*45
$GBGSV,3,1,09,01,44,137,46,02,35,230,45,03,51,195,47,07,87,026,49,B*04
$GBGSV,3,2,09,08,56,208,49,10,73,315,48,12,39,305,49,13,42,212,44,B*08
$GBGSV,3,3,09,04,33,120,44,B*3B
$GAGSV,2,1,07,02,36,170,44,15,40,269,46,27,25,315,43,30,65,257,49,1*70
$GAGSV,2,2,07,34,62,358,49,36,22,050,43,05,13,111,37,1*47
$GAGSV,2,1,07,02,36,170,46,15,40,269,48,27,25,315,45,30,65,257,51,2*70
$GAGSV,2,2,07,34,62,358,51,36,22,050,44,05,13,111,39,2*44
$GAGSV,2,1,07,02,36,170,44,15,40,269,44,27,25,315,41,30,65,257,47,7*78
$GAGSV,2,2,07,34,62,358,47,36,22,050,38,05,13,111,35,7*41
$GNGGA,073526.00,3207.95428464,N,11841.73984861,E,1,28,0.6,8.0458,M,1.7757,M,,*48
$GNRMC,073526.00,A,3207.95428464,N,11841.73984861,E,0.006,133.1,030424,6.1,W,A,C*52
#HEADINGA,COM3,9984,88.0,FINE,2308,286544.000,1439921,16,18;SOL_COMPUTED,NARROW_INT,1.9932,183.0221,0.0492,0.0000,0.1360,0.2669,"999",49,42,42,38,0,01,3,f3*8f51557f
$GPGSV,2,1,08,03,32,045,43,06,52,285,46,14,44,177,45,17,65,045,47,1*65
$GPGSV,2,2,08,19,57,340,45,22,65,205,46,04,11,095,32,11,21,257,41,1*69
$GPGSV,2,1,08,03,32,045,40,06,52,285,47,14,44,177,44,17,65,045,46,4*62
$GPGSV,2,2,08,19,57,340,44,22,65,205,44,04,11,095,25,11,21,257,42,4*6A
$GPGSV,2,1,05,03,32,045,47,06,52,285,51,14,44,177,48,04,11,095,31,8*63
$GPGSV,2,2,05,11,21,257,45,8*5A
$GLGSV,2,1,08,74,45,246,43,73,22,198,43,75,27,314,46,69,34,111,48,1*73
$GLGSV,2,2,08,84,46,354,42,83,14,060,32,85,21,290,50,68,25,053,48,1*70
$GLGSV,2,1,07,73,22,198,41,75,27,314,46,69,34,111,48,84,46,354,45,3*74
$GLGSV,2,2,07,83,14,060,39,85,21,290,43,68,25,053,47,3*41
$GBGSV,5,1,19,01,44,137,43,02,35,230,39,03,51,195,45,07,87,026,47,1*72
$GBGSV,5,2,19,08,56,208,43,10,73,315,45,12,39,305,45,13,42,212,43,1*70
$GBGSV,5,3,19,22,42,129,47,24,33,259,45,26,21,204,34,38,69,206,48,1*74
$GBGSV,5,4,19,40,73,071,47,59,45,144,46,60,34,236,45,04,33,120,40,1*70
$GBGSV,5,5,19,19,30,061,42,44,56,332,48,34,14,288,39,1*43
$GBGSV,5,1,19,01,44,137,44,02,35,230,40,03,51,195,45,07,87,026,48,8*7D
$GBGSV,5,2,19,08,56,208,47,10,73,315,47,12,39,305,48,13,42,212,44,8*75
$GBGSV,5,3,19,22,42,129,49,24,33,259,45,26,21,204,35,38,69,206,50,8*7B
$GBGSV,5,4,19,40,73,071,51,59,45,144,47,60,34,236,44,04,33,120,40,8*7E
$GBGSV,5,5,19,19,30,061,45,44,56,332,51,34,14,288,39,8*45
$GBGSV,3,1,09,01,44,137,46,02,35,230,45,03,51,195,47,07,87,026,49,B*04
$GBGSV,3,2,09,08,56,208,49,10,73,315,48,12,39,305,49,13,42,212,44,B*08
$GBGSV,3,3,09,04,33,120,44,B*3B
$GAGSV,2,1,07,02,36,170,44,15,40,269,46,27,25,315,42,30,65,257,49,1*71
$GAGSV,2,2,07,34,62,358,49,36,22,050,42,05,13,111,37,1*46
$GAGSV,2,1,07,02,36,170,46,15,40,269,48,27,25,315,45,30,65,257,51,2*70
$GAGSV,2,2,07,34,62,358,51,36,22,050,44,05,13,111,39,2*44
$GAGSV,2,1,07,02,36,170,44,15,40,269,44,27,25,315,40,30,65,257,47,7*79
$GAGSV,2,2,07,34,62,358,47,36,22,050,38,05,13,111,34,7*40
$GNGGA,073527.00,3207.95428434,N,11841.73984904,E,1,28,0.6,8.0441,M,1.7757,M,,*46
$GNRMC,073527.00,A,3207.95428434,N,11841.73984904,E,0.006,137.7,030424,6.1,W,A,C*56
#HEADINGA,COM3,9984,90.0,FINE,2308,286545.000,1440922,16,18;SOL_COMPUTED,NARROW_INT,1.9932,183.0623,0.0495,0.0000,0.1359,0.2664,"999",49,42,42,38,0,01,3,f3*96f87157
$GPGSV,2,1,08,03,32,045,42,06,52,285,46,14,44,177,45,17,65,045,47,1*64
$GPGSV,2,2,08,19,57,340,46,22,65,205,46,04,11,095,33,11,21,257,41,1*6B
$GPGSV,2,1,08,03,32,045,41,06,52,285,47,14,44,177,44,17,65,045,46,4*63
$GPGSV,2,2,08,19,57,340,44,22,65,205,44,04,11,095,26,11,21,257,42,4*69
$GPGSV,2,1,05,03,32,045,47,06,52,285,51,14,44,177,48,04,11,095,31,8*63
$GPGSV,2,2,05,11,21,257,45,8*5A
$GLGSV,2,1,08,74,45,246,43,73,22,198,44,75,27,314,47,69,34,111,49,1*74
$GLGSV,2,2,08,84,46,354,42,83,14,060,31,85,21,290,50,68,25,053,48,1*73
$GLGSV,2,1,07,73,22,198,41,75,27,314,46,69,34,111,47,84,46,354,45,3*7B
$GLGSV,2,2,07,83,14,060,39,85,21,290,43,68,25,053,47,3*41
$GBGSV,5,1,19,01,44,137,44,02,35,230,39,03,51,195,45,07,87,026,47,1*75
$GBGSV,5,2,19,08,56,208,43,10,73,315,45,12,39,305,45,13,42,212,43,1*70
$GBGSV,5,3,19,22,42,129,47,24,33,259,45,26,21,204,34,38,69,206,48,1*74
$GBGSV,5,4,19,40,73,071,47,59,45,144,46,60,34,236,45,04,33,120,40,1*70
$GBGSV,5,5,19,19,30,061,42,44,56,332,48,34,14,288,39,1*43
$GBGSV,5,1,19,01,44,137,44,02,35,230,39,03,51,195,45,07,87,026,48,8*73
$GBGSV,5,2,19,08,56,208,47,10,73,315,47,12,39,305,48,13,42,212,44,8*75
$GBGSV,5,3,19,22,42,129,49,24,33,259,45,26,21,204,35,38,69,206,50,8*7B
$GBGSV,5,4,19,40,73,071,51,59,45,144,48,60,34,236,44,04,33,120,40,8*71
$GBGSV,5,5,19,19,30,061,45,44,56,332,51,34,14,288,39,8*45
$GBGSV,3,1,09,01,44,137,46,02,35,230,45,03,51,195,48,07,87,026,49,B*0B
$GBGSV,3,2,09,08,56,208,49,10,73,315,48,12,39,305,49,13,42,212,44,B*08
$GBGSV,3,3,09,04,33,120,44,B*3B
$GAGSV,2,1,07,02,36,170,44,15,40,269,46,27,25,315,43,30,65,257,49,1*70
$GAGSV,2,2,07,34,62,358,49,36,22,050,42,05,13,111,37,1*46
$GAGSV,2,1,07,02,36,170,46,15,40,269,48,27,25,315,45,30,65,257,51,2*70
$GAGSV,2,2,07,34,62,358,52,36,22,050,44,05,13,111,39,2*47
$GAGSV,2,1,07,02,36,170,44,15,40,269,44,27,25,315,40,30,65,257,47,7*79
$GAGSV,2,2,07,34,62,358,47,36,22,050,38,05,13,111,35,7*41
$GNGGA,073528.00,3207.95428426,N,11841.73984895,E,1,28,0.6,8.0422,M,1.7757,M,,*46
$GNRMC,073528.00,A,3207.95428426,N,11841.73984895,E,0.006,131.8,030424,6.1,W,A,C*5A
#HEADINGA,COM3,9984,91.0,FINE,2308,286546.000,1441922,16,18;SOL_COMPUTED,NARROW_INT,1.9932,183.1025,0.0497,0.0000,0.1362,0.2671,"999",49,42,42,38,0,01,3,f3*79a91673
$GPGSV,2,1,08,03,32,045,42,06,52,285,46,14,44,177,45,17,65,045,47,1*64
$GPGSV,2,2,08,19,57,340,45,22,65,205,45,04,11,095,32,11,21,257,41,1*6A
$GPGSV,2,1,08,03,32,045,41,06,52,285,47,14,44,177,45,17,65,045,46,4*62
$GPGSV,2,2,08,19,57,340,44,22,65,205,44,04,11,095,29,11,21,257,42,4*66
$GPGSV,2,1,05,03,32,045,47,06,52,285,51,14,44,177,48,04,11,095,31,8*63
$GPGSV,2,2,05,11,21,257,45,8*5A
$GLGSV,2,1,08,74,45,246,43,73,22,198,44,75,27,314,47,69,34,111,49,1*74
$GLGSV,2,2,08,84,46,354,42,83,14,060,31,85,21,290,50,68,25,053,48,1*73
$GLGSV,2,1,07,73,22,198,42,75,27,314,46,69,34,111,48,84,46,354,45,3*77
$GLGSV,2,2,07,83,14,060,39,85,21,290,43,68,25,053,47,3*41
$GBGSV,5,1,19,01,44,137,43,02,35,230,39,03,51,195,44,07,87,026,47,1*73
$GBGSV,5,2,19,08,56,208,43,10,73,315,44,12,39,305,45,13,42,212,43,1*71
$GBGSV,5,3,19,22,42,129,47,24,33,259,45,26,21,204,34,38,69,206,48,1*74
$GBGSV,5,4,19,40,73,071,47,59,45,144,45,60,34,236,44,04,33,120,40,1*72
$GBGSV,5,5,19,19,30,061,42,44,56,332,48,34,14,288,39,1*43
$GBGSV,5,1,19,01,44,137,43,02,35,230,39,03,51,195,46,07,87,026,48,8*77
$GBGSV,5,2,19,08,56,208,47,10,73,315,47,12,39,305,48,13,42,212,44,8*75
$GBGSV,5,3,19,22,42,129,49,24,33,259,45,26,21,204,36,38,69,206,50,8*78
$GBGSV,5,4,19,40,73,071,51,59,45,144,48,60,34,236,44,04,33,120,40,8*71
$GBGSV,5,5,19,19,30,061,45,44,56,332,51,34,14,288,39,8*45
$GBGSV,3,1,09,01,44,137,46,02,35,230,45,03,51,195,48,07,87,026,49,B*0B
$GBGSV,3,2,09,08,56,208,49,10,73,315,48,12,39,305,49,13,42,212,44,B*08
$GBGSV,3,3,09,04,33,120,45,B*3A
$GAGSV,2,1,07,02,36,170,44,15,40,269,46,27,25,315,42,30,65,257,49,1*71
$GAGSV,2,2,07,34,62,358,49,36,22,050,42,05,13,111,37,1*46
$GAGSV,2,1,07,02,36,170,46,15,40,269,48,27,25,315,45,30,65,257,51,2*70
$GAGSV,2,2,07,34,62,358,51,36,22,050,44,05,13,111,39,2*44
$GAGSV,2,1,07,02,36,170,44,15,40,269,44,27,25,315,40,30,65,257,47,7*79
$GAGSV,2,2,07,34,62,358,46,36,22,050,38,05,13,111,35,7*40
$GNGGA,073529.00,3207.95428420,N,11841.73984879,E,1,28,0.6,8.0404,M,1.7757,M,,*47
$GNRMC,073529.00,A,3207.95428420,N,11841.73984879,E,0.005,133.8,030424,6.1,W,A,C*5E
#HEADINGA,COM3,9984,91.0,FINE,2308,286547.000,1442921,16,18;SOL_COMPUTED,NARROW_INT,1.9932,183.1426,0.0499,0.0000,0.1358,0.2662,"999",49,42,42,38,0,01,3,f3*f3630e5c
$GPGSV,2,1,08,03,32,045,42,06,52,285,46,14,44,177,45,17,65,045,47,1*64
$GPGSV,2,2,08,19,57,340,45,22,65,205,45,04,11,095,34,11,21,257,41,1*6C
$GPGSV,2,1,08,03,32,045,41,06,52,285,47,14,44,177,45,17,65,045,46,4*62
$GPGSV,2,2,08,19,57,340,44,22,65,205,44,04,11,095,27,11,21,257,42,4*68
$GPGSV,2,1,05,03,32,045,47,06,52,285,51,14,44,177,48,04,11,095,31,8*63
$GPGSV,2,2,05,11,21,257,45,8*5A
$GLGSV,2,1,08,74,45,246,43,73,22,198,45,75,27,314,48,69,34,111,49,1*7A
$GLGSV,2,2,08,84,46,354,43,83,14,060,31,85,21,290,50,68,25,053,48,1*72
$GLGSV,2,1,07,73,22,198,42,75,27,314,47,69,34,111,47,84,46,354,45,3*79
$GLGSV,2,2,07,83,14,060,39,85,21,290,43,68,25,053,47,3*41
$GBGSV,5,1,19,01,44,137,43,02,35,230,39,03,51,195,45,07,87,026,47,1*72
$GBGSV,5,2,19,08,56,208,43,10,73,315,44,12,39,305,45,13,42,212,43,1*71
$GBGSV,5,3,19,22,42,129,47,24,33,259,45,26,21,204,34,38,69,206,48,1*74
$GBGSV,5,4,19,40,73,071,47,59,45,144,45,60,34,236,44,04,33,120,40,1*72
$GBGSV,5,5,19,19,30,061,42,44,56,332,48,34,14,288,39,1*43
$GBGSV,5,1,19,01,44,137,43,02,35,230,39,03,51,195,46,07,87,026,48,8*77
$GBGSV,5,2,19,08,56,208,47,10,73,315,47,12,39,305,48,13,42,212,44,8*75
$GBGSV,5,3,19,22,42,129,49,24,33,259,45,26,21,204,36,38,69,206,50,8*78
$GBGSV,5,4,19,40,73,071,51,59,45,144,47,60,34,236,44,04,33,120,40,8*7E
$GBGSV,5,5,19,19,30,061,45,44,56,332,51,34,14,288,39,8*45
$GBGSV,3,1,09,01,44,137,46,02,35,230,45,03,51,195,48,07,87,026,49,B*0B
$GBGSV,3,2,09,08,56,208,49,10,73,315,48,12,39,305,49,13,42,212,44,B*08
$GBGSV,3,3,09,04,33,120,44,B*3B
$GAGSV,2,1,07,02,36,170,44,15,40,269,46,27,25,315,43,30,65,257,49,1*70
$GAGSV,2,2,07,34,62,358,49,36,22,050,42,05,13,111,37,1*46
$GAGSV,2,1,07,02,36,170,46,15,40,269,48,27,25,315,46,30,65,257,51,2*73
$GAGSV,2,2,07,34,62,358,51,36,22,050,44,05,13,111,39,2*44
$GAGSV,2,1,07,02,36,170,44,15,40,269,44,27,25,315,40,30,65,257,47,7*79
$GAGSV,2,2,07,34,62,358,47,36,22,050,37,05,13,111,36,7*4D
$GNGGA,073530.00,3207.95428411,N,11841.73984864,E,1,28,0.6,8.0384,M,1.7757,M,,*4E
$GNRMC,073530.00,A,3207.95428411,N,11841.73984864,E,0.006,133.7,030424,6.1,W,A,C*54
#HEADINGA,COM3,9984,89.0,FINE,2308,286548.000,1443922,16,18;SOL_COMPUTED,NARROW_INT,1.9932,183.1825,0.0502,0.0000,0.1358,0.2664,"999",49,42,42,38,0,01,3,f3*679d2e54
$GPGSV,2,1,08,03,32,045,42,06,52,285,46,14,44,177,45,17,65,045,47,1*64
$GPGSV,2,2,08,19,57,340,45,22,65,205,45,04,11,095,34,11,21,257,41,1*6C
$GPGSV,2,1,08,03,32,045,41,06,52,285,47,14,44,177,45,17,65,045,46,4*62
$GPGSV,2,2,08,19,57,340,44,22,65,205,44,04,11,095,27,11,21,257,42,4*68
$GPGSV,2,1,05,03,32,045,47,06,52,285,51,14,44,177,48,04,11,095,31,8*63
$GPGSV,2,2,05,11,21,257,45,8*5A
$GLGSV,2,1,08,74,45,246,43,73,22,198,45,75,27,314,48,69,34,111,49,1*7A
$GLGSV,2,2,08,84,46,354,43,83,14,060,32,85,21,290,50,68,25,053,48,1*71
$GLGSV,2,1,07,73,22,198,42,75,27,314,47,69,34,111,48,84,46,354,45,3*76
$GLGSV,2,2,07,83,14,060,40,85,21,290,43,68,25,053,47,3*4F
$GBGSV,5,1,19,01,44,137,43,02,35,230,39,03,51,195,45,07,87,026,47,1*72
$GBGSV,5,2,19,08,56,208,43,10,73,315,44,12,39,305,45,13,42,212,43,1*71
$GBGSV,5,3,19,22,42,129,47,24,33,259,45,26,21,204,33,38,69,206,47,1*7C
$GBGSV,5,4,19,40,73,071,47,59,45,144,45,60,34,236,44,04,33,120,40,1*72
$GBGSV,5,5,19,19,30,061,42,44,56,332,48,34,14,288,39,1*43
$GBGSV,5,1,19,01,44,137,44,02,35,230,40,03,51,195,46,07,87,026,48,8*7E
$GBGSV,5,2,19,08,56,208,47,10,73,315,47,12,39,305,48,13,42,212,44,8*75
$GBGSV,5,3,19,22,42,129,49,24,33,259,45,26,21,204,36,38,69,206,50,8*78
$GBGSV,5,4,19,40,73,071,51,59,45,144,47,60,34,236,44,04,33,120,40,8*7E
$GBGSV,5,5,19,19,30,061,45,44,56,332,51,34,14,288,39,8*45
$GBGSV,3,1,09,01,44,137,46,02,35,230,45,03,51,195,47,07,87,026,49,B*04
$GBGSV,3,2,09,08,56,208,49,10,73,315,48,12,39,305,49,13,42,212,44,B*08
$GBGSV,3,3,09,04,33,120,44,B*3B
$GAGSV,2,1,07,02,36,170,44,15,40,269,46,27,25,315,43,30,65,257,49,1*70
$GAGSV,2,2,07,34,62,358,49,36,22,050,42,05,13,111,37,1*46
$GAGSV,2,1,07,02,36,170,46,15,40,269,48,27,25,315,45,30,65,257,51,2*70
$GAGSV,2,2,07,34,62,358,51,36,22,050,44,05,13,111,39,2*44
$GAGSV,2,1,07,02,36,170,44,15,40,269,44,27,25,315,40,30,65,257,47,7*79
$GAGSV,2,2,07,34,62,358,47,36,22,050,37,05,13,111,36,7*4D
$GNGGA,073531.00,3207.95428415,N,11841.73984853,E,1,28,0.6,8.0365,M,1.7757,M,,*40
$GNRMC,073531.00,A,3207.95428415,N,11841.73984853,E,0.005,125.4,030424,6.1,W,A,C*52
#HEADINGA,COM3,9984,88.0,FINE,2308,286549.000,1444922,16,18;SOL_COMPUTED,NARROW_INT,1.9932,183.2224,0.0504,0.0000,0.1359,0.2670,"999",49,42,42,39,0,01,3,f3*75e5467b
$GPGSV,2,1,08,03,32,045,42,06,52,285,45,14,44,177,45,17,65,045,47,1*67
$GPGSV,2,2,08,19,57,340,45,22,65,205,45,04,11,095,33,11,21,257,41,1*6B
$GPGSV,2,1,08,03,32,045,41,06,52,285,47,14,44,177,45,17,65,045,46,4*62
$GPGSV,2,2,08,19,57,340,44,22,65,205,44,04,11,095,27,11,21,257,42,4*68
$GPGSV,2,1,05,03,32,045,47,06,52,285,51,14,44,177,48,04,11,095,30,8*62
$GPGSV,2,2,05,11,21,257,45,8*5A
$GLGSV,2,1,08,74,45,246,43,73,22,198,45,75,27,314,48,69,34,111,50,1*72
$GLGSV,2,2,08,84,46,354,43,83,14,060,33,85,21,290,50,68,25,053,48,1*70
$GLGSV,2,1,07,73,22,198,41,75,27,314,47,69,34,111,47,84,46,354,45,3*7A
$GLGSV,2,2,07,83,14,060,40,85,21,290,43,68,25,053,47,3*4F
