$GNGGA,075811.00,3207.95347286,N,11841.73958285,E,1,28,0.7,7.8956,M,1.7757,M,,*47
$GNRMC,075811.00,A,3207.95347286,N,11841.73958285,E,0.010,167.4,030424,6.1,W,A,C*5B
#HEADINGA,COM3,9984,89.0,FINE,2308,287909.000,2804925,16,18;SOL_COMPUTED,NARROW_INT,1.9943,238.6131,0.3025,0.0000,0.1313,0.2643,"999",53,40,40,36,0,01,3,f3*c90ae2ab
$GPGSV,3,1,09,03,23,041,39,06,56,303,46,14,33,176,43,09,18,127,20,1*61
$GPGSV,3,2,09,17,63,069,46,19,64,357,46,22,55,196,46,04,15,085,35,1*6C
$GPGSV,3,3,09,11,28,266,38,1*5E
$GPGSV,3,1,09,03,23,041,39,06,56,303,47,14,33,176,45,09,18,127,29,4*6A
$GPGSV,3,2,09,17,63,069,46,19,64,357,45,22,55,196,43,04,15,085,30,4*6A
$GPGSV,3,3,09,11,28,266,38,4*5B
$GPGSV,2,1,06,03,23,041,45,06,56,303,51,14,33,176,45,09,18,127,32,8*6E
$GPGSV,2,2,06,04,15,085,34,11,28,266,42,8*6F
$GLGSV,2,1,07,74,36,233,43,73,11,194,24,75,31,301,48,69,41,097,52,1*7C
$GLGSV,2,2,07,84,44,011,42,85,26,302,49,68,21,041,47,1*4B
$GLGSV,2,1,06,73,11,194,24,75,31,301,46,69,41,097,49,84,44,011,43,3*73
$GLGSV,2,2,06,85,26,302,45,68,21,041,44,3*7D
$GBGSV,6,1,21,01,44,137,44,02,35,230,40,03,51,195,44,07,87,158,47,1*7A
$GBGSV,6,2,21,08,59,219,43,10,75,306,45,12,44,315,44,13,45,220,44,1*78
$GBGSV,6,3,21,22,49,117,47,24,29,249,45,26,14,199,25,38,73,222,48,1*7C
$GBGSV,6,4,21,40,74,090,47,59,45,144,45,60,34,236,44,04,33,120,40,1*72
$GBGSV,6,5,21,19,26,052,42,44,60,348,50,25,13,303,23,21,22,176,41,1*75
$GBGSV,6,6,21,34,20,295,41,1*4B
$GBGSV,6,1,21,01,44,137,44,02,35,230,40,03,51,195,45,07,87,158,48,8*7D
$GBGSV,6,2,21,08,59,219,47,10,75,306,47,12,44,315,48,13,45,220,45,8*7A
$GBGSV,6,3,21,22,49,117,50,24,29,249,44,26,14,199,29,38,73,222,50,8*77
$GBGSV,6,4,21,40,74,090,50,59,45,144,48,60,34,236,44,04,33,120,41,8*71
$GBGSV,6,5,21,19,26,052,44,44,60,348,51,25,13,303,27,21,22,176,42,8*7C
$GBGSV,6,6,21,34,20,295,40,8*43
$GBGSV,3,1,09,01,44,137,46,02,35,230,45,03,51,195,48,07,87,158,49,B*03
$GBGSV,3,2,09,08,59,219,48,10,75,306,48,12,44,315,49,13,45,220,45,B*0E
$GBGSV,3,3,09,04,33,120,43,B*3C
$GAGSV,2,1,08,02,28,171,43,15,43,280,47,27,31,310,44,30,61,238,49,1*79
$GAGSV,2,2,08,34,57,012,49,36,17,056,38,05,19,104,35,09,08,053,15,1*70
$GAGSV,2,1,08,02,28,171,45,15,43,280,49,27,31,310,44,30,61,238,51,2*7B
$GAGSV,2,2,08,34,57,012,51,36,17,056,40,05,19,104,34,09,08,053,27,2*75
$GAGSV,2,1,08,02,28,171,42,15,43,280,45,27,31,310,44,30,61,238,47,7*72
$GAGSV,2,2,08,34,57,012,47,36,17,056,38,05,19,104,31,09,08,053,21,7*7B
$GNGGA,075812.00,3207.95347290,N,11841.73958415,E,1,28,0.7,7.8910,M,1.7757,M,,*4E
$GNRMC,075812.00,A,3207.95347290,N,11841.73958415,E,0.010,164.8,030424,6.1,W,A,C*5F
#HEADINGA,COM3,9984,89.0,FINE,2308,287910.000,2805925,16,18;SOL_COMPUTED,NARROW_INT,1.9943,238.6867,0.3025,0.0000,0.1310,0.2641,"999",53,40,40,36,0,01,3,f3*506864ed
$GPGSV,3,1,09,03,23,041,39,06,56,303,46,14,33,176,43,09,18,127,22,1*63
$GPGSV,3,2,09,17,63,069,46,19,64,357,46,22,55,196,47,04,15,085,35,1*6D
$GPGSV,3,3,09,11,28,266,38,1*5E
$GPGSV,3,1,09,03,23,041,40,06,56,303,47,14,33,176,45,09,18,127,29,4*64
$GPGSV,3,2,09,17,63,069,46,19,64,357,45,22,55,196,44,04,15,085,30,4*6D
$GPGSV,3,3,09,11,28,266,38,4*5B
$GPGSV,2,1,06,03,23,041,45,06,56,303,51,14,33,176,45,09,18,127,32,8*6E
$GPGSV,2,2,06,04,15,085,34,11,28,266,42,8*6F
$GLGSV,2,1,07,74,36,233,44,73,11,194,24,75,31,301,49,69,41,097,52,1*7A
$GLGSV,2,2,07,84,44,011,42,85,26,302,49,68,21,041,48,1*44
$GLGSV,2,1,06,73,11,194,23,75,31,301,46,69,41,097,49,84,44,011,43,3*74
$GLGSV,2,2,06,85,26,302,45,68,21,041,44,3*7D
$GBGSV,6,1,21,01,44,137,44,02,35,230,40,03,51,195,44,07,87,158,47,1*7A
$GBGSV,6,2,21,08,59,219,44,10,75,306,45,12,44,315,44,13,45,220,44,1*7F
$GBGSV,6,3,21,22,49,117,47,24,29,249,45,26,14,199,26,38,73,222,48,1*7F
$GBGSV,6,4,21,40,74,090,47,59,45,144,45,60,34,236,44,04,33,120,40,1*72
$GBGSV,6,5,21,19,26,052,42,44,60,349,50,25,13,303,23,21,22,176,41,1*74
$GBGSV,6,6,21,34,20,295,41,1*4B
$GBGSV,6,1,21,01,44,137,44,02,35,230,40,03,51,195,46,07,87,158,48,8*7E
$GBGSV,6,2,21,08,59,219,47,10,75,306,47,12,44,315,48,13,45,220,45,8*7A
$GBGSV,6,3,21,22,49,117,50,24,29,249,44,26,14,199,29,38,73,222,50,8*77
$GBGSV,6,4,21,40,74,090,50,59,45,144,48,60,34,236,44,04,33,120,42,8*72
$GBGSV,6,5,21,19,26,052,44,44,60,349,51,25,13,303,27,21,22,176,42,8*7D
$GBGSV,6,6,21,34,20,295,40,8*43
$GBGSV,3,1,09,01,44,137,46,02,35,230,45,03,51,195,48,07,87,158,49,B*03
$GBGSV,3,2,09,08,59,219,48,10,75,306,48,12,44,315,49,13,45,220,45,B*0E
$GBGSV,3,3,09,04,33,120,44,B*3B
$GAGSV,2,1,08,02,28,171,42,15,43,280,47,27,31,310,44,30,61,238,49,1*78
$GAGSV,2,2,08,34,57,012,49,36,17,056,38,05,19,104,35,09,08,053,17,1*72
$GAGSV,2,1,08,02,28,171,45,15,43,280,49,27,31,310,44,30,61,238,51,2*7B
$GAGSV,2,2,08,34,57,012,51,36,17,056,39,05,19,104,33,09,08,053,27,2*7C
$GAGSV,2,1,08,02,28,171,42,15,43,280,46,27,31,310,44,30,61,238,47,7*71
$GAGSV,2,2,08,34,57,012,47,36,17,056,38,05,19,104,31,09,08,053,21,7*7B
$GNGGA,075813.00,3207.95347292,N,11841.73958522,E,1,28,0.7,7.8862,M,1.7757,M,,*4C
$GNRMC,075813.00,A,3207.95347292,N,11841.73958522,E,0.009,172.0,030424,6.1,W,A,C*5E
#HEADINGA,COM3,9984,90.0,FINE,2308,287911.000,2806926,16,18;SOL_COMPUTED,NARROW_INT,1.9943,238.7603,0.3025,0.0000,0.1315,0.2646,"999",53,40,40,36,0,01,3,f3*ea269de2
$GPGSV,3,1,09,03,23,041,39,06,56,303,46,14,33,176,43,09,18,127,22,1*63
$GPGSV,3,2,09,17,63,069,46,19,64,357,45,22,55,196,47,04,15,085,35,1*6E
$GPGSV,3,3,09,11,28,266,38,1*5E
$GPGSV,3,1,09,03,23,041,40,06,56,303,47,14,33,176,45,09,18,127,29,4*64
$GPGSV,3,2,09,17,63,069,46,19,64,357,45,22,55,196,43,04,15,085,31,4*6B
$GPGSV,3,3,09,11,28,266,38,4*5B
$GPGSV,2,1,06,03,23,041,45,06,56,303,51,14,33,176,45,09,18,127,32,8*6E
$GPGSV,2,2,06,04,15,085,34,11,28,266,42,8*6F
$GLGSV,2,1,07,74,36,233,44,73,11,194,23,75,31,301,48,69,41,097,51,1*7F
$GLGSV,2,2,07,84,44,011,42,85,26,302,48,68,21,041,47,1*4A
$GLGSV,2,1,06,73,11,194,23,75,31,301,46,69,41,097,49,84,44,011,43,3*74
$GLGSV,2,2,06,85,26,302,45,68,21,041,44,3*7D
$GBGSV,6,1,21,01,44,137,43,02,35,230,41,03,51,195,44,07,87,158,47,1*7C
$GBGSV,6,2,21,08,59,219,44,10,75,306,45,12,44,315,44,13,45,220,44,1*7F
$GBGSV,6,3,21,22,49,117,47,24,29,249,43,26,14,199,26,38,73,222,48,1*79
$GBGSV,6,4,21,40,74,090,48,59,45,144,45,60,34,236,44,04,33,120,40,1*7D
$GBGSV,6,5,21,19,26,052,42,44,60,349,50,25,13,303,24,21,22,176,42,1*70
$GBGSV,6,6,21,34,20,295,42,1*48
$GBGSV,6,1,21,01,44,137,44,02,35,230,41,03,51,195,45,07,87,158,48,8*7C
$GBGSV,6,2,21,08,59,219,47,10,75,306,47,12,44,315,48,13,45,220,45,8*7A
$GBGSV,6,3,21,22,49,117,50,24,29,249,42,26,14,199,29,38,73,222,51,8*70
$GBGSV,6,4,21,40,74,090,50,59,45,144,48,60,34,236,45,04,33,120,42,8*73
$GBGSV,6,5,21,19,26,052,44,44,60,349,51,25,13,303,28,21,22,176,42,8*72
$GBGSV,6,6,21,34,20,295,42,8*41
$GBGSV,3,1,09,01,44,137,46,02,35,230,45,03,51,195,48,07,87,158,49,B*03
$GBGSV,3,2,09,08,59,219,48,10,75,306,49,12,44,315,49,13,45,220,45,B*0F
$GBGSV,3,3,09,04,33,120,44,B*3B
$GAGSV,2,1,08,02,28,171,43,15,43,280,46,27,31,310,44,30,61,238,49,1*78
$GAGSV,2,2,08,34,57,012,49,36,17,056,38,05,19,104,35,09,08,053,16,1*73
$GAGSV,2,1,08,02,28,171,45,15,43,280,48,27,31,310,44,30,61,238,51,2*7A
$GAGSV,2,2,08,34,57,012,51,36,17,056,39,05,19,104,34,09,08,053,27,2*7B
$GAGSV,2,1,08,02,28,171,42,15,43,280,45,27,31,310,44,30,61,238,47,7*72
$GAGSV,2,2,08,34,57,012,47,36,17,056,38,05,19,104,30,09,08,053,22,7*79
$GNGGA,075814.00,3207.95347293,N,11841.73958638,E,1,28,0.7,7.8813,M,1.7757,M,,*44
$GNRMC,075814.00,A,3207.95347293,N,11841.73958638,E,0.009,168.2,030424,6.1,W,A,C*59
#HEADINGA,COM3,9984,91.0,FINE,2308,287912.000,2807925,16,18;SOL_COMPUTED,NARROW_INT,1.9943,238.8337,0.3024,0.0000,0.1316,0.2681,"999",53,39,39,35,0,01,3,f3*18d401b6
$GPGSV,3,1,09,03,23,041,38,06,56,303,46,14,33,176,43,09,18,127,23,1*63
$GPGSV,3,2,09,17,63,069,46,19,64,357,45,22,55,196,46,04,15,085,34,1*6E
$GPGSV,3,3,09,11,28,266,40,1*51
$GPGSV,3,1,09,03,23,041,39,06,56,303,47,14,33,176,45,09,18,127,29,4*6A
$GPGSV,3,2,09,17,63,069,46,19,64,357,45,22,55,196,44,04,15,085,31,4*6C
$GPGSV,3,3,09,11,28,266,39,4*5A
$GPGSV,2,1,06,03,23,041,46,06,56,303,51,14,33,176,45,09,18,127,32,8*6D
$GPGSV,2,2,06,04,15,085,34,11,28,266,43,8*6E
$GLGSV,2,1,07,74,36,233,43,73,11,194,22,75,31,301,47,69,41,097,51,1*76
$GLGSV,2,2,07,84,44,011,42,85,26,302,48,68,21,041,47,1*4A
$GLGSV,2,1,06,73,11,194,24,75,31,301,46,69,41,097,49,84,44,011,43,3*73
$GLGSV,2,2,06,85,26,302,45,68,21,041,44,3*7D
$GBGSV,6,1,21,01,44,137,43,02,36,230,40,03,51,195,44,07,87,158,47,1*7E
$GBGSV,6,2,21,08,59,219,43,10,75,306,45,12,44,315,44,13,45,220,44,1*78
$GBGSV,6,3,21,22,49,117,47,24,29,249,44,26,14,199,25,38,73,222,48,1*7D
$GBGSV,6,4,21,40,74,090,48,59,45,144,45,60,34,236,44,04,33,120,40,1*7D
$GBGSV,6,5,21,19,26,052,42,44,60,349,50,25,13,303,25,21,22,176,42,1*71
$GBGSV,6,6,21,34,20,295,42,1*48
$GBGSV,6,1,21,01,44,137,44,02,36,230,41,03,51,195,45,07,87,158,48,8*7F
$GBGSV,6,2,21,08,59,219,47,10,75,306,47,12,44,315,48,13,45,220,46,8*79
$GBGSV,6,3,21,22,49,117,50,24,29,249,41,26,14,199,29,38,73,222,50,8*72
$GBGSV,6,4,21,40,74,090,50,59,45,144,48,60,34,236,45,04,33,120,42,8*73
$GBGSV,6,5,21,19,26,052,44,44,60,349,51,25,13,303,28,21,22,176,42,8*72
$GBGSV,6,6,21,34,20,295,41,8*42
$GBGSV,3,1,09,01,44,137,46,02,36,230,45,03,51,195,48,07,87,158,49,B*00
$GBGSV,3,2,09,08,59,219,48,10,75,306,49,12,44,315,49,13,45,220,46,B*0C
$GBGSV,3,3,09,04,33,120,44,B*3B
$GAGSV,2,1,08,02,28,171,43,15,43,280,46,27,31,310,44,30,61,238,48,1*79
$GAGSV,2,2,08,34,57,012,49,36,17,056,38,05,19,104,35,09,08,053,16,1*73
$GAGSV,2,1,08,02,28,171,45,15,43,280,48,27,31,310,44,30,61,238,51,2*7A
$GAGSV,2,2,08,34,57,012,51,36,17,056,39,05,19,104,34,09,08,053,27,2*7B
$GAGSV,2,1,08,02,28,171,42,15,43,280,45,27,31,310,44,30,61,238,47,7*72
$GAGSV,2,2,08,34,57,012,47,36,17,056,38,05,19,104,31,09,08,053,22,7*78
$GNGGA,075815.00,3207.95347300,N,11841.73958749,E,1,28,0.7,7.8768,M,1.7757,M,,*4A
$GNRMC,075815.00,A,3207.95347300,N,11841.73958749,E,0.009,169.4,030424,6.1,W,A,C*53
#HEADINGA,COM3,9984,91.0,FINE,2308,287913.000,2808926,16,18;SOL_COMPUTED,NARROW_INT,1.9943,238.9072,0.3024,0.0000,0.1305,0.2621,"999",52,40,40,36,0,01,3,f3*ef15f86d
$GPGSV,3,1,09,03,23,041,38,06,56,303,46,14,33,176,43,09,18,127,25,1*65
$GPGSV,3,2,09,17,63,069,46,19,64,357,45,22,55,196,46,04,15,085,34,1*6E
$GPGSV,3,3,09,11,28,266,40,1*51
$GPGSV,3,1,09,03,23,041,39,06,56,303,47,14,33,176,45,09,18,127,29,4*6A
$GPGSV,3,2,09,17,63,069,46,19,64,357,45,22,55,196,44,04,15,085,30,4*6D
$GPGSV,3,3,09,11,28,266,39,4*5A
$GPGSV,2,1,06,03,23,041,45,06,56,303,51,14,33,176,45,09,18,127,33,8*6F
$GPGSV,2,2,06,04,15,085,34,11,28,266,43,8*6E
$GLGSV,2,1,07,74,36,233,43,73,11,194,22,75,31,301,48,69,41,097,51,1*79
$GLGSV,2,2,07,84,44,011,42,85,26,302,49,68,21,041,47,1*4B
$GLGSV,2,1,06,73,11,194,24,75,31,301,46,69,41,097,49,84,44,011,43,3*73
$GLGSV,2,2,06,85,26,302,45,68,21,041,44,3*7D
$GBGSV,6,1,21,01,44,137,44,02,36,230,40,03,51,195,44,07,87,158,47,1*79
$GBGSV,6,2,21,08,59,219,44,10,75,306,45,12,44,315,45,13,45,220,44,1*7E
$GBGSV,6,3,21,22,49,117,47,24,29,249,44,26,14,199,26,38,73,222,48,1*7E
$GBGSV,6,4,21,40,74,090,48,59,45,144,46,60,34,236,44,04,33,120,40,1*7E
$GBGSV,6,5,21,19,26,052,42,44,60,349,50,25,13,303,26,21,22,176,42,1*72
$GBGSV,6,6,21,34,20,295,43,1*49
$GBGSV,6,1,21,01,44,137,44,02,36,230,41,03,51,195,46,07,87,158,48,8*7C
$GBGSV,6,2,21,08,59,219,47,10,75,306,47,12,44,315,48,13,45,220,46,8*79
$GBGSV,6,3,21,22,49,117,50,24,29,249,41,26,14,199,29,38,73,222,50,8*72
$GBGSV,6,4,21,40,74,090,51,59,45,144,48,60,34,236,45,04,33,120,42,8*72
$GBGSV,6,5,21,19,26,052,44,44,60,349,51,25,13,303,27,21,22,176,42,8*7D
$GBGSV,6,6,21,34,20,295,42,8*41
$GBGSV,3,1,09,01,44,137,46,02,36,230,45,03,51,195,48,07,87,158,49,B*00
$GBGSV,3,2,09,08,59,219,48,10,75,306,49,12,44,315,49,13,45,220,46,B*0C
$GBGSV,3,3,09,04,33,120,44,B*3B
$GAGSV,2,1,08,02,28,171,43,15,43,280,47,27,31,310,44,30,61,238,49,1*79
$GAGSV,2,2,08,34,57,012,49,36,17,056,38,05,19,104,35,09,08,053,16,1*73
$GAGSV,2,1,08,02,28,171,45,15,43,280,50,27,31,310,44,30,61,238,51,2*73
$GAGSV,2,2,08,34,57,012,51,36,17,056,40,05,19,104,34,09,08,053,27,2*75
$GAGSV,2,1,08,02,28,171,42,15,43,280,46,27,31,310,44,30,61,238,47,7*71
$GAGSV,2,2,08,34,57,012,47,36,17,056,38,05,19,104,32,09,08,053,21,7*78
$GNGGA,075816.00,3207.95347311,N,11841.73958894,E,1,28,0.7,7.8734,M,1.7757,M,,*4F
$GNRMC,075816.00,A,3207.95347311,N,11841.73958894,E,0.009,156.0,030424,6.1,W,A,C*57
#HEADINGA,COM3,9984,91.0,FINE,2308,287914.000,2809925,16,18;SOL_COMPUTED,NARROW_INT,1.9943,238.9805,0.3023,0.0000,0.1307,0.2624,"999",52,40,40,36,0,01,3,f3*e3a5295c
$GPGSV,3,1,09,03,23,041,38,06,56,304,46,14,33,176,43,09,18,127,25,1*62
$GPGSV,3,2,09,17,63,069,46,19,64,357,46,22,55,196,47,04,15,085,34,1*6C
$GPGSV,3,3,09,11,28,266,42,1*53
$GPGSV,3,1,09,03,23,041,40,06,56,304,47,14,33,176,45,09,18,127,30,4*6B
$GPGSV,3,2,09,17,63,069,46,19,64,357,45,22,55,196,44,04,15,085,31,4*6C
$GPGSV,3,3,09,11,28,266,41,4*55
$GPGSV,2,1,06,03,23,041,45,06,56,304,51,14,33,176,45,09,18,127,33,8*68
$GPGSV,2,2,06,04,15,085,35,11,28,266,45,8*69
$GLGSV,2,1,07,74,36,233,44,73,11,194,21,75,31,301,48,69,41,097,52,1*7E
$GLGSV,2,2,07,84,44,011,43,85,26,302,49,68,21,041,47,1*4A
$GLGSV,2,1,06,73,11,194,25,75,31,301,46,69,41,097,49,84,44,011,43,3*72
$GLGSV,2,2,06,85,26,302,45,68,21,041,43,3*7A
$GBGSV,6,1,21,01,44,137,43,02,36,230,41,03,51,195,44,07,87,158,47,1*7F
$GBGSV,6,2,21,08,59,219,44,10,75,306,45,12,44,315,45,13,45,220,45,1*7F
$GBGSV,6,3,21,22,49,117,47,24,29,249,44,26,14,199,26,38,73,222,48,1*7E
$GBGSV,6,4,21,40,74,090,48,59,45,144,46,60,34,236,44,04,33,120,40,1*7E
$GBGSV,6,5,21,19,26,052,42,44,60,349,50,25,13,303,28,21,22,176,42,1*7C
$GBGSV,6,6,21,34,20,295,42,1*48
$GBGSV,6,1,21,01,44,137,44,02,36,230,41,03,51,195,46,07,87,158,48,8*7C
$GBGSV,6,2,21,08,59,219,47,10,75,306,47,12,44,315,48,13,45,220,45,8*7A
$GBGSV,6,3,21,22,49,117,50,24,29,249,42,26,14,199,29,38,73,222,50,8*71
$GBGSV,6,4,21,40,74,090,50,59,45,144,48,60,34,236,44,04,33,120,42,8*72
$GBGSV,6,5,21,19,26,052,44,44,60,349,51,25,13,303,26,21,22,176,42,8*7C
$GBGSV,6,6,21,34,20,295,41,8*42
$GBGSV,3,1,09,01,44,137,46,02,36,230,45,03,51,195,48,07,87,158,49,B*00
$GBGSV,3,2,09,08,59,219,48,10,75,306,49,12,44,315,49,13,45,220,45,B*0F
$GBGSV,3,3,09,04,33,120,44,B*3B
$GAGSV,2,1,08,02,28,171,43,15,43,280,46,27,31,310,44,30,61,238,49,1*78
$GAGSV,2,2,08,34,57,012,49,36,17,056,38,05,19,104,34,09,08,053,17,1*73
$GAGSV,2,1,08,02,28,171,45,15,43,280,49,27,31,310,44,30,61,238,51,2*7B
$GAGSV,2,2,08,34,57,012,51,36,17,056,40,05,19,104,34,09,08,053,27,2*75
$GAGSV,2,1,08,02,28,171,42,15,43,280,46,27,31,310,44,30,61,238,47,7*71
$GAGSV,2,2,08,34,57,012,47,36,17,056,38,05,19,104,31,09,08,053,21,7*7B
$GNGGA,075817.00,3207.95347320,N,11841.73959011,E,1,28,0.7,7.8707,M,1.7757,M,,*48
$GNRMC,075817.00,A,3207.95347320,N,11841.73959011,E,0.009,166.0,030424,6.1,W,A,C*53
#HEADINGA,COM3,9984,91.0,FINE,2308,287915.000,2810925,16,18;SOL_COMPUTED,NARROW_INT,1.9943,239.0538,0.3023,0.0000,0.1305,0.2621,"999",52,40,40,36,0,01,3,f3*77d6a131
$GPGSV,3,1,09,03,23,041,38,06,56,304,46,14,33,176,43,09,18,127,27,1*60
$GPGSV,3,2,09,17,63,069,46,19,64,357,46,22,55,196,47,04,15,085,34,1*6C
$GPGSV,3,3,09,11,28,266,42,1*53
$GPGSV,3,1,09,03,23,041,39,06,56,304,48,14,33,176,45,09,18,127,30,4*6A
$GPGSV,3,2,09,17,63,069,46,19,64,357,45,22,55,196,44,04,15,085,31,4*6C
$GPGSV,3,3,09,11,28,266,41,4*55
$GPGSV,2,1,06,03,23,041,45,06,56,304,51,14,33,176,45,09,18,127,32,8*69
$GPGSV,2,2,06,04,15,085,35,11,28,266,45,8*69
$GLGSV,2,1,07,74,36,233,44,73,11,194,22,75,31,301,48,69,41,097,52,1*7D
$GLGSV,2,2,07,84,44,011,42,85,26,302,49,68,21,041,47,1*4B
$GLGSV,2,1,06,73,11,194,25,75,31,301,46,69,41,097,49,84,44,011,43,3*72
$GLGSV,2,2,06,85,26,302,45,68,21,041,44,3*7D
$GBGSV,6,1,21,01,44,137,43,02,36,230,41,03,51,195,44,07,87,158,47,1*7F
$GBGSV,6,2,21,08,59,219,44,10,75,306,45,12,44,315,45,13,46,220,45,1*7C
$GBGSV,6,3,21,22,49,117,47,24,29,249,45,26,14,199,26,38,73,222,48,1*7F
$GBGSV,6,4,21,40,74,090,48,59,45,144,46,60,34,236,44,04,33,120,40,1*7E
$GBGSV,6,5,21,19,26,052,43,44,60,349,50,25,13,303,28,21,22,176,42,1*7D
$GBGSV,6,6,21,34,20,295,43,1*49
$GBGSV,6,1,21,01,44,137,44,02,36,230,41,03,51,195,46,07,87,158,48,8*7C
$GBGSV,6,2,21,08,59,219,47,10,75,306,47,12,44,315,48,13,46,220,45,8*79
$GBGSV,6,3,21,22,49,117,50,24,29,249,42,26,14,199,29,38,73,222,50,8*71
$GBGSV,6,4,21,40,74,090,50,59,45,144,48,60,34,236,43,04,33,120,42,8*75
$GBGSV,6,5,21,19,26,052,44,44,60,349,51,25,13,303,27,21,22,176,42,8*7D
$GBGSV,6,6,21,34,20,295,41,8*42
$GBGSV,3,1,09,01,44,137,46,02,36,230,45,03,51,195,48,07,87,158,49,B*00
$GBGSV,3,2,09,08,59,219,48,10,75,306,49,12,44,315,49,13,46,220,45,B*0C
$GBGSV,3,3,09,04,33,120,44,B*3B
$GAGSV,2,1,08,02,28,171,43,15,43,280,46,27,31,310,44,30,61,238,49,1*78
$GAGSV,2,2,08,34,57,012,49,36,17,056,38,05,19,104,34,09,08,053,17,1*73
$GAGSV,2,1,08,02,28,171,45,15,43,280,49,27,31,310,44,30,61,238,51,2*7B
$GAGSV,2,2,08,34,57,012,51,36,17,056,39,05,19,104,34,09,08,053,26,2*7A
$GAGSV,2,1,08,02,28,171,42,15,43,280,46,27,31,310,44,30,61,238,47,7*71
$GAGSV,2,2,08,34,57,012,47,36,17,056,37,05,19,104,30,09,08,053,21,7*75
$GNGGA,075818.00,3207.95347339,N,11841.73959130,E,1,28,0.7,7.8680,M,1.7757,M,,*43
$GNRMC,075818.00,A,3207.95347339,N,11841.73959130,E,0.008,165.7,030424,6.1,W,A,C*53
#HEADINGA,COM3,9984,91.0,FINE,2308,287916.000,2811925,16,18;SOL_COMPUTED,NARROW_INT,1.9943,239.1270,0.3023,0.0000,0.1308,0.2617,"999",52,40,40,36,0,01,3,f3*f06722c4
$GPGSV,3,1,09,03,23,041,38,06,56,304,46,14,33,176,43,09,18,127,30,1*66
$GPGSV,3,2,09,17,63,069,46,19,64,357,46,22,55,196,47,04,15,085,33,1*6B
$GPGSV,3,3,09,11,28,266,42,1*53
$GPGSV,3,1,09,03,23,041,40,06,56,304,48,14,33,176,45,09,18,127,30,4*64
$GPGSV,3,2,09,17,63,069,46,19,64,357,45,22,55,196,44,04,15,085,31,4*6C
$GPGSV,3,3,09,11,28,266,41,4*55
$GPGSV,2,1,06,03,23,041,46,06,56,304,51,14,33,176,45,09,18,127,32,8*6A
$GPGSV,2,2,06,04,15,085,35,11,28,266,45,8*69
$GLGSV,2,1,07,74,36,233,44,73,11,194,23,75,31,301,48,69,41,097,52,1*7C
$GLGSV,2,2,07,84,44,011,42,85,26,302,48,68,21,041,47,1*4A
$GLGSV,2,1,06,73,11,194,25,75,31,301,46,69,41,097,49,84,44,011,44,3*75
$GLGSV,2,2,06,85,26,302,45,68,21,041,44,3*7D
$GBGSV,6,1,21,01,44,137,44,02,36,230,41,03,51,195,44,07,87,158,47,1*78
$GBGSV,6,2,21,08,59,219,44,10,75,306,45,12,44,315,45,13,46,220,45,1*7C
$GBGSV,6,3,21,22,49,117,47,24,29,249,46,26,14,199,26,38,73,222,49,1*7D
$GBGSV,6,4,21,40,74,090,48,59,45,144,45,60,34,236,44,04,33,120,40,1*7D
$GBGSV,6,5,21,19,26,052,43,44,60,349,50,25,13,303,28,21,22,176,42,1*7D
$GBGSV,6,6,21,34,20,295,43,1*49
$GBGSV,6,1,21,01,44,137,44,02,36,230,41,03,51,195,45,07,87,158,48,8*7F
$GBGSV,6,2,21,08,59,219,47,10,75,306,47,12,44,315,48,13,46,220,45,8*79
$GBGSV,6,3,21,22,49,117,50,24,29,249,44,26,14,199,30,38,73,222,50,8*7F
$GBGSV,6,4,21,40,74,090,50,59,45,144,48,60,34,236,43,04,33,120,42,8*75
$GBGSV,6,5,21,19,26,052,44,44,60,349,51,25,13,303,27,21,22,176,42,8*7D
$GBGSV,6,6,21,34,20,295,41,8*42
$GBGSV,3,1,09,01,44,137,46,02,36,230,45,03,51,195,48,07,87,158,49,B*00
$GBGSV,3,2,09,08,59,219,48,10,75,306,49,12,44,315,49,13,46,220,45,B*0C
$GBGSV,3,3,09,04,33,120,44,B*3B
$GAGSV,2,1,08,02,28,171,43,15,43,280,46,27,31,310,44,30,61,238,49,1*78
$GAGSV,2,2,08,34,57,012,49,36,17,056,38,05,19,104,35,09,08,053,16,1*73
$GAGSV,2,1,08,02,28,171,45,15,43,280,49,27,31,310,44,30,61,238,51,2*7B
$GAGSV,2,2,08,34,57,012,51,36,17,056,39,05,19,104,34,09,08,053,26,2*7A
$GAGSV,2,1,08,02,28,171,42,15,43,280,46,27,31,310,44,30,61,238,47,7*71
$GAGSV,2,2,08,34,57,012,47,36,17,056,37,05,19,104,30,09,08,053,21,7*75
$GNGGA,075819.00,3207.95347357,N,11841.73959254,E,1,28,0.7,7.8657,M,1.7757,M,,*41
$GNRMC,075819.00,A,3207.95347357,N,11841.73959254,E,0.008,163.2,030424,6.1,W,A,C*58
#HEADINGA,COM3,9984,91.0,FINE,2308,287917.000,2812925,16,18;SOL_COMPUTED,NARROW_INT,1.9942,239.2001,0.3022,0.0000,0.1309,0.2622,"999",52,40,40,36,0,01,3,f3*6bdf920c
$GPGSV,3,1,09,03,23,041,38,06,56,304,46,14,33,176,43,09,18,127,29,1*6E
$GPGSV,3,2,09,17,63,069,46,19,64,357,46,22,55,196,47,04,15,085,33,1*6B
$GPGSV,3,3,09,11,28,266,42,1*53
$GPGSV,3,1,09,03,23,041,40,06,56,304,48,14,33,176,45,09,18,127,29,4*6C
$GPGSV,3,2,09,17,63,069,46,19,64,357,45,22,55,196,43,04,15,085,31,4*6B
$GPGSV,3,3,09,11,28,266,42,4*56
$GPGSV,2,1,06,03,23,041,45,06,56,304,51,14,33,176,45,09,18,127,32,8*69
$GPGSV,2,2,06,04,15,085,35,11,28,266,45,8*69
$GLGSV,2,1,07,74,36,233,44,73,11,194,22,75,31,301,48,69,41,097,52,1*7D
$GLGSV,2,2,07,84,44,011,42,85,26,302,48,68,21,041,47,1*4A
$GLGSV,2,1,06,73,11,194,25,75,31,301,46,69,41,097,49,84,44,011,44,3*75
$GLGSV,2,2,06,85,26,302,45,68,21,041,44,3*7D
$GBGSV,6,1,21,01,44,137,43,02,36,230,41,03,51,195,44,07,87,158,47,1*7F
$GBGSV,6,2,21,08,59,219,44,10,75,306,45,12,44,315,45,13,46,220,45,1*7C
$GBGSV,6,3,21,22,49,117,47,24,29,249,46,26,14,199,27,38,73,222,48,1*7D
$GBGSV,6,4,21,40,74,090,48,59,45,144,45,60,34,236,44,04,33,120,40,1*7D
$GBGSV,6,5,21,19,26,052,43,44,60,349,49,25,13,303,28,21,22,176,42,1*75
$GBGSV,6,6,21,34,20,295,42,1*48
$GBGSV,6,1,21,01,44,137,44,02,36,230,41,03,51,195,46,07,87,158,48,8*7C
$GBGSV,6,2,21,08,59,219,47,10,75,306,47,12,44,315,48,13,46,220,45,8*79
$GBGSV,6,3,21,22,49,117,50,24,29,249,44,26,14,199,28,38,73,222,50,8*76
$GBGSV,6,4,21,40,74,090,50,59,45,144,48,60,34,236,44,04,33,120,42,8*72
$GBGSV,6,5,21,19,26,052,44,44,60,349,51,25,13,303,27,21,22,176,42,8*7D
$GBGSV,6,6,21,34,20,295,41,8*42
$GBGSV,3,1,09,01,44,137,46,02,36,230,45,03,51,195,48,07,87,158,49,B*00
$GBGSV,3,2,09,08,59,219,48,10,75,306,48,12,44,315,49,13,46,220,45,B*0D
$GBGSV,3,3,09,04,33,120,44,B*3B
$GAGSV,2,1,08,02,28,171,43,15,43,280,46,27,31,310,44,30,61,238,49,1*78
$GAGSV,2,2,08,34,57,012,49,36,16,056,38,05,19,104,35,09,08,053,15,1*71
$GAGSV,2,1,08,02,28,171,45,15,43,280,49,27,31,310,44,30,61,238,51,2*7B
$GAGSV,2,2,08,34,57,012,51,36,16,056,39,05,19,104,35,09,08,053,26,2*7A
$GAGSV,2,1,08,02,28,171,41,15,43,280,46,27,31,310,44,30,61,238,47,7*72
$GAGSV,2,2,08,34,57,012,46,36,16,056,37,05,19,104,30,09,08,053,21,7*75
$GNGGA,075820.00,3207.95347397,N,11841.73959379,E,1,28,0.7,7.8641,M,1.7757,M,,*4E
$GNRMC,075820.00,A,3207.95347397,N,11841.73959379,E,0.007,159.4,030424,6.1,W,A,C*50
#HEADINGA,COM3,9984,91.0,FINE,2308,287918.000,2813925,16,18;SOL_COMPUTED,NARROW_INT,1.9942,239.2732,0.3022,0.0000,0.1308,0.2616,"999",52,40,40,36,0,01,3,f3*c9cdce3d
$GPGSV,3,1,09,03,23,041,38,06,56,304,46,14,33,176,43,09,18,127,28,1*6F
$GPGSV,3,2,09,17,63,069,45,19,64,358,46,22,55,196,46,04,15,085,33,1*66
$GPGSV,3,3,09,11,28,266,42,1*53
$GPGSV,3,1,09,03,23,041,40,06,56,304,48,14,33,176,45,09,18,127,29,4*6C
$GPGSV,3,2,09,17,63,069,46,19,64,358,45,22,55,196,44,04,15,085,30,4*62
$GPGSV,3,3,09,11,28,266,42,4*56
$GPGSV,2,1,06,03,23,041,45,06,56,304,51,14,33,176,45,09,18,127,33,8*68
$GPGSV,2,2,06,04,15,085,35,11,28,266,45,8*69
$GLGSV,2,1,07,74,36,233,44,73,11,194,20,75,31,301,48,69,41,097,52,1*7F
$GLGSV,2,2,07,84,44,011,42,85,26,302,48,68,21,041,47,1*4A
$GLGSV,2,1,06,73,11,194,26,75,31,301,46,69,41,097,49,84,44,011,44,3*76
$GLGSV,2,2,06,85,26,302,45,68,21,041,44,3*7D
$GBGSV,6,1,21,01,44,137,43,02,36,230,41,03,51,195,44,07,87,158,47,1*7F
$GBGSV,6,2,21,08,59,219,44,10,75,306,45,12,44,315,45,13,46,220,45,1*7C
$GBGSV,6,3,21,22,49,117,47,24,29,249,46,26,14,199,27,38,73,222,48,1*7D
$GBGSV,6,4,21,40,74,090,48,59,45,144,45,60,34,236,44,04,33,120,40,1*7D
$GBGSV,6,5,21,19,26,052,43,44,60,349,49,25,13,303,27,21,22,176,41,1*79
$GBGSV,6,6,21,34,20,295,42,1*48
$GBGSV,6,1,21,01,44,137,44,02,36,230,40,03,51,195,45,07,87,158,48,8*7E
$GBGSV,6,2,21,08,59,219,47,10,75,306,47,12,44,315,48,13,46,220,45,8*79
$GBGSV,6,3,21,22,49,117,50,24,29,249,44,26,14,199,29,38,73,222,50,8*77
$GBGSV,6,4,21,40,74,090,50,59,45,144,48,60,34,236,44,04,33,120,42,8*72
$GBGSV,6,5,21,19,26,052,44,44,60,349,51,25,13,303,26,21,22,176,42,8*7C
$GBGSV,6,6,21,34,20,295,41,8*42
$GBGSV,3,1,09,01,44,137,46,02,36,230,45,03,51,195,48,07,87,158,49,B*00
$GBGSV,3,2,09,08,59,219,48,10,75,306,48,12,44,315,49,13,46,220,46,B*0E
$GBGSV,3,3,09,04,33,120,44,B*3B
$GAGSV,2,1,08,02,28,171,43,15,43,280,46,27,31,310,44,30,61,238,49,1*78
$GAGSV,2,2,08,34,57,012,49,36,16,056,38,05,19,104,35,09,08,053,14,1*70
$GAGSV,2,1,08,02,28,171,45,15,43,280,50,27,31,310,44,30,61,238,51,2*73
$GAGSV,2,2,08,34,57,012,51,36,16,056,40,05,19,104,35,09,08,053,27,2*75
$GAGSV,2,1,08,02,28,171,41,15,43,280,45,27,31,310,44,30,61,238,47,7*71
$GAGSV,2,2,08,34,57,012,46,36,16,056,37,05,19,104,30,09,08,053,21,7*75
$GNGGA,075821.00,3207.95347429,N,11841.73959496,E,1,28,0.7,7.8628,M,1.7757,M,,*44
$GNRMC,075821.00,A,3207.95347429,N,11841.73959496,E,0.006,162.2,030424,6.1,W,A,C*5A
#HEADINGA,COM3,9984,91.0,FINE,2308,287919.000,2814925,16,18;SOL_COMPUTED,NARROW_INT,1.9942,239.3461,0.3021,0.0000,0.1308,0.2617,"999",52,40,40,36,0,01,3,f3*d4d1d8a8
$GPGSV,3,1,09,03,23,041,38,06,56,304,46,14,33,176,44,09,18,127,29,1*69
$GPGSV,3,2,09,17,63,069,45,19,64,358,46,22,55,196,47,04,15,085,34,1*60
$GPGSV,3,3,09,11,28,266,42,1*53
$GPGSV,3,1,09,03,23,041,40,06,56,304,48,14,33,176,45,09,18,127,29,4*6C
$GPGSV,3,2,09,17,63,069,46,19,64,358,45,22,55,196,44,04,15,085,31,4*63
$GPGSV,3,3,09,11,28,266,42,4*56
$GPGSV,2,1,06,03,23,041,45,06,56,304,51,14,33,176,45,09,18,127,32,8*69
$GPGSV,2,2,06,04,15,085,34,11,28,266,45,8*68
$GLGSV,2,1,07,74,36,233,44,73,11,194,20,75,31,301,48,69,41,097,52,1*7F
$GLGSV,2,2,07,84,44,011,42,85,26,302,48,68,21,041,47,1*4A
$GLGSV,2,1,06,73,11,194,27,75,31,301,46,69,41,097,49,84,44,011,44,3*77
$GLGSV,2,2,06,85,26,302,44,68,21,041,44,3*7C
$GBGSV,6,1,21,01,44,137,43,02,36,230,40,03,51,195,44,07,87,159,47,1*7F
$GBGSV,6,2,21,08,59,219,44,10,75,306,45,12,44,315,45,13,46,220,45,1*7C
$GBGSV,6,3,21,22,49,117,47,24,29,249,46,26,14,199,27,38,73,222,48,1*7D
$GBGSV,6,4,21,40,74,090,48,59,45,144,45,60,34,236,44,04,33,120,40,1*7D
$GBGSV,6,5,21,19,26,052,43,44,60,349,49,25,13,303,26,21,22,176,41,1*78
$GBGSV,6,6,21,34,20,295,42,1*48
$GBGSV,6,1,21,01,44,137,44,02,36,230,40,03,51,195,45,07,87,159,48,8*7F
$GBGSV,6,2,21,08,59,219,47,10,75,306,47,12,44,315,48,13,46,220,45,8*79
$GBGSV,6,3,21,22,49,117,50,24,29,249,44,26,14,199,29,38,73,222,50,8*77
$GBGSV,6,4,21,40,74,090,50,59,45,144,48,60,34,236,44,04,33,120,42,8*72
$GBGSV,6,5,21,19,26,052,44,44,60,349,51,25,13,303,27,21,22,176,42,8*7D
$GBGSV,6,6,21,34,20,295,41,8*42
$GBGSV,3,1,09,01,44,137,46,02,36,230,45,03,51,195,48,07,87,159,49,B*01
$GBGSV,3,2,09,08,59,219,48,10,75,306,48,12,44,315,49,13,46,220,45,B*0D
$GBGSV,3,3,09,04,33,120,44,B*3B
$GAGSV,2,1,08,02,28,171,43,15,43,280,46,27,31,310,44,30,61,238,49,1*78
$GAGSV,2,2,08,34,57,012,49,36,16,056,38,05,19,104,36,09,08,053,12,1*75
$GAGSV,2,1,08,02,28,171,45,15,43,280,50,27,31,310,44,30,61,238,51,2*73
$GAGSV,2,2,08,34,57,012,51,36,16,056,40,05,19,104,36,09,08,053,27,2*76
$GAGSV,2,1,08,02,28,171,41,15,43,280,45,27,31,310,44,30,61,238,47,7*71
$GAGSV,2,2,08,34,57,012,46,36,16,056,36,05,19,104,30,09,08,053,21,7*74
$GNGGA,075822.00,3207.95347469,N,11841.73959618,E,1,28,0.7,7.8613,M,1.7757,M,,*4F
$GNRMC,075822.00,A,3207.95347469,N,11841.73959618,E,0.006,157.8,030424,6.1,W,A,C*55
#HEADINGA,COM3,9984,91.0,FINE,2308,287920.000,2815925,16,18;SOL_COMPUTED,NARROW_INT,1.9942,239.4191,0.3021,0.0000,0.1307,0.2613,"999",52,40,40,36,0,01,3,f3*f1a3bfda
$GPGSV,3,1,09,03,23,041,38,06,56,304,46,14,33,176,44,09,18,127,29,1*69
$GPGSV,3,2,09,17,63,069,45,19,64,358,46,22,55,196,47,04,15,085,33,1*67
$GPGSV,3,3,09,11,28,266,42,1*53
$GPGSV,3,1,09,03,23,041,40,06,56,304,48,14,33,176,44,09,18,127,28,4*6C
$GPGSV,3,2,09,17,63,069,46,19,64,358,45,22,55,196,44,04,15,085,30,4*62
$GPGSV,3,3,09,11,28,266,42,4*56
$GPGSV,2,1,06,03,23,041,45,06,56,304,51,14,33,176,45,09,18,127,32,8*69
$GPGSV,2,2,06,04,15,085,34,11,28,266,45,8*68
$GLGSV,2,1,07,74,36,233,44,73,11,194,22,75,31,301,48,69,41,097,52,1*7D
$GLGSV,2,2,07,84,44,011,42,85,26,302,48,68,21,041,47,1*4A
$GLGSV,2,1,06,73,11,194,27,75,31,301,45,69,41,097,49,84,44,011,44,3*74
$GLGSV,2,2,06,85,26,302,44,68,21,041,44,3*7C
$GBGSV,6,1,21,01,44,137,43,02,36,230,41,03,51,195,44,07,87,159,47,1*7E
$GBGSV,6,2,21,08,59,219,44,10,75,306,45,12,44,315,44,13,46,220,45,1*7D
$GBGSV,6,3,21,22,49,117,47,24,29,249,46,26,14,199,26,38,73,222,48,1*7C
$GBGSV,6,4,21,40,74,090,48,59,45,144,45,60,34,236,44,04,33,120,40,1*7D
$GBGSV,6,5,21,19,26,052,43,44,60,349,49,25,13,303,26,21,22,176,41,1*78
$GBGSV,6,6,21,34,20,295,42,1*48
$GBGSV,6,1,21,01,44,137,44,02,36,230,40,03,51,195,45,07,87,159,48,8*7F
$GBGSV,6,2,21,08,59,219,47,10,75,306,47,12,44,315,48,13,46,220,45,8*79
$GBGSV,6,3,21,22,49,117,50,24,29,249,44,26,14,199,30,38,73,222,50,8*7F
$GBGSV,6,4,21,40,74,090,50,59,45,144,48,60,34,236,44,04,33,120,42,8*72
$GBGSV,6,5,21,19,26,052,44,44,60,349,51,25,13,303,26,21,22,176,42,8*7C
$GBGSV,6,6,21,34,20,295,41,8*42
$GBGSV,3,1,09,01,44,137,46,02,36,230,45,03,51,195,48,07,87,159,49,B*01
$GBGSV,3,2,09,08,59,219,48,10,75,306,48,12,44,315,49,13,46,220,46,B*0E
$GBGSV,3,3,09,04,33,120,44,B*3B
$GAGSV,2,1,08,02,28,171,43,15,43,280,46,27,31,310,44,30,61,238,49,1*78
$GAGSV,2,2,08,34,57,012,49,36,16,056,38,05,19,104,36,09,08,053,12,1*75
$GAGSV,2,1,08,02,28,171,45,15,43,280,50,27,31,310,44,30,61,238,51,2*73
$GAGSV,2,2,08,34,57,012,51,36,16,056,40,05,19,104,36,09,08,053,27,2*76
$GAGSV,2,1,08,02,28,171,41,15,43,280,45,27,31,310,44,30,61,238,47,7*71
$GAGSV,2,2,08,34,57,012,46,36,16,056,36,05,19,104,30,09,08,053,21,7*74
$GNGGA,075823.00,3207.95347499,N,11841.73959728,E,1,28,0.7,7.8596,M,1.7757,M,,*4D
$GNRMC,075823.00,A,3207.95347499,N,11841.73959728,E,0.006,167.6,030424,6.1,W,A,C*54
#HEADINGA,COM3,9984,91.0,FINE,2308,287921.000,2816925,17,18;SOL_COMPUTED,NARROW_INT,1.9942,239.4919,0.3020,0.0000,0.1306,0.2609,"999",52,40,40,36,0,01,3,f3*117acc00
$GPGSV,3,1,09,03,23,041,38,06,56,304,46,14,33,176,44,09,18,127,30,1*61
$GPGSV,3,2,09,17,63,069,46,19,64,358,46,22,55,196,47,04,15,085,33,1*64
$GPGSV,3,3,09,11,28,266,42,1*53
$GPGSV,3,1,09,03,23,041,40,06,56,304,48,14,33,176,44,09,18,127,28,4*6C
$GPGSV,3,2,09,17,63,069,46,19,64,358,45,22,55,196,44,04,15,085,31,4*63
$GPGSV,3,3,09,11,28,266,42,4*56
$GPGSV,2,1,06,03,23,041,45,06,56,304,51,14,33,176,45,09,18,127,32,8*69
$GPGSV,2,2,06,04,15,085,34,11,28,266,45,8*68
$GLGSV,2,1,07,74,36,233,44,73,11,194,22,75,31,301,49,69,41,097,52,1*7C
$GLGSV,2,2,07,84,44,011,43,85,26,302,48,68,21,041,47,1*4B
$GLGSV,2,1,06,73,11,194,28,75,31,301,45,69,41,097,49,84,44,011,44,3*7B
$GLGSV,2,2,06,85,26,302,44,68,21,041,44,3*7C
$GBGSV,6,1,21,01,44,137,44,02,36,230,41,03,51,195,44,07,87,159,47,1*79
$GBGSV,6,2,21,08,59,219,44,10,75,306,45,12,44,315,45,13,46,220,45,1*7C
$GBGSV,6,3,21,22,49,117,47,24,29,249,46,26,14,199,26,38,73,222,48,1*7C
$GBGSV,6,4,21,40,74,090,48,59,45,144,45,60,34,236,45,04,33,120,40,1*7C
$GBGSV,6,5,21,19,26,052,44,44,60,349,50,25,13,303,26,21,22,176,41,1*77
$GBGSV,6,6,21,34,20,295,42,1*48
$GBGSV,6,1,21,01,44,137,44,02,36,230,41,03,51,195,45,07,87,159,48,8*7E
$GBGSV,6,2,21,08,59,219,47,10,75,306,47,12,44,315,48,13,46,220,45,8*79
$GBGSV,6,3,21,22,49,117,50,24,29,249,44,26,14,199,29,38,73,222,50,8*77
$GBGSV,6,4,21,40,74,090,50,59,45,144,48,60,34,236,44,04,33,120,42,8*72
$GBGSV,6,5,21,19,26,052,44,44,60,349,51,25,13,303,27,21,22,176,42,8*7D
$GBGSV,6,6,21,34,20,295,41,8*42
$GBGSV,3,1,09,01,44,137,46,02,36,230,45,03,51,195,48,07,87,159,49,B*01
$GBGSV,3,2,09,08,59,219,48,10,75,306,48,12,44,315,48,13,46,220,46,B*0F
$GBGSV,3,3,09,04,33,120,44,B*3B
$GAGSV,2,1,07,02,28,171,43,15,43,280,46,27,31,310,44,30,61,238,49,1*77
$GAGSV,2,2,07,34,57,012,49,36,16,056,38,05,19,104,36,1*4E
$GAGSV,2,1,08,02,28,171,45,15,43,280,50,27,31,310,44,30,61,238,51,2*73
$GAGSV,2,2,08,34,57,012,51,36,16,056,40,05,19,104,36,09,08,053,26,2*77
$GAGSV,2,1,08,02,28,171,41,15,43,280,45,27,31,310,44,30,61,238,47,7*71
$GAGSV,2,2,08,34,57,012,46,36,16,056,36,05,19,104,30,09,08,053,21,7*74
$GNGGA,075824.00,3207.95347533,N,11841.73959844,E,1,28,0.7,7.8580,M,1.7757,M,,*49
$GNRMC,075824.00,A,3207.95347533,N,11841.73959844,E,0.006,164.2,030424,6.1,W,A,C*50
#HEADINGA,COM3,9984,91.0,FINE,2308,287922.000,2817925,16,18;SOL_COMPUTED,NARROW_INT,1.9942,239.5647,0.3020,0.0000,0.1303,0.2612,"999",52,40,40,36,0,01,3,f3*943b41c0
$GPGSV,3,1,09,03,23,041,38,06,56,304,46,14,33,176,44,09,18,127,29,1*69
$GPGSV,3,2,09,17,63,069,46,19,64,358,46,22,55,196,47,04,15,085,33,1*64
$GPGSV,3,3,09,11,28,266,42,1*53
$GPGSV,3,1,09,03,23,041,40,06,56,304,48,14,33,176,44,09,18,127,28,4*6C
$GPGSV,3,2,09,17,63,069,46,19,64,358,45,22,55,196,44,04,15,085,31,4*63
$GPGSV,3,3,09,11,28,266,42,4*56
$GPGSV,2,1,06,03,23,041,46,06,56,304,51,14,33,176,45,09,18,127,32,8*6A
$GPGSV,2,2,06,04,15,085,34,11,28,266,45,8*68
$GLGSV,2,1,07,74,36,233,44,73,11,194,22,75,31,301,49,69,41,097,52,1*7C
$GLGSV,2,2,07,84,44,011,43,85,26,302,48,68,21,041,48,1*44
$GLGSV,2,1,06,73,11,194,29,75,31,301,45,69,41,097,49,84,44,011,44,3*7A
$GLGSV,2,2,06,85,26,302,44,68,21,041,45,3*7D
$GBGSV,6,1,21,01,44,137,43,02,36,230,41,03,51,195,44,07,87,159,47,1*7E
$GBGSV,6,2,21,08,59,219,44,10,75,306,45,12,44,315,45,13,46,220,45,1*7C
$GBGSV,6,3,21,22,49,117,47,24,29,249,46,26,14,199,27,38,73,222,48,1*7D
$GBGSV,6,4,21,40,74,090,48,59,45,144,45,60,34,236,45,04,33,120,40,1*7C
$GBGSV,6,5,21,19,26,052,44,44,60,349,49,25,13,303,25,21,22,176,41,1*7C
$GBGSV,6,6,21,34,20,295,42,1*48
$GBGSV,6,1,21,01,44,137,44,02,36,230,41,03,51,195,45,07,87,159,48,8*7E
$GBGSV,6,2,21,08,59,219,47,10,75,306,47,12,44,315,48,13,46,220,45,8*79
$GBGSV,6,3,21,22,49,117,50,24,29,249,44,26,14,199,29,38,73,222,50,8*77
$GBGSV,6,4,21,40,74,090,50,59,45,144,48,60,34,236,44,04,33,120,42,8*72
$GBGSV,6,5,21,19,26,052,44,44,60,349,51,25,13,303,26,21,22,176,42,8*7C
$GBGSV,6,6,21,34,20,295,41,8*42
$GBGSV,3,1,09,01,44,137,46,02,36,230,45,03,51,195,48,07,87,159,49,B*01
$GBGSV,3,2,09,08,59,219,48,10,75,306,48,12,44,315,48,13,46,220,45,B*0C
$GBGSV,3,3,09,04,33,120,44,B*3B
$GAGSV,2,1,07,02,28,171,43,15,43,280,46,27,31,310,44,30,61,238,49,1*77
$GAGSV,2,2,07,34,57,012,49,36,16,056,39,05,19,104,36,1*4F
$GAGSV,2,1,08,02,28,171,45,15,43,280,49,27,31,310,44,30,61,238,51,2*7B
$GAGSV,2,2,08,34,57,012,51,36,16,056,39,05,19,104,36,09,08,053,26,2*79
$GAGSV,2,1,08,02,28,171,41,15,43,280,45,27,31,310,44,30,61,238,47,7*71
$GAGSV,2,2,08,34,57,012,46,36,16,056,35,05,19,104,30,09,08,053,21,7*77
$GNGGA,075825.00,3207.95347557,N,11841.73959967,E,1,28,0.7,7.8563,M,1.7757,M,,*47
$GNRMC,075825.00,A,3207.95347557,N,11841.73959967,E,0.007,161.7,030424,6.1,W,A,C*52
#HEADINGA,COM3,9984,91.0,FINE,2308,287923.000,2818925,16,18;SOL_COMPUTED,NARROW_INT,1.9942,239.6373,0.3019,0.0000,0.1307,0.2612,"999",53,40,40,36,0,01,3,f3*e460182c
$GPGSV,3,1,09,03,23,041,38,06,56,304,46,14,33,176,44,09,18,127,29,1*69
$GPGSV,3,2,09,17,63,069,46,19,64,358,46,22,55,196,47,04,15,085,33,1*64
$GPGSV,3,3,09,11,28,266,42,1*53
$GPGSV,3,1,09,03,23,041,40,06,56,304,48,14,33,176,44,09,18,127,27,4*63
$GPGSV,3,2,09,17,63,069,46,19,64,358,45,22,55,196,44,04,15,085,31,4*63
$GPGSV,3,3,09,11,28,266,42,4*56
$GPGSV,2,1,06,03,23,041,45,06,56,304,51,14,33,176,45,09,18,127,32,8*69
$GPGSV,2,2,06,04,15,085,34,11,28,266,45,8*68
$GLGSV,2,1,07,74,36,233,44,73,11,194,25,75,31,301,49,69,41,097,52,1*7B
$GLGSV,2,2,07,84,44,012,42,85,26,302,48,68,21,041,48,1*46
$GLGSV,2,1,06,73,11,194,28,75,31,301,45,69,41,097,49,84,44,012,44,3*78
$GLGSV,2,2,06,85,26,302,44,68,21,041,45,3*7D
$GBGSV,6,1,21,01,44,137,44,02,36,230,41,03,51,195,44,07,87,159,47,1*79
$GBGSV,6,2,21,08,59,219,44,10,75,306,45,12,44,315,45,13,46,220,45,1*7C
$GBGSV,6,3,21,22,49,117,47,24,29,249,46,26,14,199,28,38,73,222,48,1*72
$GBGSV,6,4,21,40,74,090,48,59,45,144,45,60,34,236,44,04,33,120,40,1*7D
$GBGSV,6,5,21,19,26,052,44,44,60,349,49,25,13,303,26,21,22,176,41,1*7F
$GBGSV,6,6,21,34,20,295,42,1*48
$GBGSV,6,1,21,01,44,137,44,02,36,230,40,03,51,195,45,07,87,159,48,8*7F
$GBGSV,6,2,21,08,59,219,47,10,75,306,47,12,44,315,48,13,46,220,45,8*79
$GBGSV,6,3,21,22,49,117,50,24,29,249,44,26,14,199,28,38,73,222,50,8*76
$GBGSV,6,4,21,40,74,090,50,59,45,144,48,60,34,236,44,04,33,120,41,8*71
$GBGSV,6,5,21,19,26,052,44,44,60,349,51,25,13,303,26,21,22,176,42,8*7C
$GBGSV,6,6,21,34,20,295,41,8*42
$GBGSV,3,1,09,01,44,137,46,02,36,230,45,03,51,195,48,07,87,159,49,B*01
$GBGSV,3,2,09,08,59,219,48,10,75,306,48,12,44,315,48,13,46,220,45,B*0C
$GBGSV,3,3,09,04,33,120,44,B*3B
$GAGSV,2,1,07,02,28,171,43,15,43,280,46,27,31,310,44,30,61,238,49,1*77
$GAGSV,2,2,07,34,57,012,49,36,16,056,39,05,19,104,36,1*4F
$GAGSV,2,1,08,02,28,171,45,15,43,280,49,27,31,310,44,30,61,238,51,2*7B
$GAGSV,2,2,08,34,57,012,51,36,16,056,39,05,19,104,36,09,08,053,25,2*7A
$GAGSV,2,1,08,02,28,171,41,15,43,280,45,27,31,310,44,30,61,238,47,7*71
$GAGSV,2,2,08,34,57,012,46,36,16,056,35,05,19,104,29,09,08,053,20,7*7E
$GNGGA,075826.00,3207.95347569,N,11841.73960088,E,1,28,0.7,7.8549,M,1.7757,M,,*43
$GNRMC,075826.00,A,3207.95347569,N,11841.73960088,E,0.007,164.3,030424,6.1,W,A,C*5F
#HEADINGA,COM3,9984,91.0,FINE,2308,287924.000,2819924,16,18;SOL_COMPUTED,NARROW_INT,1.9942,239.7100,0.3019,0.0000,0.1308,0.2613,"999",52,40,40,35,0,01,3,f3*231bce93
$GPGSV,3,1,09,03,23,041,38,06,56,304,46,14,33,176,44,09,18,127,28,1*68
$GPGSV,3,2,09,17,63,069,45,19,64,358,45,22,54,196,46,04,15,085,33,1*64
$GPGSV,3,3,09,11,28,266,42,1*53
$GPGSV,3,1,09,03,23,041,40,06,56,304,48,14,33,176,44,09,18,127,27,4*63
$GPGSV,3,2,09,17,63,069,46,19,64,358,45,22,54,196,44,04,15,085,31,4*62
$GPGSV,3,3,09,11,28,266,42,4*56
$GPGSV,2,1,06,03,23,041,45,06,56,304,51,14,33,176,45,09,18,127,32,8*69
$GPGSV,2,2,06,04,15,085,33,11,28,266,45,8*6F
$GLGSV,2,1,07,74,36,233,43,73,11,194,26,75,31,301,49,69,41,097,52,1*7F
$GLGSV,2,2,07,84,44,012,42,85,26,302,48,68,21,041,48,1*46
$GLGSV,2,1,06,73,11,194,27,75,31,301,45,69,41,097,50,84,44,012,44,3*7F
$GLGSV,2,2,06,85,26,302,44,68,21,041,44,3*7C
$GBGSV,6,1,21,01,44,137,44,02,36,230,41,03,51,195,44,07,87,159,47,1*79
$GBGSV,6,2,21,08,59,219,44,10,75,306,45,12,44,315,45,13,46,220,45,1*7C
$GBGSV,6,3,21,22,49,117,48,24,29,249,46,26,14,199,27,38,73,222,48,1*72
$GBGSV,6,4,21,40,74,090,48,59,45,144,46,60,34,236,45,04,33,120,40,1*7F
$GBGSV,6,5,21,19,26,052,43,44,60,349,49,25,13,303,27,21,23,176,41,1*78
$GBGSV,6,6,21,34,20,295,42,1*48
$GBGSV,6,1,21,01,44,137,44,02,36,230,40,03,51,195,45,07,87,159,48,8*7F
$GBGSV,6,2,21,08,59,219,47,10,75,306,47,12,44,315,48,13,46,220,45,8*79
$GBGSV,6,3,21,22,49,117,50,24,29,249,44,26,14,199,28,38,73,222,50,8*76
$GBGSV,6,4,21,40,74,090,50,59,45,144,48,60,34,236,43,04,33,120,41,8*76
$GBGSV,6,5,21,19,26,052,44,44,60,349,51,25,13,303,26,21,23,176,42,8*7D
$GBGSV,6,6,21,34,20,295,41,8*42
$GBGSV,3,1,09,01,44,137,46,02,36,230,45,03,51,195,48,07,87,159,49,B*01
$GBGSV,3,2,09,08,59,219,48,10,75,306,48,12,44,315,48,13,46,220,45,B*0C
$GBGSV,3,3,09,04,33,120,44,B*3B
$GAGSV,2,1,07,02,28,171,43,15,43,280,46,27,31,310,44,30,61,238,49,1*77
$GAGSV,2,2,07,34,57,012,49,36,16,056,39,05,19,104,36,1*4F
$GAGSV,2,1,08,02,28,171,45,15,43,280,49,27,31,310,44,30,61,238,51,2*7B
$GAGSV,2,2,08,34,57,012,51,36,16,056,39,05,19,104,36,09,08,053,24,2*7B
$GAGSV,2,1,08,02,28,171,41,15,43,280,45,27,31,310,44,30,61,238,47,7*71
$GAGSV,2,2,08,34,57,012,46,36,16,056,35,05,19,104,30,09,08,053,19,7*7C
$GNGGA,075827.00,3207.95347575,N,11841.73960219,E,1,28,0.7,7.8537,M,1.7757,M,,*4C
$GNRMC,075827.00,A,3207.95347575,N,11841.73960219,E,0.008,162.2,030424,6.1,W,A,C*51
#HEADINGA,COM3,9984,91.0,FINE,2308,287925.000,2820925,16,18;SOL_COMPUTED,NARROW_INT,1.9942,239.7825,0.3018,0.0000,0.1308,0.2613,"999",52,40,40,36,0,01,3,f3*869a64db
$GPGSV,3,1,09,03,23,041,38,06,56,304,46,14,33,176,44,09,18,127,28,1*68
$GPGSV,3,2,09,17,63,070,45,19,64,358,45,22,54,195,46,04,15,085,33,1*6F
$GPGSV,3,3,09,11,28,266,42,1*53
$GPGSV,3,1,09,03,23,041,40,06,56,304,48,14,33,176,44,09,18,127,27,4*63
$GPGSV,3,2,09,17,63,070,46,19,64,358,45,22,54,195,44,04,15,085,30,4*68
$GPGSV,3,3,09,11,28,266,42,4*56
$GPGSV,2,1,06,03,23,041,46,06,56,304,51,14,33,176,45,09,18,127,32,8*6A
$GPGSV,2,2,06,04,15,085,33,11,28,266,45,8*6F
$GLGSV,2,1,07,74,36,233,44,73,11,194,26,75,31,301,49,69,41,097,52,1*78
$GLGSV,2,2,07,84,44,012,42,85,26,302,48,68,21,041,48,1*46
$GLGSV,2,1,06,73,11,194,27,75,31,301,45,69,41,097,50,84,44,012,44,3*7F
$GLGSV,2,2,06,85,26,302,44,68,21,041,45,3*7D
$GBGSV,6,1,21,01,44,137,44,02,36,230,41,03,51,195,44,07,87,159,47,1*79
$GBGSV,6,2,21,08,59,219,44,10,75,306,45,12,44,315,45,13,46,220,45,1*7C
$GBGSV,6,3,21,22,49,117,48,24,29,249,46,26,14,199,28,38,73,222,48,1*7D
$GBGSV,6,4,21,40,74,090,48,59,45,144,45,60,34,236,44,04,33,120,40,1*7D
$GBGSV,6,5,21,19,26,052,43,44,60,349,49,25,13,303,28,21,23,176,41,1*77
$GBGSV,6,6,21,34,20,295,42,1*48
$GBGSV,6,1,21,01,44,137,44,02,36,230,41,03,51,195,45,07,87,159,48,8*7E
$GBGSV,6,2,21,08,59,219,47,10,75,306,47,12,44,315,48,13,46,220,45,8*79
$GBGSV,6,3,21,22,49,117,50,24,29,249,44,26,14,199,29,38,73,222,50,8*77
$GBGSV,6,4,21,40,74,090,50,59,45,144,48,60,34,236,44,04,33,120,41,8*71
$GBGSV,6,5,21,19,26,052,44,44,60,349,51,25,13,303,26,21,23,176,42,8*7D
$GBGSV,6,6,21,34,20,295,41,8*42
$GBGSV,3,1,09,01,44,137,46,02,36,230,45,03,51,195,48,07,87,159,49,B*01
$GBGSV,3,2,09,08,59,219,48,10,75,306,48,12,44,315,48,13,46,220,45,B*0C
$GBGSV,3,3,09,04,33,120,44,B*3B
$GAGSV,2,1,07,02,28,171,43,15,43,280,46,27,31,310,44,30,61,238,49,1*77
$GAGSV,2,2,07,34,57,012,49,36,16,056,39,05,19,104,36,1*4F
$GAGSV,2,1,08,02,28,171,45,15,43,280,49,27,31,310,44,30,61,238,51,2*7B
$GAGSV,2,2,08,34,57,012,51,36,16,056,40,05,19,104,36,09,08,053,25,2*74
$GAGSV,2,1,08,02,28,171,41,15,43,280,45,27,31,310,44,30,61,238,47,7*71
$GAGSV,2,2,08,34,57,012,46,36,16,056,35,05,19,104,29,09,08,053,19,7*74
$GNGGA,075828.00,3207.95347443,N,11841.73960146,E,1,28,0.7,7.8574,M,1.7757,M,,*49
$GNRMC,075828.00,A,3207.95347443,N,11841.73960146,E,0.008,157.0,030424,6.1,W,A,C*57
#HEADINGA,COM3,9984,91.0,FINE,2308,287926.000,2821925,16,18;SOL_COMPUTED,NARROW_INT,1.9942,239.8550,0.3017,0.0000,0.1308,0.2613,"999",52,40,40,35,0,01,3,f3*3d05a48c
$GPGSV,3,1,09,03,23,041,38,06,56,304,46,14,33,176,44,09,18,127,28,1*68
$GPGSV,3,2,09,17,63,070,46,19,64,358,45,22,54,195,46,04,15,085,34,1*6B
$GPGSV,3,3,09,11,28,266,43,1*52
$GPGSV,3,1,09,03,23,041,40,06,56,304,48,14,33,176,45,09,18,127,26,4*63
$GPGSV,3,2,09,17,63,070,46,19,64,358,45,22,54,195,44,04,15,085,30,4*68
$GPGSV,3,3,09,11,28,266,42,4*56
$GPGSV,2,1,06,03,23,041,45,06,56,304,51,14,33,176,45,09,18,127,32,8*69
$GPGSV,2,2,06,04,15,085,33,11,28,266,45,8*6F
$GLGSV,2,1,07,74,36,233,43,73,11,194,30,75,31,301,49,69,41,097,51,1*7B
$GLGSV,2,2,07,84,44,012,42,85,26,302,48,68,21,041,48,1*46
$GLGSV,2,1,06,73,11,194,29,75,31,301,45,69,41,097,50,84,44,012,44,3*71
$GLGSV,2,2,06,85,26,302,44,68,21,041,45,3*7D
$GBGSV,6,1,21,01,44,137,44,02,36,230,41,03,51,195,44,07,87,159,47,1*79
$GBGSV,6,2,21,08,59,219,43,10,75,306,45,12,44,315,45,13,46,220,45,1*7B
$GBGSV,6,3,21,22,49,117,47,24,29,249,46,26,14,199,29,38,73,222,48,1*73
$GBGSV,6,4,21,40,74,090,48,59,45,144,45,60,34,236,44,04,33,120,40,1*7D
$GBGSV,6,5,21,19,26,052,43,44,60,349,49,25,13,303,28,21,23,176,41,1*77
$GBGSV,6,6,21,34,20,295,42,1*48
$GBGSV,6,1,21,01,44,137,44,02,36,230,41,03,51,195,45,07,87,159,48,8*7E
$GBGSV,6,2,21,08,59,219,47,10,75,306,47,12,44,315,48,13,46,220,45,8*79
$GBGSV,6,3,21,22,49,117,50,24,29,249,44,26,14,199,29,38,73,222,50,8*77
$GBGSV,6,4,21,40,74,090,50,59,45,144,48,60,34,236,44,04,33,120,41,8*71
$GBGSV,6,5,21,19,26,052,44,44,60,349,51,25,13,303,26,21,23,176,42,8*7D
$GBGSV,6,6,21,34,20,295,41,8*42
$GBGSV,3,1,09,01,44,137,46,02,36,230,45,03,51,195,48,07,87,159,49,B*01
$GBGSV,3,2,09,08,59,219,48,10,75,306,48,12,44,315,48,13,46,220,45,B*0C
$GBGSV,3,3,09,04,33,120,44,B*3B
$GAGSV,2,1,07,02,28,171,43,15,43,280,47,27,31,310,44,30,61,238,49,1*76
$GAGSV,2,2,07,34,57,012,49,36,16,056,39,05,19,104,36,1*4F
$GAGSV,2,1,08,02,28,171,45,15,43,280,49,27,31,310,44,30,61,238,51,2*7B
$GAGSV,2,2,08,34,57,012,51,36,16,056,40,05,19,104,36,09,08,053,25,2*74
$GAGSV,2,1,08,02,28,171,41,15,43,280,45,27,31,310,44,30,61,238,47,7*71
$GAGSV,2,2,08,34,57,012,46,36,16,056,35,05,19,104,29,09,08,053,19,7*74
$GNGGA,075829.00,3207.95347318,N,11841.73960065,E,1,28,0.7,7.8613,M,1.7757,M,,*43
$GNRMC,075829.00,A,3207.95347318,N,11841.73960065,E,0.008,159.7,030424,6.1,W,A,C*56
#HEADINGA,COM3,9984,89.0,FINE,2308,287927.000,2822925,16,18;SOL_COMPUTED,NARROW_INT,1.9942,239.9274,0.3017,0.0000,0.1304,0.2609,"999",52,40,40,35,0,01,3,f3*429332da
$GPGSV,3,1,09,03,23,041,38,06,56,304,46,14,33,176,43,09,18,127,28,1*6F
$GPGSV,3,2,09,17,63,070,46,19,64,358,45,22,54,195,46,04,15,085,34,1*6B
$GPGSV,3,3,09,11,28,266,42,1*53
$GPGSV,3,1,09,03,23,041,40,06,56,304,48,14,33,176,44,09,18,127,27,4*63
$GPGSV,3,2,09,17,63,070,46,19,64,358,45,22,54,195,44,04,15,085,31,4*69
$GPGSV,3,3,09,11,28,266,42,4*56
$GPGSV,2,1,06,03,23,041,45,06,56,304,52,14,33,176,45,09,18,127,32,8*6A
$GPGSV,2,2,06,04,15,085,33,11,28,266,45,8*6F
$GLGSV,2,1,07,74,36,233,43,73,11,193,31,75,31,301,49,69,41,097,52,1*7E
$GLGSV,2,2,07,84,44,012,42,85,26,302,48,68,21,041,48,1*46
$GLGSV,2,1,06,73,11,193,28,75,31,301,45,69,41,097,50,84,44,012,43,3*70
$GLGSV,2,2,06,85,26,302,44,68,21,041,45,3*7D
$GBGSV,6,1,21,01,44,137,44,02,36,230,41,03,51,195,44,07,87,159,47,1*79
$GBGSV,6,2,21,08,59,219,43,10,75,306,45,12,44,315,45,13,46,220,45,1*7B
$GBGSV,6,3,21,22,49,117,47,24,29,249,46,26,14,199,29,38,73,222,48,1*73
$GBGSV,6,4,21,40,74,090,48,59,45,144,45,60,34,236,44,04,33,120,39,1*73
$GBGSV,6,5,21,19,26,052,43,44,60,349,49,25,13,303,28,21,23,176,41,1*77
$GBGSV,6,6,21,34,20,295,42,1*48
$GBGSV,6,1,21,01,44,137,44,02,36,230,40,03,51,195,45,07,87,159,48,8*7F
$GBGSV,6,2,21,08,59,219,47,10,75,306,47,12,44,315,48,13,46,220,45,8*79
$GBGSV,6,3,21,22,49,117,50,24,29,249,44,26,14,199,29,38,73,222,50,8*77
$GBGSV,6,4,21,40,74,090,50,59,45,144,48,60,34,236,43,04,33,120,41,8*76
$GBGSV,6,5,21,19,26,052,44,44,60,349,51,25,13,303,27,21,23,176,42,8*7C
$GBGSV,6,6,21,34,20,295,41,8*42
$GBGSV,3,1,09,01,44,137,46,02,36,230,45,03,51,195,47,07,87,159,49,B*0E
$GBGSV,3,2,09,08,59,219,48,10,75,306,48,12,44,315,48,13,46,220,45,B*0C
$GBGSV,3,3,09,04,33,120,43,B*3C
$GAGSV,2,1,07,02,28,171,43,15,43,280,46,27,31,310,44,30,61,238,49,1*77
$GAGSV,2,2,07,34,57,012,49,36,16,056,39,05,19,104,36,1*4F
$GAGSV,2,1,08,02,28,171,45,15,43,280,50,27,31,310,44,30,61,238,51,2*73
$GAGSV,2,2,08,34,57,012,51,36,16,056,40,05,19,104,37,09,08,053,25,2*75
$GAGSV,2,1,08,02,28,171,41,15,43,280,46,27,31,310,44,30,61,238,47,7*72
$GAGSV,2,2,08,34,57,012,46,36,16,056,35,05,19,104,29,09,08,053,18,7*75
$GNGGA,075830.00,3207.95347206,N,11841.73960003,E,1,28,0.7,7.8655,M,1.7757,M,,*47
$GNRMC,075830.00,A,3207.95347206,N,11841.73960003,E,0.008,150.6,030424,6.1,W,A,C*58
#HEADINGA,COM3,9984,89.0,FINE,2308,287928.000,2823925,16,18;SOL_COMPUTED,NARROW_INT,1.9942,239.9997,0.3016,0.0000,0.1303,0.2609,"999",52,40,40,35,0,01,3,f3*bd7db465
$GPGSV,3,1,09,03,23,041,38,06,56,304,46,14,33,176,43,09,18,127,27,1*60
$GPGSV,3,2,09,17,63,070,46,19,64,358,45,22,54,195,46,04,15,085,33,1*6C
$GPGSV,3,3,09,11,28,266,42,1*53
$GPGSV,3,1,09,03,23,041,40,06,56,304,48,14,33,176,44,09,18,127,26,4*62
$GPGSV,3,2,09,17,63,070,46,19,64,358,45,22,54,195,44,04,15,085,31,4*69
$GPGSV,3,3,09,11,28,266,42,4*56
$GPGSV,2,1,06,03,23,041,45,06,56,304,51,14,33,176,45,09,18,127,33,8*68
$GPGSV,2,2,06,04,15,085,32,11,28,266,45,8*6E
$GLGSV,2,1,07,74,36,233,43,73,11,193,32,75,31,301,49,69,41,097,52,1*7D
$GLGSV,2,2,07,84,44,012,42,85,26,302,49,68,21,041,48,1*47
$GLGSV,2,1,06,73,11,193,28,75,31,301,44,69,41,097,50,84,44,012,44,3*76
$GLGSV,2,2,06,85,26,302,44,68,21,041,45,3*7D
$GBGSV,6,1,21,01,44,137,44,02,36,230,41,03,51,195,44,07,87,159,47,1*79
$GBGSV,6,2,21,08,59,219,44,10,75,306,45,12,44,315,45,13,46,220,45,1*7C
$GBGSV,6,3,21,22,49,117,48,24,29,249,46,26,14,199,29,38,73,222,48,1*7C
$GBGSV,6,4,21,40,74,090,48,59,45,144,45,60,34,236,44,04,33,120,40,1*7D
$GBGSV,6,5,21,19,26,052,43,44,60,349,49,25,13,303,28,21,23,176,41,1*77
$GBGSV,6,6,21,34,20,295,42,1*48
$GBGSV,6,1,21,01,44,137,44,02,36,230,40,03,51,195,45,07,87,159,48,8*7F
$GBGSV,6,2,21,08,59,219,47,10,75,306,47,12,44,315,48,13,46,220,45,8*79
$GBGSV,6,3,21,22,49,117,50,24,29,249,44,26,14,199,29,38,73,222,50,8*77
$GBGSV,6,4,21,40,74,090,50,59,45,144,48,60,34,236,43,04,33,120,41,8*76
$GBGSV,6,5,21,19,26,052,44,44,60,349,51,25,13,303,27,21,23,176,42,8*7C
$GBGSV,6,6,21,34,20,295,41,8*42
$GBGSV,3,1,09,01,44,137,46,02,36,230,45,03,51,195,47,07,87,159,49,B*0E
$GBGSV,3,2,09,08,59,219,48,10,75,306,48,12,44,315,48,13,46,220,45,B*0C
$GBGSV,3,3,09,04,33,120,43,B*3C
$GAGSV,2,1,07,02,28,171,43,15,43,280,47,27,31,310,44,30,61,238,49,1*76
$GAGSV,2,2,07,34,57,012,49,36,16,056,39,05,19,104,37,1*4E
$GAGSV,2,1,08,02,28,171,45,15,43,280,50,27,31,310,44,30,61,238,51,2*73
$GAGSV,2,2,08,34,57,012,51,36,16,056,40,05,19,104,37,09,08,053,25,2*75
$GAGSV,2,1,08,02,28,171,42,15,43,280,46,27,31,310,44,30,61,238,47,7*71
$GAGSV,2,2,08,34,57,012,47,36,16,056,35,05,19,104,30,09,08,053,18,7*7C
$GNGGA,075831.00,3207.95347098,N,11841.73959943,E,1,28,0.7,7.8700,M,1.7757,M,,*45
$GNRMC,075831.00,A,3207.95347098,N,11841.73959943,E,0.007,151.4,030424,6.1,W,A,C*57
#HEADINGA,COM3,9984,90.0,FINE,2308,287929.000,2824925,16,18;SOL_COMPUTED,NARROW_INT,1.9942,240.0720,0.3016,0.0000,0.1303,0.2594,"999",52,40,40,36,0,01,3,f3*6afddc6f
$GPGSV,3,1,09,03,23,041,38,06,56,304,46,14,33,176,43,09,18,127,27,1*60
$GPGSV,3,2,09,17,63,070,46,19,64,358,45,22,54,195,46,04,15,085,33,1*6C
$GPGSV,3,3,09,11,28,266,42,1*53
$GPGSV,3,1,09,03,23,041,40,06,56,304,48,14,33,176,44,09,18,127,27,4*63
$GPGSV,3,2,09,17,63,070,46,19,64,358,45,22,54,195,44,04,15,085,31,4*69
$GPGSV,3,3,09,11,28,266,42,4*56
$GPGSV,2,1,06,03,23,041,45,06,56,304,52,14,33,176,45,09,18,127,32,8*6A
$GPGSV,2,2,06,04,15,085,32,11,28,266,45,8*6E
$GLGSV,2,1,07,74,36,233,43,73,11,193,33,75,31,301,49,69,41,097,51,1*7F
$GLGSV,2,2,07,84,44,012,42,85,26,302,48,68,21,041,48,1*46
$GLGSV,2,1,06,73,11,193,29,75,31,301,45,69,41,097,50,84,44,012,44,3*76
$GLGSV,2,2,06,85,26,302,44,68,21,041,45,3*7D
$GBGSV,6,1,21,01,44,137,44,02,36,230,41,03,51,195,44,07,87,159,47,1*79
$GBGSV,6,2,21,08,59,219,44,10,75,306,45,12,44,315,45,13,46,220,45,1*7C
$GBGSV,6,3,21,22,49,117,48,24,29,249,46,26,14,199,29,38,73,222,48,1*7C
$GBGSV,6,4,21,40,74,090,48,59,45,144,45,60,34,236,45,04,33,120,40,1*7C
$GBGSV,6,5,21,19,26,052,43,44,60,349,49,25,13,303,28,21,23,176,41,1*77
$GBGSV,6,6,21,34,20,295,42,1*48
$GBGSV,6,1,21,01,44,137,44,02,36,230,40,03,51,195,45,07,87,159,48,8*7F
$GBGSV,6,2,21,08,59,219,47,10,75,306,47,12,44,315,48,13,46,220,45,8*79
$GBGSV,6,3,21,22,49,117,50,24,29,249,44,26,14,199,29,38,73,222,50,8*77
$GBGSV,6,4,21,40,74,090,50,59,45,144,48,60,34,236,43,04,33,120,41,8*76
$GBGSV,6,5,21,19,26,052,44,44,60,349,51,25,13,303,27,21,23,176,42,8*7C
$GBGSV,6,6,21,34,20,295,41,8*42
$GBGSV,3,1,09,01,44,137,46,02,36,230,45,03,51,195,47,07,87,159,49,B*0E
$GBGSV,3,2,09,08,59,219,48,10,75,306,48,12,44,315,48,13,46,220,45,B*0C
$GBGSV,3,3,09,04,33,120,43,B*3C
$GAGSV,2,1,07,02,28,171,43,15,43,280,47,27,31,310,44,30,61,238,49,1*76
$GAGSV,2,2,07,34,57,012,49,36,16,056,39,05,19,104,37,1*4E
$GAGSV,2,1,08,02,28,171,45,15,43,280,50,27,31,310,44,30,61,238,51,2*73
$GAGSV,2,2,08,34,57,012,51,36,16,056,40,05,19,104,37,09,08,053,25,2*75
$GAGSV,2,1,08,02,28,171,42,15,43,280,46,27,31,310,44,30,61,238,47,7*71
$GAGSV,2,2,08,34,57,012,46,36,16,056,35,05,19,104,30,09,08,053,18,7*7D
$GNGGA,075832.00,3207.95346986,N,11841.73959884,E,1,28,0.7,7.8745,M,1.7757,M,,*4A
$GNRMC,075832.00,A,3207.95346986,N,11841.73959884,E,0.008,153.7,030424,6.1,W,A,C*57
#HEADINGA,COM3,9984,90.0,FINE,2308,287930.000,2825924,17,18;SOL_COMPUTED,NARROW_INT,1.9942,240.1441,0.3015,0.0000,0.1299,0.2589,"999",52,41,41,36,0,01,3,f3*e750cbd9
$GPGSV,3,1,09,03,23,041,38,06,56,304,46,14,33,176,43,09,18,127,26,1*61
$GPGSV,3,2,09,17,63,070,46,19,64,358,45,22,54,195,46,04,15,085,33,1*6C
$GPGSV,3,3,09,11,28,266,43,1*52
$GPGSV,3,1,09,03,23,041,40,06,56,304,48,14,33,176,44,09,18,127,26,4*62
$GPGSV,3,2,09,17,63,070,46,19,64,358,45,22,54,195,44,04,15,085,31,4*69
$GPGSV,3,3,09,11,28,266,42,4*56
$GPGSV,2,1,06,03,23,041,45,06,56,304,52,14,33,176,45,09,18,127,33,8*6B
$GPGSV,2,2,06,04,15,085,33,11,28,266,45,8*6F
$GLGSV,2,1,07,74,36,233,44,73,11,193,33,75,31,301,50,69,41,097,52,1*73
$GLGSV,2,2,07,84,44,012,42,85,26,302,49,68,21,041,48,1*47
$GLGSV,2,1,06,73,11,193,29,75,31,301,45,69,41,097,50,84,44,012,44,3*76
$GLGSV,2,2,06,85,26,302,44,68,21,041,45,3*7D
$GBGSV,6,1,21,01,44,137,44,02,36,230,41,03,51,195,44,07,87,159,47,1*79
$GBGSV,6,2,21,08,59,219,44,10,75,306,45,12,44,315,45,13,46,220,46,1*7F
$GBGSV,6,3,21,22,49,117,48,24,29,249,46,26,14,199,29,38,73,222,49,1*7D
$GBGSV,6,4,21,40,74,090,48,59,45,144,46,60,34,236,45,04,33,120,40,1*7F
$GBGSV,6,5,21,19,26,052,44,44,60,349,49,25,13,303,29,21,23,176,41,1*71
$GBGSV,6,6,21,34,20,295,42,1*48
$GBGSV,6,1,21,01,44,137,44,02,36,230,40,03,51,195,45,07,87,159,48,8*7F
$GBGSV,6,2,21,08,59,219,47,10,75,306,47,12,44,315,48,13,46,220,45,8*79
$GBGSV,6,3,21,22,49,117,50,24,29,249,44,26,14,199,29,38,73,222,50,8*77
$GBGSV,6,4,21,40,74,090,50,59,45,144,48,60,34,236,43,04,33,120,41,8*76
$GBGSV,6,5,21,19,26,052,44,44,60,349,51,25,13,303,27,21,23,176,42,8*7C
$GBGSV,6,6,21,34,20,295,41,8*42
$GBGSV,3,1,09,01,44,137,46,02,36,230,45,03,51,195,47,07,87,159,49,B*0E
$GBGSV,3,2,09,08,59,219,48,10,75,306,48,12,44,315,48,13,46,220,45,B*0C
$GBGSV,3,3,09,04,33,120,43,B*3C
$GAGSV,2,1,07,02,28,171,43,15,43,280,46,27,31,310,44,30,61,238,49,1*77
$GAGSV,2,2,07,34,57,012,49,36,16,056,39,05,19,104,37,1*4E
$GAGSV,2,1,08,02,28,171,45,15,43,280,50,27,31,310,44,30,61,238,51,2*73
$GAGSV,2,2,08,34,57,012,51,36,16,056,40,05,19,104,37,09,08,053,25,2*75
$GAGSV,2,1,08,02,28,171,42,15,43,280,46,27,31,310,44,30,61,238,47,7*71
$GAGSV,2,2,08,34,57,012,47,36,16,056,35,05,19,104,30,09,08,053,18,7*7C
$GNGGA,075833.00,3207.95346865,N,11841.73959822,E,1,28,0.7,7.8790,M,1.7757,M,,*43
$GNRMC,075833.00,A,3207.95346865,N,11841.73959822,E,0.008,157.9,030424,6.1,W,A,C*5C
#HEADINGA,COM3,9984,89.0,FINE,2308,287931.000,2826927,16,18;SOL_COMPUTED,NARROW_INT,1.9942,240.2163,0.3014,0.0000,0.1298,0.2587,"999",52,41,41,36,0,01,3,f3*f3284ab8
$GPGSV,3,1,09,03,23,041,38,06,56,304,46,14,33,176,43,09,18,127,26,1*61
$GPGSV,3,2,09,17,63,070,46,19,64,358,45,22,54,195,45,04,15,085,33,1*6F
$GPGSV,3,3,09,11,28,266,42,1*53
$GPGSV,3,1,09,03,23,041,40,06,56,304,48,14,33,176,44,09,18,127,26,4*62
$GPGSV,3,2,09,17,63,070,46,19,64,358,45,22,54,195,44,04,15,085,31,4*69
$GPGSV,3,3,09,11,28,266,42,4*56
$GPGSV,2,1,06,03,23,041,45,06,56,304,52,14,33,176,45,09,18,127,33,8*6B
$GPGSV,2,2,06,04,15,085,33,11,28,266,45,8*6F
$GLGSV,2,1,07,74,36,233,44,73,11,193,34,75,31,301,50,69,41,097,52,1*74
$GLGSV,2,2,07,84,44,012,42,85,26,302,49,68,21,041,47,1*48
$GLGSV,2,1,06,73,11,193,28,75,31,301,45,69,41,097,50,84,44,012,44,3*77
$GLGSV,2,2,06,85,26,302,44,68,21,041,45,3*7D
$GBGSV,6,1,21,01,44,137,44,02,36,230,41,03,51,195,44,07,87,159,47,1*79
$GBGSV,6,2,21,08,59,219,44,10,75,306,45,12,44,315,45,13,46,220,46,1*7F
$GBGSV,6,3,21,22,49,117,48,24,29,249,46,26,14,199,29,38,73,222,49,1*7D
$GBGSV,6,4,21,40,74,090,48,59,45,144,46,60,34,236,44,04,33,120,40,1*7E
$GBGSV,6,5,21,19,26,052,44,44,60,349,49,25,13,303,29,21,23,176,41,1*71
$GBGSV,6,6,21,34,20,295,42,1*48
$GBGSV,6,1,21,01,44,137,44,02,36,230,40,03,51,195,45,07,87,159,48,8*7F
$GBGSV,6,2,21,08,59,219,47,10,75,306,47,12,44,315,48,13,46,220,45,8*79
$GBGSV,6,3,21,22,49,117,50,24,29,249,44,26,14,199,29,38,73,222,50,8*77
$GBGSV,6,4,21,40,74,090,50,59,45,144,48,60,34,236,43,04,33,120,41,8*76
$GBGSV,6,5,21,19,26,052,44,44,60,349,51,25,13,303,28,21,23,176,42,8*73
$GBGSV,6,6,21,34,20,295,42,8*41
$GBGSV,3,1,09,01,44,137,46,02,36,230,45,03,51,195,47,07,87,159,49,B*0E
$GBGSV,3,2,09,08,59,219,48,10,75,306,48,12,44,315,48,13,46,220,45,B*0C
$GBGSV,3,3,09,04,33,120,43,B*3C
$GAGSV,2,1,07,02,28,171,43,15,43,280,46,27,31,310,44,30,61,238,49,1*77
$GAGSV,2,2,07,34,57,012,49,36,16,056,39,05,19,104,37,1*4E
$GAGSV,2,1,08,02,28,171,45,15,43,280,49,27,31,310,44,30,61,238,51,2*7B
$GAGSV,2,2,08,34,57,012,51,36,16,056,40,05,19,104,37,09,08,053,25,2*75
$GAGSV,2,1,08,02,28,171,42,15,43,280,46,27,31,310,45,30,61,238,47,7*70
$GAGSV,2,2,08,34,57,012,47,36,16,056,35,05,19,104,30,09,08,053,18,7*7C
$GNGGA,075834.00,3207.95346759,N,11841.73959757,E,1,28,0.7,7.8836,M,1.7757,M,,*4A
$GNRMC,075834.00,A,3207.95346759,N,11841.73959757,E,0.007,157.8,030424,6.1,W,A,C*58
#HEADINGA,COM3,9984,89.0,FINE,2308,287932.000,2827924,17,18;SOL_COMPUTED,NARROW_INT,1.9942,240.2883,0.3014,0.0000,0.1301,0.2589,"999",52,41,41,36,0,01,3,f3*ea62c39c
$GPGSV,3,1,09,03,23,041,38,06,56,304,46,14,33,176,43,09,18,127,26,1*61
$GPGSV,3,2,09,17,63,070,46,19,64,358,45,22,54,195,45,04,15,085,33,1*6F
$GPGSV,3,3,09,11,28,266,42,1*53
$GPGSV,3,1,09,03,23,041,40,06,56,304,47,14,33,176,44,09,18,127,25,4*6E
$GPGSV,3,2,09,17,63,070,46,19,64,358,45,22,54,195,43,04,15,085,31,4*6E
$GPGSV,3,3,09,11,28,266,42,4*56
$GPGSV,2,1,06,03,23,041,46,06,56,304,52,14,33,176,45,09,18,127,33,8*68
$GPGSV,2,2,06,04,15,085,32,11,28,266,45,8*6E
$GLGSV,2,1,07,74,36,233,44,73,11,193,33,75,31,301,50,69,41,097,51,1*70
$GLGSV,2,2,07,84,44,012,42,85,26,302,49,68,21,041,47,1*48
$GLGSV,2,1,06,73,11,193,30,75,31,301,45,69,41,097,50,84,44,012,43,3*79
$GLGSV,2,2,06,85,26,302,44,68,21,041,45,3*7D
$GBGSV,6,1,21,01,44,137,44,02,36,230,41,03,51,195,44,07,87,159,47,1*79
$GBGSV,6,2,21,08,60,219,44,10,75,306,45,12,44,315,45,13,46,220,45,1*76
$GBGSV,6,3,21,22,49,117,48,24,29,249,46,26,14,199,29,38,73,222,49,1*7D
$GBGSV,6,4,21,40,74,090,48,59,45,144,46,60,34,236,44,04,33,120,40,1*7E
$GBGSV,6,5,21,19,26,052,44,44,60,349,49,25,13,303,29,21,23,176,41,1*71
$GBGSV,6,6,21,34,20,295,42,1*48
$GBGSV,6,1,21,01,44,137,44,02,36,230,40,03,51,195,45,07,87,159,48,8*7F
$GBGSV,6,2,21,08,60,219,47,10,75,306,47,12,44,315,48,13,46,220,45,8*73
$GBGSV,6,3,21,22,49,117,50,24,29,249,44,26,14,199,29,38,73,222,50,8*77
$GBGSV,6,4,21,40,74,090,50,59,45,144,48,60,34,236,43,04,33,120,41,8*76
$GBGSV,6,5,21,19,26,052,44,44,60,349,51,25,13,303,28,21,23,176,42,8*73
$GBGSV,6,6,21,34,20,295,42,8*41
$GBGSV,3,1,09,01,44,137,46,02,36,230,45,03,51,195,47,07,87,159,49,B*0E
$GBGSV,3,2,09,08,60,219,48,10,75,306,48,12,44,315,48,13,46,220,45,B*06
$GBGSV,3,3,09,04,33,120,43,B*3C
$GAGSV,2,1,07,02,28,171,43,15,43,281,46,27,31,310,44,30,61,238,49,1*76
$GAGSV,2,2,07,34,57,012,49,36,16,056,39,05,19,104,37,1*4E
$GAGSV,2,1,08,02,28,171,44,15,43,281,49,27,31,310,44,30,61,238,51,2*7B
$GAGSV,2,2,08,34,57,012,51,36,16,056,40,05,19,104,38,09,08,053,24,2*7B
$GAGSV,2,1,08,02,28,171,42,15,43,281,45,27,31,310,44,30,61,238,46,7*72
$GAGSV,2,2,08,34,57,012,46,36,16,056,35,05,19,104,29,09,08,053,18,7*75
$GNGGA,075835.00,3207.95346644,N,11841.73959692,E,1,28,0.7,7.8882,M,1.7757,M,,*41
$GNRMC,075835.00,A,3207.95346644,N,11841.73959692,E,0.007,160.5,030424,6.1,W,A,C*55
#HEADINGA,COM3,9984,90.0,FINE,2308,287933.000,2828924,17,18;SOL_COMPUTED,NARROW_INT,1.9942,240.3603,0.3013,0.0000,0.1306,0.2594,"999",52,40,40,35,0,01,3,f3*535e73c1
$GPGSV,3,1,09,03,23,041,38,06,56,304,46,14,33,176,43,09,18,127,25,1*62
$GPGSV,3,2,09,17,63,070,46,19,64,358,45,22,54,195,45,04,15,085,32,1*6E
$GPGSV,3,3,09,11,28,266,42,1*53
$GPGSV,3,1,09,03,23,041,40,06,56,304,47,14,33,176,44,09,18,127,22,4*69
$GPGSV,3,2,09,17,63,070,46,19,64,358,45,22,54,195,43,04,15,085,31,4*6E
$GPGSV,3,3,09,11,28,266,41,4*55
$GPGSV,2,1,06,03,23,041,46,06,56,304,52,14,33,176,46,09,18,127,33,8*6B
$GPGSV,2,2,06,04,15,085,32,11,28,266,46,8*6D
$GLGSV,2,1,07,74,36,233,44,73,11,193,33,75,31,301,50,69,41,097,52,1*73
$GLGSV,2,2,07,84,44,012,43,85,26,302,49,68,21,041,47,1*49
$GLGSV,2,1,06,73,11,193,30,75,31,301,45,69,41,097,50,84,44,012,43,3*79
$GLGSV,2,2,06,85,26,302,44,68,21,041,45,3*7D
$GBGSV,6,1,21,01,44,137,44,02,36,230,41,03,51,195,44,07,87,159,47,1*79
$GBGSV,6,2,21,08,60,219,43,10,75,306,45,12,44,315,45,13,46,220,45,1*71
$GBGSV,6,3,21,22,49,117,48,24,29,249,45,26,14,199,28,38,73,222,48,1*7E
$GBGSV,6,4,21,40,74,090,48,59,45,144,46,60,34,236,44,04,33,120,40,1*7E
$GBGSV,6,5,21,19,26,052,43,44,60,349,49,25,13,303,30,21,23,176,41,1*7E
$GBGSV,6,6,21,34,20,295,41,1*4B
$GBGSV,6,1,21,01,44,137,44,02,36,230,41,03,51,195,45,07,87,159,48,8*7E
$GBGSV,6,2,21,08,60,219,47,10,75,306,47,12,44,315,48,13,46,220,45,8*73
$GBGSV,6,3,21,22,49,117,50,24,29,249,44,26,14,199,29,38,73,222,50,8*77
$GBGSV,6,4,21,40,74,090,50,59,45,144,48,60,34,236,43,04,33,120,41,8*76
$GBGSV,6,5,21,19,26,052,44,44,60,349,51,25,13,303,29,21,23,176,42,8*72
$GBGSV,6,6,21,34,20,295,42,8*41
$GBGSV,3,1,09,01,44,137,46,02,36,230,45,03,51,195,47,07,87,159,49,B*0E
$GBGSV,3,2,09,08,60,219,48,10,75,306,48,12,44,315,48,13,46,220,45,B*06
$GBGSV,3,3,09,04,33,120,43,B*3C
$GAGSV,2,1,07,02,28,171,43,15,43,281,47,27,31,310,44,30,61,238,49,1*77
$GAGSV,2,2,07,34,57,012,49,36,16,056,39,05,19,104,38,1*41
$GAGSV,2,1,08,02,28,171,44,15,43,281,49,27,31,310,44,30,61,238,51,2*7B
