60,34,236,45,04,33,119,40,1*7D
$GBGSV,6,5,21,19,24,048,43,44,62,358,48,25,14,299,28,21,27,175,45,1*7B
$GBGSV,6,6,21,34,22,299,38,1*4B
$GBGSV,6,1,21,01,44,137,44,02,36,231,42,03,51,195,45,07,85,175,48,8*70
$GBGSV,6,2,21,08,61,225,47,10,76,299,47,12,47,321,49,13,47,224,45,8*79
$GBGSV,6,3,21,22,52,110,51,24,26,244,43,26,10,196,23,38,74,232,50,8*79
$GBGSV,6,4,21,40,74,100,50,59,45,144,47,60,34,236,44,04,33,119,42,8*7F
$GBGSV,6,5,21,19,24,048,46,44,62,358,51,25,14,299,32,21,27,175,45,8*74
$GBGSV,6,6,21,34,22,299,37,8*4D
$GBGSV,3,1,09,01,44,137,47,02,36,231,43,03,51,195,47,07,85,175,49,B*04
$GBGSV,3,2,09,08,61,225,48,10,76,299,48,12,47,321,49,13,47,224,46,B*0F
$GBGSV,3,3,09,04,33,119,43,B*36
$GAGSV,2,1,08,02,23,171,39,15,45,286,47,27,33,306,41,30,58,230,48,1*7C
$GAGSV,2,2,08,34,55,018,49,36,14,059,36,05,21,100,41,09,07,050,30,1*7D
$GAGSV,2,1,08,02,23,171,40,15,45,286,50,27,33,306,42,30,58,230,51,2*7C
$GAGSV,2,2,08,34,55,018,51,36,14,059,39,05,21,100,42,09,07,050,31,2*7A
$GAGSV,2,1,08,02,23,171,36,15,45,286,43,27,33,306,41,30,58,230,47,7*7E
$GAGSV,2,2,08,34,55,018,46,36,14,059,36,05,21,100,40,09,07,050,31,7*74
$GNGGA,080947.00,3207.95309538,N,11841.73889309,E,1,28,0.7,9.1680,M,1.7756,M,,*4D
$GNRMC,080947.00,A,3207.95309538,N,11841.73889309,E,0.008,181.1,030424,6.1,W,A,C*57
#HEADINGA,COM3,9984,88.0,FINE,2308,288605.000,3500924,17,18;SOL_COMPUTED,NARROW_INT,1.9937,278.0681,0.2149,0.0000,0.1168,0.2541,"999",51,42,42,37,0,01,3,f3*4bf9e402
$GPGSV,3,1,10,03,19,040,37,06,57,313,46,14,27,175,43,09,21,122,36,1*61
$GPGSV,3,2,10,17,61,081,46,19,68,009,46,22,49,193,47,04,16,080,22,1*6D
$GPGSV,3,3,10,11,31,271,44,20,18,218,29,1*68
$GPGSV,3,1,09,03,19,040,35,06,57,313,48,14,27,175,41,09,21,122,31,4*65
$GPGSV,3,2,09,17,61,081,46,19,68,009,45,22,49,193,43,04,16,080,32,4*66
$GPGSV,3,3,09,11,31,271,42,4*58
$GPGSV,2,1,06,03,19,040,43,06,57,313,52,14,27,175,46,09,21,122,33,8*68
$GPGSV,2,2,06,04,16,080,33,11,31,271,46,8*64
$GLGSV,2,1,06,74,31,228,43,75,32,294,48,69,43,089,50,84,43,020,41,1*73
$GLGSV,2,2,06,85,28,308,47,68,18,036,44,1*73
$GLGSV,2,1,05,75,32,294,46,69,43,089,50,84,43,020,44,85,28,308,41,3*7E
$GLGSV,2,2,05,68,18,036,42,3*4B
$GBGSV,6,1,21,01,44,137,43,02,36,231,38,03,51,195,44,07,85,175,46,1*7C
$GBGSV,6,2,21,08,61,225,44,10,76,299,45,12,47,321,45,13,47,224,43,1*7B
$GBGSV,6,3,21,22,52,110,48,24,26,244,43,26,10,196,20,38,74,232,48,1*72
$GBGSV,6,4,21,40,74,100,48,59,45,144,46,60,34,236,45,04,33,119,40,1*7D
$GBGSV,6,5,21,19,24,048,43,44,62,358,48,25,14,299,29,21,27,175,45,1*7A
$GBGSV,6,6,21,34,22,299,38,1*4B
$GBGSV,6,1,21,01,44,137,43,02,36,231,42,03,51,195,45,07,85,175,47,8*78
$GBGSV,6,2,21,08,61,225,47,10,76,299,47,12,47,321,49,13,47,224,44,8*78
$GBGSV,6,3,21,22,52,110,51,24,26,244,43,26,10,196,23,38,74,232,50,8*79
$GBGSV,6,4,21,40,74,100,50,59,45,144,47,60,34,236,44,04,33,119,42,8*7F
$GBGSV,6,5,21,19,24,048,45,44,62,358,50,25,14,299,32,21,27,175,45,8*76
$GBGSV,6,6,21,34,22,299,36,8*4C
$GBGSV,3,1,09,01,44,137,47,02,36,231,43,03,51,195,47,07,85,175,49,B*04
$GBGSV,3,2,09,08,61,225,48,10,76,299,48,12,47,321,49,13,47,224,46,B*0F
$GBGSV,3,3,09,04,33,119,43,B*36
$GAGSV,2,1,08,02,23,171,39,15,45,286,47,27,33,306,40,30,58,230,48,1*7D
$GAGSV,2,2,08,34,55,018,49,36,14,059,36,05,21,100,41,09,07,050,30,1*7D
$GAGSV,2,1,08,02,23,171,40,15,45,286,50,27,33,306,42,30,58,230,51,2*7C
$GAGSV,2,2,08,34,55,018,51,36,14,059,39,05,21,100,42,09,07,050,31,2*7A
$GAGSV,2,1,08,02,23,171,36,15,45,286,43,27,33,306,41,30,58,230,47,7*7E
$GAGSV,2,2,08,34,55,018,46,36,14,059,36,05,21,100,39,09,07,050,30,7*7B
$GNGGA,080948.00,3207.95309468,N,11841.73889437,E,1,28,0.7,9.1610,M,1.7756,M,,*45
$GNRMC,080948.00,A,3207.95309468,N,11841.73889437,E,0.008,180.3,030424,6.1,W,A,C*55
#HEADINGA,COM3,9984,88.0,FINE,2308,288606.000,3501924,17,18;SOL_COMPUTED,NARROW_INT,1.9937,278.1453,0.2145,0.0000,0.1165,0.2535,"999",51,42,42,37,0,01,3,f3*ee5fb4c2
$GPGSV,3,1,10,03,19,040,36,06,57,313,46,14,27,175,43,09,21,122,36,1*60
$GPGSV,3,2,10,17,61,081,46,19,68,009,47,22,49,193,47,04,16,080,25,1*6B
$GPGSV,3,3,10,11,31,271,44,20,18,218,29,1*68
$GPGSV,3,1,09,03,19,040,35,06,57,313,48,14,27,175,42,09,21,122,31,4*66
$GPGSV,3,2,09,17,61,081,46,19,68,009,45,22,49,193,43,04,16,080,32,4*66
$GPGSV,3,3,09,11,31,271,42,4*58
$GPGSV,2,1,06,03,19,040,43,06,57,313,52,14,27,175,46,09,21,122,35,8*6E
$GPGSV,2,2,06,04,16,080,33,11,31,271,46,8*64
$GLGSV,2,1,06,74,31,228,43,75,32,294,49,69,43,089,51,84,43,020,41,1*73
$GLGSV,2,2,06,85,28,308,48,68,18,036,44,1*7C
$GLGSV,2,1,05,75,32,294,46,69,43,089,50,84,43,020,44,85,28,308,42,3*7D
$GLGSV,2,2,05,68,18,036,41,3*48
$GBGSV,6,1,21,01,44,137,43,02,36,231,38,03,51,195,44,07,85,175,46,1*7C
$GBGSV,6,2,21,08,61,225,44,10,76,299,45,12,47,321,46,13,47,224,43,1*78
$GBGSV,6,3,21,22,52,110,49,24,26,244,44,26,10,196,20,38,74,232,48,1*74
$GBGSV,6,4,21,40,74,100,48,59,45,144,46,60,34,236,46,04,33,119,40,1*7E
$GBGSV,6,5,21,19,24,048,44,44,62,358,49,25,14,299,29,21,27,175,45,1*7C
$GBGSV,6,6,21,34,22,299,38,1*4B
$GBGSV,6,1,21,01,44,137,44,02,36,231,42,03,51,195,45,07,85,175,48,8*70
$GBGSV,6,2,21,08,61,225,47,10,76,299,47,12,47,321,49,13,47,224,45,8*79
$GBGSV,6,3,21,22,52,110,51,24,26,244,43,26,10,196,22,38,74,232,50,8*78
$GBGSV,6,4,21,40,74,100,51,59,45,144,47,60,34,236,44,04,33,119,42,8*7E
$GBGSV,6,5,21,19,24,048,46,44,62,358,51,25,14,299,32,21,27,175,45,8*74
$GBGSV,6,6,21,34,22,299,37,8*4D
$GBGSV,3,1,09,01,44,137,47,02,36,231,43,03,51,195,48,07,85,175,49,B*0B
$GBGSV,3,2,09,08,61,225,48,10,76,299,48,12,47,321,49,13,47,224,47,B*0E
$GBGSV,3,3,09,04,33,119,43,B*36
$GAGSV,2,1,08,02,23,171,39,15,45,286,47,27,33,306,41,30,58,230,48,1*7C
$GAGSV,2,2,08,34,55,018,49,36,14,059,36,05,21,100,41,09,07,050,29,1*75
$GAGSV,2,1,08,02,23,171,41,15,45,286,50,27,33,306,42,30,58,230,51,2*7D
$GAGSV,2,2,08,34,55,018,51,36,14,059,39,05,21,100,42,09,07,050,31,2*7A
$GAGSV,2,1,08,02,23,171,38,15,45,286,43,27,33,306,41,30,58,230,48,7*7F
$GAGSV,2,2,08,34,55,018,47,36,14,059,37,05,21,100,40,09,07,050,30,7*75
$GNGGA,080949.00,3207.95309351,N,11841.73889590,E,1,28,0.7,9.1544,M,1.7756,M,,*47
$GNRMC,080949.00,A,3207.95309351,N,11841.73889590,E,0.012,171.9,030424,6.1,W,A,C*5A
#HEADINGA,COM3,9984,90.0,FINE,2308,288607.000,3502925,16,18;SOL_COMPUTED,NARROW_INT,1.9937,278.2224,0.2141,0.0000,0.1170,0.2543,"999",51,42,42,37,0,01,3,f3*30c59cbe
$GPGSV,3,1,10,03,19,040,37,06,57,313,46,14,27,175,43,09,21,122,36,1*61
$GPGSV,3,2,10,17,61,081,46,19,68,009,46,22,49,193,47,04,16,080,26,1*69
$GPGSV,3,3,10,11,31,271,43,20,18,218,29,1*6F
$GPGSV,3,1,09,03,19,040,35,06,57,313,47,14,27,175,42,09,21,122,31,4*69
$GPGSV,3,2,09,17,61,081,46,19,68,009,45,22,49,193,43,04,16,080,32,4*66
$GPGSV,3,3,09,11,31,271,42,4*58
$GPGSV,2,1,06,03,19,040,43,06,57,313,51,14,27,175,46,09,21,122,35,8*6D
$GPGSV,2,2,06,04,16,080,33,11,31,271,46,8*64
$GLGSV,2,1,06,74,31,228,43,75,32,294,45,69,43,089,51,84,43,020,41,1*7F
$GLGSV,2,2,06,85,28,308,47,68,18,036,44,1*73
$GLGSV,2,1,05,75,32,294,42,69,43,089,50,84,43,020,44,85,28,308,42,3*79
$GLGSV,2,2,05,68,18,036,41,3*48
$GBGSV,6,1,21,01,44,137,43,02,36,231,38,03,51,195,44,07,85,175,46,1*7C
$GBGSV,6,2,21,08,61,225,44,10,76,299,45,12,47,321,45,13,47,224,43,1*7B
$GBGSV,6,3,21,22,52,110,48,24,26,244,44,26,10,196,20,38,74,232,47,1*7A
$GBGSV,6,4,21,40,74,100,48,59,45,144,46,60,34,236,45,04,33,119,40,1*7D
$GBGSV,6,5,21,19,24,048,44,44,62,358,48,25,14,299,28,21,27,175,45,1*7C
$GBGSV,6,6,21,34,22,299,40,1*44
$GBGSV,6,1,21,01,44,137,44,02,36,231,42,03,51,195,45,07,85,175,47,8*7F
$GBGSV,6,2,21,08,61,225,47,10,76,299,46,12,47,321,47,13,47,224,45,8*76
$GBGSV,6,3,21,22,52,110,50,24,26,244,43,26,10,196,22,38,74,232,50,8*79
$GBGSV,6,4,21,40,74,100,50,59,45,144,47,60,34,236,44,04,33,119,42,8*7F
$GBGSV,6,5,21,19,24,048,45,44,62,358,50,25,14,299,32,21,27,175,45,8*76
$GBGSV,6,6,21,34,22,299,38,8*42
$GBGSV,3,1,09,01,44,137,47,02,36,231,43,03,51,195,48,07,85,175,49,B*0B
$GBGSV,3,2,09,08,61,225,48,10,76,299,48,12,47,321,48,13,47,224,46,B*0E
$GBGSV,3,3,09,04,33,119,43,B*36
$GAGSV,2,1,08,02,23,171,39,15,45,286,44,27,33,306,42,30,58,230,48,1*7C
$GAGSV,2,2,08,34,55,018,49,36,14,059,36,05,21,100,41,09,07,050,29,1*75
$GAGSV,2,1,08,02,23,171,41,15,45,286,49,27,33,306,42,30,58,230,51,2*75
$GAGSV,2,2,08,34,55,018,51,36,14,059,40,05,21,100,42,09,07,050,30,2*75
$GAGSV,2,1,08,02,23,171,38,15,45,286,42,27,33,306,39,30,58,230,47,7*7E
$GAGSV,2,2,08,34,55,018,47,36,14,059,37,05,21,100,39,09,07,050,31,7*7A
$GNGGA,080950.00,3207.95309222,N,11841.73889758,E,1,28,0.7,9.1486,M,1.7756,M,,*43
$GNRMC,080950.00,A,3207.95309222,N,11841.73889758,E,0.012,165.4,030424,6.1,W,A,C*59
#HEADINGA,COM3,9984,90.0,FINE,2308,288608.000,3503924,17,18;SOL_COMPUTED,NARROW_INT,1.9937,278.2994,0.2137,0.0000,0.1173,0.2547,"999",51,42,42,37,0,01,3,f3*7f5ae34c
$GPGSV,3,1,10,03,19,040,37,06,57,314,46,14,27,175,43,09,21,122,36,1*66
$GPGSV,3,2,10,17,61,081,46,19,68,009,46,22,49,193,47,04,16,080,26,1*69
$GPGSV,3,3,10,11,31,271,42,20,18,218,29,1*6E
$GPGSV,3,1,09,03,19,040,35,06,57,314,48,14,27,175,42,09,21,122,31,4*61
$GPGSV,3,2,09,17,61,081,46,19,68,009,45,22,49,193,43,04,16,080,32,4*66
$GPGSV,3,3,09,11,31,271,41,4*5B
$GPGSV,2,1,06,03,19,040,43,06,57,314,52,14,27,175,46,09,21,122,34,8*68
$GPGSV,2,2,06,04,16,080,33,11,31,271,45,8*67
$GLGSV,2,1,06,74,31,228,42,75,32,294,46,69,43,089,51,84,43,020,41,1*7D
$GLGSV,2,2,06,85,28,308,49,68,18,036,44,1*7D
$GLGSV,2,1,05,75,32,294,43,69,43,089,50,84,43,020,45,85,28,308,42,3*79
$GLGSV,2,2,05,68,18,036,41,3*48
$GBGSV,6,1,21,01,44,137,43,02,36,231,39,03,51,195,44,07,85,175,46,1*7D
$GBGSV,6,2,21,08,61,225,44,10,76,299,45,12,47,321,44,13,47,224,43,1*7A
$GBGSV,6,3,21,22,52,110,49,24,26,244,43,26,10,196,20,38,74,232,48,1*73
$GBGSV,6,4,21,40,74,100,48,59,45,144,46,60,34,236,46,04,33,119,40,1*7E
$GBGSV,6,5,21,19,24,048,43,44,62,358,48,25,14,299,28,21,27,175,45,1*7B
$GBGSV,6,6,21,34,22,299,39,1*4A
$GBGSV,6,1,21,01,44,137,44,02,36,231,42,03,51,195,45,07,85,175,47,8*7F
$GBGSV,6,2,21,08,61,225,47,10,76,299,46,12,47,321,47,13,47,224,44,8*77
$GBGSV,6,3,21,22,52,110,51,24,26,244,43,26,10,196,22,38,74,232,50,8*78
$GBGSV,6,4,21,40,74,100,50,59,45,144,47,60,34,236,44,04,33,119,42,8*7F
$GBGSV,6,5,21,19,24,048,46,44,62,358,51,25,14,299,33,21,27,175,45,8*75
$GBGSV,6,6,21,34,22,299,37,8*4D
$GBGSV,3,1,09,01,44,137,47,02,36,231,44,03,51,195,48,07,85,175,49,B*0C
$GBGSV,3,2,09,08,61,225,48,10,76,299,48,12,47,321,48,13,47,224,46,B*0E
$GBGSV,3,3,09,04,33,119,43,B*36
$GAGSV,2,1,08,02,23,171,39,15,45,286,45,27,33,306,43,30,58,230,48,1*7C
$GAGSV,2,2,08,34,55,018,49,36,14,059,36,05,21,100,41,09,07,050,28,1*74
$GAGSV,2,1,08,02,23,171,41,15,45,286,50,27,33,306,43,30,58,230,51,2*7C
$GAGSV,2,2,08,34,55,018,51,36,14,059,40,05,21,100,42,09,07,050,31,2*74
$GAGSV,2,1,08,02,23,171,38,15,45,286,43,27,33,306,39,30,58,230,47,7*7F
$GAGSV,2,2,08,34,55,018,47,36,14,059,37,05,21,100,40,09,07,050,32,7*77
$GNGGA,080951.00,3207.95309117,N,11841.73889892,E,1,28,0.7,9.1425,M,1.7756,M,,*47
$GNRMC,080951.00,A,3207.95309117,N,11841.73889892,E,0.011,170.7,030424,6.1,W,A,C*50
#HEADINGA,COM3,9984,91.0,FINE,2308,288609.000,3504925,19,18;SOL_COMPUTED,NARROW_INT,1.9937,278.3764,0.2133,0.0000,0.1167,0.2536,"999",51,43,43,37,0,01,3,f3*3da9db1e
$GPGSV,3,1,10,03,19,040,38,06,57,314,46,14,27,175,43,09,21,122,35,1*6A
$GPGSV,3,2,10,17,61,081,46,19,68,009,47,22,49,193,47,04,16,080,26,1*68
$GPGSV,3,3,10,11,31,271,43,20,18,218,27,1*61
$GPGSV,3,1,09,03,19,040,36,06,57,314,48,14,27,175,42,09,21,122,31,4*62
$GPGSV,3,2,09,17,61,081,46,19,68,009,45,22,49,193,43,04,16,080,32,4*66
$GPGSV,3,3,09,11,31,271,41,4*5B
$GPGSV,2,1,06,03,19,040,43,06,57,314,52,14,27,175,46,09,21,122,35,8*69
$GPGSV,2,2,06,04,16,080,34,11,31,271,45,8*60
$GLGSV,2,1,06,74,31,228,42,75,32,294,49,69,43,089,52,84,43,020,41,1*71
$GLGSV,2,2,06,85,28,308,49,68,18,036,45,1*7C
$GLGSV,2,1,05,75,32,294,46,69,43,089,50,84,43,020,44,85,28,308,44,3*7B
$GLGSV,2,2,05,68,18,036,42,3*4B
$GBGSV,6,1,21,01,44,137,43,02,36,231,39,03,51,195,44,07,85,175,46,1*7D
$GBGSV,6,2,21,08,61,225,44,10,76,299,45,12,47,321,46,13,47,224,44,1*7F
$GBGSV,6,3,21,22,52,110,49,24,26,244,44,26,10,196,21,38,74,232,48,1*75
$GBGSV,6,4,21,40,74,100,48,59,45,144,47,60,34,236,46,04,33,119,40,1*7F
$GBGSV,6,5,21,19,24,048,44,44,62,358,49,25,14,299,34,21,27,175,45,1*70
$GBGSV,6,6,21,34,22,299,42,1*46
$GBGSV,6,1,21,01,44,137,44,02,36,231,42,03,51,195,45,07,85,175,48,8*70
$GBGSV,6,2,21,08,61,225,47,10,76,299,46,12,47,321,49,13,47,224,44,8*79
$GBGSV,6,3,21,22,52,110,51,24,26,244,43,26,10,196,22,38,74,232,50,8*78
$GBGSV,6,4,21,40,74,100,50,59,45,144,47,60,34,236,44,04,33,119,42,8*7F
$GBGSV,6,5,21,19,24,048,46,44,62,358,50,25,14,299,36,21,27,175,45,8*71
$GBGSV,6,6,21,34,22,299,39,8*43
$GBGSV,3,1,09,01,44,137,47,02,36,231,44,03,51,195,48,07,85,175,49,B*0C
$GBGSV,3,2,09,08,61,225,48,10,76,299,48,12,47,321,50,13,47,224,46,B*07
$GBGSV,3,3,09,04,33,119,44,B*31
$GAGSV,2,1,08,02,23,171,39,15,45,286,45,27,33,306,43,30,58,230,48,1*7C
$GAGSV,2,2,08,34,55,018,49,36,14,059,36,05,21,100,41,09,07,050,28,1*74
$GAGSV,2,1,08,02,23,171,41,15,45,286,50,27,33,306,43,30,58,230,51,2*7C
$GAGSV,2,2,08,34,55,018,51,36,14,059,40,05,21,100,42,09,07,050,31,2*74
$GAGSV,2,1,08,02,23,171,38,15,45,286,43,27,33,306,40,30,58,230,47,7*71
$GAGSV,2,2,08,34,55,018,47,36,14,059,37,05,21,100,40,09,07,050,32,7*77
$GNGGA,080952.00,3207.95309014,N,11841.73890053,E,1,28,0.7,9.1362,M,1.7756,M,,*4F
$GNRMC,080952.00,A,3207.95309014,N,11841.73890053,E,0.011,164.8,030424,6.1,W,A,C*56
#HEADINGA,COM3,9984,91.0,FINE,2308,288610.000,3505924,19,18;SOL_COMPUTED,NARROW_INT,1.9937,278.4533,0.2129,0.0000,0.1169,0.2523,"999",52,43,43,38,0,01,3,f3*2611a62b
$GPGSV,3,1,10,03,19,040,38,06,57,314,46,14,27,175,43,09,21,122,35,1*6A
$GPGSV,3,2,10,17,61,081,46,19,68,009,47,22,49,193,47,04,16,080,29,1*67
$GPGSV,3,3,10,11,31,271,43,20,18,218,29,1*6F
$GPGSV,3,1,09,03,19,040,35,06,57,314,48,14,27,175,42,09,21,122,31,4*61
$GPGSV,3,2,09,17,61,081,46,19,68,009,45,22,49,193,43,04,16,080,31,4*65
$GPGSV,3,3,09,11,31,271,42,4*58
$GPGSV,2,1,06,03,19,040,43,06,57,314,51,14,27,175,46,09,21,122,36,8*69
$GPGSV,2,2,06,04,16,080,34,11,31,271,45,8*60
$GLGSV,2,1,06,74,31,228,42,75,32,294,49,69,43,089,52,84,43,020,41,1*71
$GLGSV,2,2,06,85,28,308,50,68,18,036,45,1*74
$GLGSV,2,1,05,75,32,294,47,69,43,089,50,84,43,020,44,85,28,308,45,3*7B
$GLGSV,2,2,05,68,18,036,42,3*4B
$GBGSV,6,1,21,01,44,137,43,02,36,231,39,03,51,195,44,07,85,175,47,1*7C
$GBGSV,6,2,21,08,61,225,44,10,76,299,45,12,47,321,46,13,47,224,44,1*7F
$GBGSV,6,3,21,22,52,110,49,24,26,244,44,26,10,196,27,38,74,232,48,1*73
$GBGSV,6,4,21,40,74,100,48,59,45,144,46,60,34,236,46,04,33,119,40,1*7E
$GBGSV,6,5,21,19,24,048,44,44,62,358,49,25,14,299,36,21,27,175,45,1*72
$GBGSV,6,6,21,34,22,299,45,1*41
$GBGSV,6,1,21,01,44,137,44,02,36,231,42,03,51,195,45,07,85,175,48,8*70
$GBGSV,6,2,21,08,61,225,47,10,76,299,47,12,47,321,49,13,47,224,45,8*79
$GBGSV,6,3,21,22,52,110,51,24,26,244,43,26,10,196,22,38,74,232,50,8*78
$GBGSV,6,4,21,40,74,100,50,59,45,144,47,60,34,236,44,04,33,119,42,8*7F
$GBGSV,6,5,21,19,24,048,46,44,62,358,50,25,14,299,39,21,27,175,45,8*7E
$GBGSV,6,6,21,34,22,299,43,8*4E
$GBGSV,3,1,09,01,44,137,47,02,36,231,43,03,51,195,47,07,85,175,49,B*04
$GBGSV,3,2,09,08,61,225,48,10,76,299,48,12,47,321,49,13,47,224,46,B*0F
$GBGSV,3,3,09,04,33,119,44,B*31
$GAGSV,2,1,08,02,23,171,39,15,45,286,45,27,33,306,44,30,58,230,48,1*7B
$GAGSV,2,2,08,34,55,018,49,36,14,059,36,05,21,100,41,09,07,050,29,1*75
$GAGSV,2,1,08,02,23,171,41,15,45,286,51,27,33,306,44,30,58,230,51,2*7A
$GAGSV,2,2,08,34,55,018,51,36,14,059,40,05,21,100,42,09,07,050,31,2*74
$GAGSV,2,1,08,02,23,171,38,15,45,286,43,27,33,306,43,30,58,230,47,7*72
$GAGSV,2,2,08,34,55,018,47,36,14,059,37,05,21,100,40,09,07,050,32,7*77
$GNGGA,080953.00,3207.95308912,N,11841.73890180,E,1,28,0.7,9.1301,M,1.7756,M,,*4A
$GNRMC,080953.00,A,3207.95308912,N,11841.73890180,E,0.011,174.9,030424,6.1,W,A,C*56
#HEADINGA,COM3,9984,91.0,FINE,2308,288611.000,3506925,18,18;SOL_COMPUTED,NARROW_INT,1.9937,278.5301,0.2125,0.0000,0.1169,0.2517,"999",52,43,43,38,0,01,3,f3*95be4f98
$GPGSV,3,1,10,03,19,040,37,06,57,314,46,14,27,175,43,09,21,122,36,1*66
$GPGSV,3,2,10,17,61,081,46,19,68,009,47,22,49,193,47,04,16,080,28,1*66
$GPGSV,3,3,10,11,31,271,43,20,18,218,30,1*67
$GPGSV,3,1,09,03,19,040,36,06,57,314,48,14,27,175,42,09,21,122,31,4*62
$GPGSV,3,2,09,17,61,081,46,19,68,009,45,22,49,193,43,04,16,080,32,4*66
$GPGSV,3,3,09,11,31,271,42,4*58
$GPGSV,2,1,06,03,19,040,43,06,57,314,52,14,27,175,46,09,21,122,36,8*6A
$GPGSV,2,2,06,04,16,080,34,11,31,271,45,8*60
$GLGSV,2,1,06,74,31,228,42,75,32,294,49,69,43,089,52,84,43,020,40,1*70
$GLGSV,2,2,06,85,28,308,51,68,18,036,45,1*75
$GLGSV,2,1,05,75,32,294,47,69,43,089,50,84,43,020,44,85,28,308,46,3*78
$GLGSV,2,2,05,68,18,036,41,3*48
$GBGSV,6,1,21,01,44,137,44,02,36,231,39,03,51,195,44,07,85,175,47,1*7B
$GBGSV,6,2,21,08,61,225,44,10,76,299,46,12,47,321,46,13,47,224,44,1*7C
$GBGSV,6,3,21,22,52,110,49,24,26,244,44,26,10,196,27,38,74,232,48,1*73
$GBGSV,6,4,21,40,74,100,48,59,45,144,47,60,34,236,46,04,33,119,40,1*7F
$GBGSV,6,5,21,19,24,048,44,44,62,358,49,25,14,299,35,21,27,175,45,1*71
$GBGSV,6,6,21,34,22,299,45,1*41
$GBGSV,6,1,21,01,44,137,44,02,36,231,42,03,51,195,45,07,85,175,48,8*70
$GBGSV,6,2,21,08,61,225,47,10,76,299,47,12,47,321,49,13,47,224,45,8*79
$GBGSV,6,3,21,22,52,110,51,24,26,244,43,26,10,196,21,38,74,232,50,8*7B
$GBGSV,6,4,21,40,74,100,50,59,45,144,47,60,34,236,44,04,33,119,42,8*7F
$GBGSV,6,5,21,19,24,048,46,44,62,358,51,25,14,299,39,21,27,175,45,8*7F
$GBGSV,6,6,21,34,22,299,44,8*49
$GBGSV,3,1,09,01,44,137,47,02,36,231,43,03,51,195,47,07,85,175,49,B*04
$GBGSV,3,2,09,08,61,225,48,10,76,299,48,12,47,321,49,13,47,224,46,B*0F
$GBGSV,3,3,09,04,33,119,43,B*36
$GAGSV,2,1,08,02,23,171,39,15,45,286,45,27,33,306,45,30,58,230,48,1*7A
$GAGSV,2,2,08,34,55,018,49,36,14,059,36,05,21,100,41,09,07,050,29,1*75
$GAGSV,2,1,08,02,23,171,41,15,45,286,50,27,33,306,44,30,58,230,51,2*7B
$GAGSV,2,2,08,34,55,018,51,36,14,059,40,05,21,100,42,09,07,050,30,2*75
$GAGSV,2,1,08,02,23,171,38,15,45,286,43,27,33,306,44,30,58,230,47,7*75
$GAGSV,2,2,08,34,55,018,47,36,14,059,36,05,21,100,40,09,07,050,32,7*76
$GNGGA,080954.00,3207.95308822,N,11841.73890294,E,1,28,0.7,9.1240,M,1.7756,M,,*4D
$GNRMC,080954.00,A,3207.95308822,N,11841.73890294,E,0.010,177.8,030424,6.1,W,A,C*56
#HEADINGA,COM3,9984,89.0,FINE,2308,288612.000,3507924,17,18;SOL_COMPUTED,NARROW_INT,1.9937,278.6068,0.2121,0.0000,0.1145,0.2478,"999",52,44,44,38,0,01,3,f3*1e9e6bcd
$GPGSV,3,1,10,03,19,040,37,06,57,314,46,14,27,175,42,09,21,122,36,1*67
$GPGSV,3,2,10,17,61,081,46,19,68,009,47,22,49,193,46,04,16,080,28,1*67
$GPGSV,3,3,10,11,31,271,43,20,18,218,29,1*6F
$GPGSV,3,1,09,03,19,040,36,06,57,314,48,14,27,175,42,09,21,122,31,4*62
$GPGSV,3,2,09,17,61,081,46,19,68,009,45,22,49,193,43,04,16,080,31,4*65
$GPGSV,3,3,09,11,31,271,41,4*5B
$GPGSV,2,1,06,03,19,040,43,06,57,314,51,14,27,175,46,09,21,122,36,8*69
$GPGSV,2,2,06,04,16,080,34,11,31,271,45,8*60
$GLGSV,2,1,06,74,31,228,42,75,32,294,49,69,43,089,52,84,43,020,41,1*71
$GLGSV,2,2,06,85,28,308,51,68,18,036,45,1*75
$GLGSV,2,1,05,75,32,294,47,69,43,089,50,84,43,020,44,85,28,308,47,3*79
$GLGSV,2,2,05,68,18,036,41,3*48
$GBGSV,6,1,21,01,44,137,43,02,36,231,39,03,51,195,45,07,85,175,46,1*7C
$GBGSV,6,2,21,08,61,225,44,10,76,299,45,12,47,321,46,13,47,224,43,1*78
$GBGSV,6,3,21,22,52,110,49,24,26,244,44,26,10,196,27,38,74,232,48,1*73
$GBGSV,6,4,21,40,74,100,48,59,45,144,47,60,34,236,46,04,33,119,40,1*7F
$GBGSV,6,5,21,19,24,048,44,44,62,358,49,25,14,299,34,21,27,175,44,1*71
$GBGSV,6,6,21,34,22,299,44,1*40
$GBGSV,6,1,21,01,44,137,44,02,36,231,42,03,51,195,45,07,85,175,48,8*70
$GBGSV,6,2,21,08,61,225,47,10,76,299,47,12,47,321,49,13,47,224,45,8*79
$GBGSV,6,3,21,22,52,110,51,24,26,244,43,26,10,196,21,38,74,232,50,8*7B
$GBGSV,6,4,21,40,74,100,51,59,45,144,47,60,34,236,44,04,33,119,42,8*7E
$GBGSV,6,5,21,19,24,048,46,44,62,358,51,25,14,299,38,21,27,175,45,8*7E
$GBGSV,6,6,21,34,22,299,43,8*4E
$GBGSV,3,1,09,01,44,137,47,02,36,231,43,03,51,195,47,07,85,175,49,B*04
$GBGSV,3,2,09,08,61,225,48,10,76,299,48,12,47,321,49,13,47,224,46,B*0F
$GBGSV,3,3,09,04,33,119,43,B*36
$GAGSV,2,1,08,02,23,171,39,15,45,286,45,27,33,306,44,30,58,230,48,1*7B
$GAGSV,2,2,08,34,55,018,49,36,14,059,36,05,21,100,41,09,07,050,28,1*74
$GAGSV,2,1,08,02,23,171,41,15,45,286,50,27,33,306,45,30,58,230,51,2*7A
$GAGSV,2,2,08,34,55,018,51,36,14,059,40,05,21,100,42,09,07,050,30,2*75
$GAGSV,2,1,08,02,23,171,37,15,45,286,43,27,33,306,43,30,58,230,47,7*7D
$GAGSV,2,2,08,34,55,018,47,36,14,059,37,05,21,100,40,09,07,050,32,7*77
$GNGGA,080955.00,3207.95308733,N,11841.73890389,E,1,28,0.7,9.1180,M,1.7756,M,,*41
$GNRMC,080955.00,A,3207.95308733,N,11841.73890389,E,0.010,184.1,030424,6.1,W,A,C*50
#HEADINGA,COM3,9984,88.0,FINE,2308,288613.000,3508924,18,18;SOL_COMPUTED,NARROW_INT,1.9937,278.6835,0.2118,0.0000,0.1166,0.2521,"999",52,43,43,38,0,01,3,f3*623613aa
$GPGSV,3,1,10,03,19,040,37,06,57,314,46,14,27,175,42,09,21,122,35,1*64
$GPGSV,3,2,10,17,61,081,45,19,68,009,46,22,49,193,46,04,16,080,28,1*65
$GPGSV,3,3,10,11,31,271,43,20,18,218,30,1*67
$GPGSV,3,1,09,03,19,040,36,06,57,314,48,14,27,175,42,09,21,122,31,4*62
$GPGSV,3,2,09,17,61,081,46,19,68,009,45,22,49,193,43,04,16,080,32,4*66
$GPGSV,3,3,09,11,31,271,41,4*5B
$GPGSV,2,1,06,03,19,040,43,06,57,314,51,14,27,175,46,09,21,122,36,8*69
$GPGSV,2,2,06,04,16,080,34,11,31,271,45,8*60
$GLGSV,2,1,06,74,31,228,42,75,32,294,49,69,43,089,52,84,43,020,40,1*70
$GLGSV,2,2,06,85,28,308,51,68,18,036,46,1*76
$GLGSV,2,1,05,75,32,294,47,69,43,089,50,84,43,020,44,85,28,308,47,3*79
$GLGSV,2,2,05,68,18,036,42,3*4B
$GBGSV,6,1,21,01,44,137,43,02,36,231,39,03,51,195,44,07,85,175,46,1*7D
$GBGSV,6,2,21,08,61,225,43,10,76,299,45,12,47,321,45,13,47,224,43,1*7C
$GBGSV,6,3,21,22,52,110,48,24,26,244,43,26,10,196,26,38,74,232,48,1*74
$GBGSV,6,4,21,40,74,100,48,59,45,144,46,60,34,236,46,04,33,119,40,1*7E
$GBGSV,6,5,21,19,24,048,44,44,62,358,48,25,14,299,34,21,27,175,44,1*70
$GBGSV,6,6,21,34,22,299,44,1*40
$GBGSV,6,1,21,01,44,137,44,02,36,231,42,03,51,195,45,07,85,175,48,8*70
$GBGSV,6,2,21,08,61,225,47,10,76,299,47,12,47,321,49,13,47,224,45,8*79
$GBGSV,6,3,21,22,52,110,51,24,26,244,43,26,10,196,21,38,74,232,50,8*7B
$GBGSV,6,4,21,40,74,100,51,59,45,144,47,60,34,236,44,04,33,119,42,8*7E
$GBGSV,6,5,21,19,24,048,46,44,62,358,51,25,14,299,38,21,27,175,45,8*7E
$GBGSV,6,6,21,34,22,299,43,8*4E
$GBGSV,3,1,09,01,44,137,47,02,36,231,44,03,51,195,47,07,85,175,49,B*03
$GBGSV,3,2,09,08,61,225,48,10,76,299,48,12,47,321,49,13,47,224,46,B*0F
$GBGSV,3,3,09,04,33,119,44,B*31
$GAGSV,2,1,08,02,23,171,39,15,45,286,45,27,33,306,44,30,58,230,48,1*7B
$GAGSV,2,2,08,34,55,018,49,36,14,059,36,05,21,100,41,09,07,049,29,1*7D
$GAGSV,2,1,08,02,23,171,41,15,45,286,50,27,33,306,45,30,58,230,51,2*7A
$GAGSV,2,2,08,34,55,018,51,36,14,059,40,05,21,100,42,09,07,049,31,2*7C
$GAGSV,2,1,08,02,23,171,38,15,45,286,43,27,33,306,43,30,58,230,47,7*72
$GAGSV,2,2,08,34,55,018,47,36,14,059,36,05,21,100,40,09,07,049,32,7*7E
$GNGGA,080956.00,3207.95308622,N,11841.73890489,E,1,28,0.7,9.1126,M,1.7756,M,,*48
$GNRMC,080956.00,A,3207.95308622,N,11841.73890489,E,0.011,179.5,030424,6.1,W,A,C*52
#HEADINGA,COM3,9984,88.0,FINE,2308,288614.000,3509923,18,18;SOL_COMPUTED,NARROW_INT,1.9937,278.7601,0.2114,0.0000,0.1145,0.2472,"999",52,44,44,38,0,01,3,f3*0726c4a3
$GPGSV,3,1,10,03,19,040,37,06,57,314,46,14,27,175,42,09,21,122,35,1*64
$GPGSV,3,2,10,17,61,081,46,19,68,009,47,22,49,193,46,04,16,080,27,1*68
$GPGSV,3,3,10,11,31,271,43,20,18,218,30,1*67
$GPGSV,3,1,09,03,19,040,36,06,57,314,48,14,27,175,42,09,21,122,32,4*61
$GPGSV,3,2,09,17,61,081,46,19,68,009,45,22,49,193,43,04,16,080,32,4*66
$GPGSV,3,3,09,11,31,271,41,4*5B
$GPGSV,2,1,06,03,19,040,43,06,57,314,51,14,27,175,46,09,21,122,36,8*69
$GPGSV,2,2,06,04,16,080,34,11,31,271,45,8*60
$GLGSV,2,1,06,74,31,228,42,75,32,294,49,69,43,089,52,84,43,020,41,1*71
$GLGSV,2,2,06,85,28,308,51,68,18,036,45,1*75
$GLGSV,2,1,05,75,32,294,47,69,43,089,50,84,43,020,44,85,28,308,47,3*79
$GLGSV,2,2,05,68,18,036,42,3*4B
$GBGSV,6,1,21,01,44,137,43,02,36,231,39,03,51,195,44,07,85,175,46,1*7D
$GBGSV,6,2,21,08,61,225,43,10,76,299,45,12,47,321,45,13,47,224,43,1*7C
$GBGSV,6,3,21,22,52,110,48,24,26,244,43,26,10,196,26,38,74,232,48,1*74
$GBGSV,6,4,21,40,74,100,48,59,45,144,46,60,34,236,46,04,33,119,40,1*7E
$GBGSV,6,5,21,19,24,048,44,44,62,358,49,25,14,299,34,21,27,175,44,1*71
$GBGSV,6,6,21,34,22,299,44,1*40
$GBGSV,6,1,21,01,44,137,44,02,36,231,42,03,51,195,45,07,85,175,48,8*70
$GBGSV,6,2,21,08,61,225,47,10,76,299,46,12,47,321,49,13,47,224,44,8*79
$GBGSV,6,3,21,22,52,110,51,24,26,244,43,26,10,196,21,38,74,232,50,8*7B
$GBGSV,6,4,21,40,74,100,50,59,45,144,47,60,34,236,44,04,33,119,42,8*7F
$GBGSV,6,5,21,19,24,048,45,44,62,358,50,25,14,299,38,21,27,175,45,8*7C
$GBGSV,6,6,21,34,22,299,43,8*4E
$GBGSV,3,1,09,01,44,137,47,02,36,231,43,03,51,195,47,07,85,175,49,B*04
$GBGSV,3,2,09,08,61,225,48,10,76,299,48,12,47,321,50,13,47,224,46,B*07
$GBGSV,3,3,09,04,33,119,43,B*36
$GAGSV,2,1,08,02,23,171,39,15,45,286,45,27,33,306,44,30,58,230,48,1*7B
$GAGSV,2,2,08,34,55,018,49,36,14,059,36,05,21,100,41,09,07,049,29,1*7D
$GAGSV,2,1,08,02,23,171,40,15,45,286,51,27,33,306,45,30,58,230,51,2*7A
$GAGSV,2,2,08,34,55,018,51,36,14,059,40,05,21,100,42,09,07,049,30,2*7D
$GAGSV,2,1,08,02,23,171,37,15,45,286,43,27,33,306,43,30,58,230,47,7*7D
$GAGSV,2,2,08,34,55,018,47,36,14,059,36,05,21,100,41,09,07,049,33,7*7E
$GNGGA,080957.00,3207.95308502,N,11841.73890589,E,1,28,0.7,9.1075,M,1.7756,M,,*4E
$GNRMC,080957.00,A,3207.95308502,N,11841.73890589,E,0.011,178.6,030424,6.1,W,A,C*51
#HEADINGA,COM3,9984,88.0,FINE,2308,288615.000,3510924,18,18;SOL_COMPUTED,NARROW_INT,1.9936,278.8365,0.2110,0.0000,0.1145,0.2473,"999",52,44,44,38,0,01,3,f3*c5a3f05c
$GPGSV,3,1,10,03,19,040,37,06,57,314,46,14,27,175,42,09,21,122,35,1*64
$GPGSV,3,2,10,17,61,081,46,19,68,009,46,22,49,193,46,04,16,080,27,1*69
$GPGSV,3,3,10,11,31,271,43,20,18,218,30,1*67
$GPGSV,3,1,09,03,19,040,35,06,57,314,48,14,27,175,41,09,21,122,32,4*61
$GPGSV,3,2,09,17,61,081,46,19,68,009,45,22,49,193,43,04,16,080,32,4*66
$GPGSV,3,3,09,11,31,271,41,4*5B
$GPGSV,2,1,06,03,19,040,43,06,57,314,51,14,27,175,46,09,21,122,36,8*69
$GPGSV,2,2,06,04,16,080,34,11,31,271,45,8*60
$GLGSV,2,1,06,74,31,228,42,75,32,294,49,69,43,089,52,84,43,020,41,1*71
$GLGSV,2,2,06,85,28,308,51,68,18,036,45,1*75
$GLGSV,2,1,05,75,32,294,47,69,43,089,50,84,43,020,44,85,28,308,47,3*79
$GLGSV,2,2,05,68,18,036,41,3*48
$GBGSV,6,1,21,01,44,137,43,02,36,231,39,03,51,195,44,07,85,175,46,1*7D
$GBGSV,6,2,21,08,61,225,43,10,76,299,45,12,47,321,45,13,47,224,43,1*7C
$GBGSV,6,3,21,22,52,110,48,24,26,244,43,26,10,196,26,38,74,232,48,1*74
$GBGSV,6,4,21,40,74,100,48,59,45,144,46,60,34,236,45,04,33,119,40,1*7D
$GBGSV,6,5,21,19,24,048,44,44,62,358,49,25,14,299,34,21,27,175,44,1*71
$GBGSV,6,6,21,34,22,299,44,1*40
$GBGSV,6,1,21,01,44,137,43,02,36,231,42,03,51,195,45,07,85,175,48,8*77
$GBGSV,6,2,21,08,61,225,47,10,76,299,46,12,47,321,49,13,47,224,45,8*78
$GBGSV,6,3,21,22,52,110,51,24,26,244,43,26,10,196,21,38,74,232,50,8*7B
$GBGSV,6,4,21,40,74,100,50,59,45,144,47,60,34,236,44,04,33,119,42,8*7F
$GBGSV,6,5,21,19,24,048,45,44,62,358,50,25,14,299,38,21,27,175,45,8*7C
$GBGSV,6,6,21,34,22,299,43,8*4E
$GBGSV,3,1,09,01,44,137,47,02,36,231,43,03,51,195,47,07,85,175,49,B*04
$GBGSV,3,2,09,08,61,225,48,10,76,299,48,12,47,321,50,13,47,224,46,B*07
$GBGSV,3,3,09,04,33,119,43,B*36
$GAGSV,2,1,08,02,23,171,39,15,45,286,45,27,33,306,44,30,58,230,48,1*7B
$GAGSV,2,2,08,34,55,018,49,36,14,059,36,05,21,100,41,09,07,049,29,1*7D
$GAGSV,2,1,08,02,23,171,40,15,45,286,51,27,33,306,45,30,58,230,51,2*7A
$GAGSV,2,2,08,34,55,018,51,36,14,059,40,05,21,100,43,09,07,049,30,2*7C
$GAGSV,2,1,08,02,23,171,37,15,45,286,43,27,33,306,43,30,58,230,47,7*7D
$GAGSV,2,2,08,34,55,018,47,36,14,059,36,05,21,100,40,09,07,049,33,7*7F
$GNGGA,080958.00,3207.95308411,N,11841.73890693,E,1,28,0.7,9.1026,M,1.7756,M,,*4C
$GNRMC,080958.00,A,3207.95308411,N,11841.73890693,E,0.009,175.8,030424,6.1,W,A,C*5F
#HEADINGA,COM3,9984,87.0,FINE,2308,288616.000,3511924,18,18;SOL_COMPUTED,NARROW_INT,1.9936,278.9130,0.2106,0.0000,0.1146,0.2471,"999",52,44,44,38,0,01,3,f3*58e6a4a3
$GPGSV,3,1,10,03,19,040,36,06,57,314,46,14,27,175,42,09,21,122,35,1*65
$GPGSV,3,2,10,17,61,081,46,19,68,009,46,22,49,193,46,04,16,080,27,1*69
$GPGSV,3,3,10,11,31,271,43,20,18,218,30,1*67
$GPGSV,3,1,09,03,19,040,35,06,57,314,48,14,27,175,41,09,21,122,32,4*61
$GPGSV,3,2,09,17,61,081,46,19,68,009,45,22,49,193,43,04,16,080,32,4*66
$GPGSV,3,3,09,11,31,271,41,4*5B
$GPGSV,2,1,06,03,19,040,43,06,57,314,51,14,27,175,46,09,21,122,37,8*68
$GPGSV,2,2,06,04,16,080,34,11,31,271,45,8*60
$GLGSV,2,1,06,74,31,228,42,75,32,294,48,69,43,089,52,84,43,020,41,1*70
$GLGSV,2,2,06,85,28,308,51,68,18,036,44,1*74
$GLGSV,2,1,05,75,32,294,47,69,43,089,50,84,43,020,44,85,28,308,47,3*79
$GLGSV,2,2,05,68,18,036,41,3*48
$GBGSV,6,1,21,01,44,137,43,02,36,231,38,03,51,195,44,07,85,175,46,1*7C
$GBGSV,6,2,21,08,61,225,43,10,76,299,45,12,47,321,45,13,47,224,43,1*7C
$GBGSV,6,3,21,22,52,110,48,24,26,244,43,26,10,196,25,38,74,232,48,1*77
$GBGSV,6,4,21,40,74,100,48,59,45,144,46,60,34,236,45,04,33,119,39,1*73
$GBGSV,6,5,21,19,24,048,44,44,62,358,49,25,14,299,34,21,27,175,44,1*71
$GBGSV,6,6,21,34,22,299,43,1*47
$GBGSV,6,1,21,01,44,137,43,02,36,231,42,03,51,195,45,07,85,175,48,8*77
$GBGSV,6,2,21,08,61,225,47,10,76,299,46,12,47,321,49,13,47,224,44,8*79
$GBGSV,6,3,21,22,52,110,51,24,26,244,43,26,10,196,21,38,74,232,50,8*7B
$GBGSV,6,4,21,40,74,100,50,59,45,144,47,60,34,236,44,04,33,119,42,8*7F
$GBGSV,6,5,21,19,24,048,45,44,62,358,50,25,14,299,37,21,27,175,45,8*73
$GBGSV,6,6,21,34,22,299,43,8*4E
$GBGSV,3,1,09,01,44,137,47,02,36,231,43,03,51,195,47,07,85,175,49,B*04
$GBGSV,3,2,09,08,61,225,48,10,76,299,48,12,47,321,50,13,47,224,46,B*07
$GBGSV,3,3,09,04,33,119,43,B*36
$GAGSV,2,1,08,02,23,171,39,15,45,286,45,27,33,306,44,30,58,230,48,1*7B
$GAGSV,2,2,08,34,55,018,49,36,14,059,36,05,21,100,41,09,07,049,29,1*7D
$GAGSV,2,1,08,02,23,171,40,15,45,286,50,27,33,306,45,30,58,230,51,2*7B
$GAGSV,2,2,08,34,55,018,51,36,14,059,40,05,21,100,42,09,07,049,31,2*7C
$GAGSV,2,1,08,02,23,171,37,15,45,286,43,27,33,306,43,30,58,230,47,7*7D
$GAGSV,2,2,08,34,55,018,47,36,14,059,35,05,21,100,40,09,07,049,33,7*7C
$GNGGA,080959.00,3207.95308332,N,11841.73890794,E,1,28,0.7,9.0978,M,1.7756,M,,*4E
$GNRMC,080959.00,A,3207.95308332,N,11841.73890794,E,0.008,175.7,030424,6.1,W,A,C*50
#HEADINGA,COM3,9984,88.0,FINE,2308,288617.000,3512924,17,18;SOL_COMPUTED,NARROW_INT,1.9936,278.9893,0.2102,0.0000,0.1146,0.2465,"999",52,44,44,38,0,01,3,f3*316e5a0a
$GPGSV,3,1,10,03,19,040,36,06,57,314,46,14,27,175,42,09,21,122,35,1*65
$GPGSV,3,2,10,17,61,081,46,19,68,009,46,22,49,193,46,04,16,080,28,1*66
$GPGSV,3,3,10,11,31,271,43,20,18,218,30,1*67
$GPGSV,3,1,09,03,19,040,36,06,57,314,48,14,27,175,42,09,21,122,33,4*60
$GPGSV,3,2,09,17,61,081,46,19,68,009,45,22,49,193,42,04,16,080,32,4*67
$GPGSV,3,3,09,11,31,271,41,4*5B
$GPGSV,2,1,06,03,19,040,43,06,57,314,51,14,27,175,46,09,21,122,37,8*68
$GPGSV,2,2,06,04,16,080,34,11,31,271,45,8*60
$GLGSV,2,1,06,74,31,228,42,75,32,294,49,69,43,089,52,84,43,020,41,1*71
$GLGSV,2,2,06,85,28,308,51,68,18,036,45,1*75
$GLGSV,2,1,05,75,32,294,47,69,43,089,50,84,43,020,44,85,28,308,47,3*79
$GLGSV,2,2,05,68,18,036,42,3*4B
$GBGSV,6,1,21,01,44,137,43,02,36,231,39,03,51,195,44,07,85,175,46,1*7D
$GBGSV,6,2,21,08,61,225,43,10,76,299,45,12,47,321,45,13,47,224,43,1*7C
$GBGSV,6,3,21,22,52,110,48,24,26,244,43,26,10,196,26,38,74,232,48,1*74
$GBGSV,6,4,21,40,74,100,48,59,45,144,46,60,34,236,45,04,33,119,39,1*73
$GBGSV,6,5,21,19,24,048,43,44,62,358,49,25,14,299,34,21,27,175,44,1*76
$GBGSV,6,6,21,34,22,299,43,1*47
$GBGSV,6,1,21,01,44,137,43,02,36,231,42,03,51,195,45,07,85,175,48,8*77
$GBGSV,6,2,21,08,61,225,47,10,76,299,46,12,47,321,48,13,47,224,45,8*79
$GBGSV,6,3,21,22,52,110,51,24,26,244,43,26,10,196,22,38,74,232,50,8*78
$GBGSV,6,4,21,40,74,100,50,59,45,144,47,60,34,236,44,04,33,119,42,8*7F
$GBGSV,6,5,21,19,24,048,45,44,62,358,50,25,14,299,39,21,27,175,45,8*7D
$GBGSV,6,6,21,34,22,299,43,8*4E
$GBGSV,3,1,09,01,44,137,47,02,36,231,43,03,51,195,47,07,85,175,49,B*04
$GBGSV,3,2,09,08,61,225,48,10,76,299,48,12,47,321,50,13,47,224,46,B*07
$GBGSV,3,3,09,04,33,119,43,B*36
$GAGSV,2,1,08,02,23,171,39,15,45,286,45,27,33,306,44,30,58,230,48,1*7B
$GAGSV,2,2,08,34,55,018,49,36,14,059,36,05,21,100,41,09,07,049,29,1*7D
$GAGSV,2,1,08,02,23,171,40,15,45,286,50,27,33,306,45,30,58,230,51,2*7B
$GAGSV,2,2,08,34,55,018,51,36,14,059,40,05,21,100,42,09,07,049,30,2*7D
$GAGSV,2,1,08,02,23,171,37,15,45,286,44,27,33,306,43,30,58,230,47,7*7A
$GAGSV,2,2,08,34,55,018,47,36,14,059,35,05,21,100,39,09,07,049,34,7*75
$GNGGA,081000.00,3207.95308259,N,11841.73890901,E,1,28,0.7,9.0929,M,1.7756,M,,*40
$GNRMC,081000.00,A,3207.95308259,N,11841.73890901,E,0.008,170.8,030424,6.1,W,A,C*50
#HEADINGA,COM3,9984,90.0,FINE,2308,288618.000,3513924,17,18;SOL_COMPUTED,NARROW_INT,1.9936,279.0656,0.2099,0.0000,0.1142,0.2446,"999",52,44,44,38,0,01,3,f3*1e458c03
$GPGSV,3,1,10,03,19,040,37,06,57,314,47,14,27,175,42,09,21,122,36,1*66
$GPGSV,3,2,10,17,61,081,46,19,68,009,47,22,49,193,46,04,16,080,29,1*66
$GPGSV,3,3,10,11,31,271,43,20,18,218,31,1*66
$GPGSV,3,1,09,03,19,040,36,06,57,314,48,14,27,175,42,09,21,122,33,4*60
$GPGSV,3,2,09,17,61,081,46,19,68,009,45,22,49,193,43,04,16,080,32,4*66
$GPGSV,3,3,09,11,31,271,41,4*5B
$GPGSV,2,1,06,03,19,040,43,06,57,314,51,14,27,175,46,09,21,122,37,8*68
$GPGSV,2,2,06,04,16,080,34,11,31,271,45,8*60
$GLGSV,2,1,06,74,31,228,43,75,32,294,49,69,43,089,52,84,43,020,42,1*73
$GLGSV,2,2,06,85,28,308,50,68,18,036,45,1*74
$GLGSV,2,1,05,75,32,294,47,69,43,089,50,84,43,020,44,85,28,308,47,3*79
$GLGSV,2,2,05,68,18,036,42,3*4B
$GBGSV,6,1,21,01,44,137,44,02,36,231,39,03,51,195,44,07,85,175,47,1*7B
$GBGSV,6,2,21,08,61,225,43,10,76,299,45,12,47,321,45,13,47,224,43,1*7C
$GBGSV,6,3,21,22,52,110,48,24,26,244,44,26,10,196,27,38,74,232,48,1*72
$GBGSV,6,4,21,40,74,100,48,59,45,144,46,60,34,236,46,04,33,119,40,1*7E
$GBGSV,6,5,21,19,24,048,44,44,62,358,49,25,14,299,35,21,27,175,44,1*70
$GBGSV,6,6,21,34,22,299,44,1*40
$GBGSV,6,1,21,01,44,137,43,02,36,231,42,03,51,195,45,07,85,175,47,8*78
$GBGSV,6,2,21,08,61,225,47,10,76,299,46,12,47,321,49,13,47,224,44,8*79
$GBGSV,6,3,21,22,52,110,51,24,26,244,44,26,10,196,21,38,74,232,50,8*7C
$GBGSV,6,4,21,40,74,100,50,59,45,144,47,60,34,236,44,04,33,119,42,8*7F
$GBGSV,6,5,21,19,24,048,45,44,62,358,50,25,14,299,37,21,27,175,45,8*73
$GBGSV,6,6,21,34,22,299,43,8*4E
$GBGSV,3,1,09,01,44,137,46,02,36,231,43,03,51,195,47,07,85,175,49,B*05
$GBGSV,3,2,09,08,61,225,48,10,76,299,48,12,47,321,50,13,47,224,46,B*07
$GBGSV,3,3,09,04,33,119,43,B*36
$GAGSV,2,1,08,02,23,171,39,15,45,286,45,27,33,306,44,30,58,230,48,1*7B
$GAGSV,2,2,08,34,55,018,49,36,14,059,36,05,21,100,42,09,07,049,29,1*7E
$GAGSV,2,1,08,02,23,171,40,15,45,286,51,27,33,306,45,30,58,230,51,2*7A
$GAGSV,2,2,08,34,55,018,51,36,14,059,40,05,21,100,42,09,07,049,30,2*7D
$GAGSV,2,1,08,02,23,171,37,15,45,286,44,27,33,306,43,30,58,230,48,7*75
$GAGSV,2,2,08,34,55,018,47,36,14,059,35,05,21,100,40,09,07,049,34,7*7B
$GNGGA,081001.00,3207.95308174,N,11841.73890986,E,1,28,0.7,9.0885,M,1.7756,M,,*45
$GNRMC,081001.00,A,3207.95308174,N,11841.73890986,E,0.008,180.1,030424,6.1,W,A,C*54
#HEADINGA,COM3,9984,90.0,FINE,2308,288619.000,3514924,16,18;SOL_COMPUTED,NARROW_INT,1.9936,279.1418,0.2095,0.0000,0.1143,0.2445,"999",51,44,44,38,0,01,3,f3*c617eef1
$GPGSV,3,1,10,03,19,040,38,06,57,314,47,14,27,175,42,09,21,122,36,1*69
$GPGSV,3,2,10,17,61,081,46,19,68,009,47,22,49,193,46,04,16,080,29,1*66
$GPGSV,3,3,10,11,31,271,43,20,18,218,31,1*66
$GPGSV,3,1,09,03,19,040,36,06,57,314,48,14,27,175,42,09,21,122,33,4*60
$GPGSV,3,2,09,17,61,081,46,19,68,009,45,22,49,193,43,04,16,080,33,4*67
$GPGSV,3,3,09,11,31,271,41,4*5B
$GPGSV,2,1,06,03,19,040,43,06,57,314,51,14,27,175,46,09,21,122,37,8*68
$GPGSV,2,2,06,04,16,080,34,11,31,271,45,8*60
$GLGSV,2,1,06,74,31,228,43,75,32,294,49,69,43,089,52,84,43,020,42,1*73
$GLGSV,2,2,06,85,28,308,50,68,18,036,45,1*74
$GLGSV,2,1,05,75,32,294,47,69,43,089,50,84,43,020,44,85,28,308,46,3*78
$GLGSV,2,2,05,68,18,036,42,3*4B
$GBGSV,6,1,21,01,44,137,43,02,36,231,39,03,51,195,44,07,85,175,46,1*7D
$GBGSV,6,2,21,08,61,225,43,10,76,299,45,12,47,321,44,13,47,224,43,1*7D
$GBGSV,6,3,21,22,52,110,48,24,26,244,43,26,10,196,25,38,74,232,48,1*77
$GBGSV,6,4,21,40,74,100,48,59,45,144,46,60,34,236,45,04,33,119,40,1*7D
$GBGSV,6,5,21,19,24,048,43,44,62,358,49,25,14,299,32,21,27,175,44,1*70
$GBGSV,6,6,21,34,22,299,43,1*47
$GBGSV,6,1,21,01,44,137,44,02,36,231,42,03,51,195,45,07,85,175,48,8*70
$GBGSV,6,2,21,08,61,225,47,10,76,299,47,12,47,321,49,13,47,224,45,8*79
$GBGSV,6,3,21,22,52,110,51,24,26,244,43,26,10,196,22,38,74,232,50,8*78
$GBGSV,6,4,21,40,74,100,50,59,45,144,47,60,34,236,44,04,33,119,42,8*7F
$GBGSV,6,5,21,19,24,048,45,44,62,358,51,25,14,299,36,21,27,175,45,8*73
$GBGSV,6,6,21,34,22,299,42,8*4F
$GBGSV,3,1,09,01,44,137,46,02,36,231,43,03,51,195,47,07,85,175,49,B*05
$GBGSV,3,2,09,08,61,225,48,10,76,299,48,12,47,321,50,13,47,224,46,B*07
$GBGSV,3,3,09,04,33,119,43,B*36
$GAGSV,2,1,08,02,23,171,39,15,45,286,45,27,33,306,44,30,58,230,48,1*7B
$GAGSV,2,2,08,34,55,018,49,36,14,059,36,05,21,100,41,09,07,049,29,1*7D
$GAGSV,2,1,08,02,23,171,40,15,45,286,51,27,33,306,45,30,58,230,51,2*7A
$GAGSV,2,2,08,34,55,018,51,36,14,059,40,05,21,100,42,09,07,049,30,2*7D
$GAGSV,2,1,08,02,23,171,37,15,45,286,44,27,33,306,43,30,58,230,48,7*75
$GAGSV,2,2,08,34,55,018,47,36,14,059,35,05,21,100,39,09,07,049,34,7*75
$GNGGA,081002.00,3207.95308096,N,11841.73891064,E,1,28,0.7,9.0842,M,1.7756,M,,*44
$GNRMC,081002.00,A,3207.95308096,N,11841.73891064,E,0.008,182.1,030424,6.1,W,A,C*5C
#HEADINGA,COM3,9984,90.0,FINE,2308,288620.000,3515923,16,18;SOL_COMPUTED,NARROW_INT,1.9936,279.2179,0.2091,0.0000,0.1142,0.2444,"999",51,44,44,38,0,01,3,f3*dd52adc0
$GPGSV,3,1,10,03,19,040,37,06,57,314,47,14,27,175,41,09,21,122,35,1*66
$GPGSV,3,2,10,17,61,081,46,19,68,009,46,22,49,193,46,04,16,080,28,1*66
$GPGSV,3,3,10,11,31,271,44,20,18,218,30,1*60
$GPGSV,3,1,09,03,19,040,36,06,57,314,48,14,27,175,41,09,21,122,32,4*62
$GPGSV,3,2,09,17,61,081,46,19,68,009,45,22,49,193,43,04,16,080,32,4*66
$GPGSV,3,3,09,11,31,271,41,4*5B
$GPGSV,2,1,06,03,19,040,43,06,57,314,51,14,27,175,46,09,21,122,37,8*68
$GPGSV,2,2,06,04,16,080,33,11,31,271,45,8*67
$GLGSV,2,1,06,74,31,228,43,75,32,294,48,69,43,089,52,84,43,020,42,1*72
$GLGSV,2,2,06,85,28,308,51,68,18,036,44,1*74
$GLGSV,2,1,05,75,32,294,47,69,43,089,50,84,43,020,43,85,28,308,47,3*7E
$GLGSV,2,2,05,68,18,036,42,3*4B
$GBGSV,6,1,21,01,44,137,43,02,36,231,38,03,51,195,44,07,85,175,46,1*7C
$GBGSV,6,2,21,08,61,225,43,10,76,299,45,12,47,321,44,13,47,224,43,1*7D
$GBGSV,6,3,21,22,52,110,48,24,26,244,44,26,10,196,27,38,74,232,48,1*72
$GBGSV,6,4,21,40,74,100,48,59,45,144,46,60,34,236,45,04,33,119,40,1*7D
$GBGSV,6,5,21,19,24,048,43,44,62,358,49,25,14,299,33,21,27,175,44,1*71
$GBGSV,6,6,21,34,23,299,43,1*46
$GBGSV,6,1,21,01,44,137,44,02,36,231,42,03,51,195,45,07,85,175,48,8*70
$GBGSV,6,2,21,08,61,225,47,10,76,299,47,12,47,321,49,13,47,224,45,8*79
$GBGSV,6,3,21,22,52,110,51,24,26,244,43,26,10,196,22,38,74,232,50,8*78
$GBGSV,6,4,21,40,74,100,50,59,45,144,47,60,34,236,44,04,33,119,42,8*7F
$GBGSV,6,5,21,19,24,048,46,44,62,358,51,25,14,299,36,21,27,175,45,8*70
$GBGSV,6,6,21,34,23,299,42,8*4E
$GBGSV,3,1,09,01,44,137,46,02,36,231,43,03,51,195,47,07,85,175,49,B*05
$GBGSV,3,2,09,08,61,225,48,10,76,299,48,12,47,321,50,13,47,224,46,B*07
$GBGSV,3,3,09,04,33,119,43,B*36
$GAGSV,2,1,08,02,23,171,39,15,45,286,45,27,33,306,44,30,58,230,48,1*7B
$GAGSV,2,2,08,34,55,018,49,36,14,059,36,05,21,100,41,09,07,049,29,1*7D
$GAGSV,2,1,08,02,23,171,40,15,45,286,51,27,33,306,45,30,58,230,51,2*7A
$GAGSV,2,2,08,34,55,018,51,36,14,059,40,05,21,100,42,09,07,049,30,2*7D
$GAGSV,2,1,08,02,23,171,38,15,45,286,44,27,33,306,43,30,58,230,48,7*7A
$GAGSV,2,2,08,34,55,018,47,36,14,059,35,05,21,100,39,09,07,049,34,7*75
$GNGGA,081003.00,3207.95308010,N,11841.73891149,E,1,28,0.7,9.0801,M,1.7756,M,,*42
$GNRMC,081003.00,A,3207.95308010,N,11841.73891149,E,0.008,179.2,030424,6.1,W,A,C*5A
#HEADINGA,COM3,9984,91.0,FINE,2308,288621.000,3516925,16,18;SOL_COMPUTED,NARROW_INT,1.9936,279.2940,0.2088,0.0000,0.1145,0.2455,"999",51,44,44,38,0,01,3,f3*8e12d70e
$GPGSV,3,1,10,03,19,040,37,06,57,314,46,14,27,175,41,09,21,122,35,1*67
$GPGSV,3,2,10,17,61,081,45,19,68,009,46,22,49,193,45,04,16,080,28,1*66
$GPGSV,3,3,10,11,31,271,43,20,18,218,30,1*67
$GPGSV,3,1,09,03,19,040,35,06,57,314,48,14,27,175,41,09,21,122,32,4*61
$GPGSV,3,2,09,17,61,081,46,19,68,009,45,22,49,193,42,04,16,080,32,4*67
$GPGSV,3,3,09,11,31,271,41,4*5B
$GPGSV,2,1,06,03,19,040,43,06,57,314,51,14,27,175,46,09,21,122,37,8*68
$GPGSV,2,2,06,04,16,080,33,11,31,271,45,8*67
$GLGSV,2,1,06,74,31,228,43,75,32,294,49,69,43,089,52,84,43,020,42,1*73
$GLGSV,2,2,06,85,28,308,51,68,18,036,45,1*75
$GLGSV,2,1,05,75,32,294,47,69,43,089,50,84,43,020,43,85,28,308,47,3*7E
$GLGSV,2,2,05,68,18,036,42,3*4B
$GBGSV,6,1,21,01,44,137,43,02,36,231,38,03,51,195,44,07,85,175,46,1*7C
$GBGSV,6,2,21,08,61,225,43,10,76,299,45,12,47,321,44,13,47,224,43,1*7D
$GBGSV,6,3,21,22,52,110,48,24,26,244,43,26,10,196,27,38,74,232,48,1*75
$GBGSV,6,4,21,40,74,100,48,59,45,144,46,60,34,236,45,04,33,119,40,1*7D
$GBGSV,6,5,21,19,24,048,43,44,62,358,48,25,14,299,33,21,27,175,44,1*70
$GBGSV,6,6,21,34,23,299,43,1*46
$GBGSV,6,1,21,01,44,137,44,02,36,231,42,03,51,195,45,07,85,175,48,8*70
$GBGSV,6,2,21,08,61,225,47,10,76,299,47,12,47,321,49,13,47,224,45,8*79
$GBGSV,6,3,21,22,52,110,51,24,26,244,44,26,10,196,22,38,74,232,50,8*7F
$GBGSV,6,4,21,40,74,100,50,59,45,144,47,60,34,236,44,04,33,119,42,8*7F
$GBGSV,6,5,21,19,24,048,46,44,62,358,51,25,14,299,36,21,27,175,45,8*70
$GBGSV,6,6,21,34,23,299,42,8*4E
$GBGSV,3,1,09,01,44,137,46,02,36,231,43,03,51,195,47,07,85,175,48,B*04
$GBGSV,3,2,09,08,61,225,48,10,76,299,48,12,47,321,50,13,47,224,46,B*07
$GBGSV,3,3,09,04,33,119,43,B*36
$GAGSV,2,1,08,02,23,171,39,15,45,286,46,27,33,306,44,30,58,230,48,1*78
$GAGSV,2,2,08,34,55,018,49,36,14,059,36,05,21,100,41,09,07,049,28,1*7C
$GAGSV,2,1,08,02,23,171,40,15,45,286,50,27,33,306,45,30,58,230,51,2*7B
$GAGSV,2,2,08,34,55,018,51,36,14,059,40,05,21,100,42,09,07,049,30,2*7D
$GAGSV,2,1,08,02,23,171,38,15,45,286,44,27,33,306,43,30,58,230,47,7*75
$GAGSV,2,2,08,34,55,018,47,36,14,059,34,05,21,100,39,09,07,049,34,7*74
$GNGGA,081004.00,3207.95307943,N,11841.73891216,E,1,28,0.7,9.0759,M,1.7756,M,,*4E
$GNRMC,081004.00,A,3207.95307943,N,11841.73891216,E,0.007,187.2,030424,6.1,W,A,C*5A
#HEADINGA,COM3,9984,91.0,FINE,2308,288622.000,3517923,18,18;SOL_COMPUTED,NARROW_INT,1.9936,279.3699,0.2084,0.0000,0.1144,0.2452,"999",51,44,44,38,0,01,3,f3*babd2b0e
$GPGSV,3,1,10,03,19,040,36,06,57,314,46,14,27,175,41,09,21,122,36,1*65
$GPGSV,3,2,10,17,61,081,45,19,68,009,46,22,49,193,45,04,16,080,27,1*69
$GPGSV,3,3,10,11,31,271,43,20,18,218,30,1*67
$GPGSV,3,1,09,03,19,040,35,06,57,314,48,14,27,175,42,09,21,122,32,4*62
$GPGSV,3,2,09,17,61,081,46,19,68,009,45,22,49,193,42,04,16,080,32,4*67
$GPGSV,3,3,09,11,31,271,42,4*58
$GPGSV,2,1,06,03,19,040,43,06,57,314,51,14,27,175,46,09,21,122,37,8*68
$GPGSV,2,2,06,04,16,080,33,11,31,271,45,8*67
$GLGSV,2,1,06,74,31,228,43,75,32,294,48,69,43,089,51,84,43,020,42,1*71
$GLGSV,2,2,06,85,28,308,51,68,18,036,44,1*74
$GLGSV,2,1,05,75,32,294,47,69,43,089,50,84,43,020,43,85,28,308,47,3*7E
$GLGSV,2,2,05,68,18,036,42,3*4B
$GBGSV,6,1,21,01,44,137,43,02,36,231,38,03,51,195,44,07,85,175,46,1*7C
$GBGSV,6,2,21,08,61,225,43,10,76,299,45,12,47,321,44,13,47,224,43,1*7D
$GBGSV,6,3,21,22,52,110,48,24,26,244,43,26,10,196,26,38,74,232,48,1*74
$GBGSV,6,4,21,40,74,100,48,59,45,144,46,60,34,236,45,04,33,119,39,1*73
$GBGSV,6,5,21,19,24,048,43,44,62,358,48,25,14,299,36,21,27,175,44,1*75
$GBGSV,6,6,21,34,23,299,43,1*46
$GBGSV,6,1,21,01,44,137,44,02,36,231,42,03,51,195,46,07,85,175,48,8*73
$GBGSV,6,2,21,08,61,225,47,10,76,299,47,12,47,321,49,13,47,224,45,8*79
$GBGSV,6,3,21,22,52,110,51,24,26,244,43,26,10,196,21,38,74,232,50,8*7B
$GBGSV,6,4,21,40,74,100,51,59,45,144,47,60,34,236,44,04,33,119,42,8*7E
$GBGSV,6,5,21,19,24,048,46,44,62,358,51,25,14,299,39,21,27,175,45,8*7F
$GBGSV,6,6,21,34,23,299,43,8*4F
$GBGSV,3,1,09,01,44,137,46,02,36,231,43,03,51,195,47,07,85,175,48,B*04
$GBGSV,3,2,09,08,61,225,48,10,76,299,48,12,47,321,50,13,47,224,46,B*07
$GBGSV,3,3,09,04,33,119,43,B*36
$GAGSV,2,1,08,02,23,171,39,15,45,286,45,27,33,306,44,30,58,230,48,1*7B
$GAGSV,2,2,08,34,55,018,49,36,14,059,36,05,21,100,41,09,07,049,28,1*7C
$GAGSV,2,1,08,02,23,171,40,15,45,286,50,27,33,306,45,30,58,230,51,2*7B
$GAGSV,2,2,08,34,55,018,51,36,14,059,40,05,21,100,42,09,07,049,30,2*7D
$GAGSV,2,1,08,02,23,171,38,15,45,286,45,27,33,306,42,30,58,230,47,7*75
$GAGSV,2,2,08,34,55,018,47,36,14,059,34,05,21,100,39,09,07,049,33,7*73
$GNGGA,081005.00,3207.95307876,N,11841.73891308,E,1,28,0.7,9.0717,M,1.7756,M,,*4C
$GNRMC,081005.00,A,3207.95307876,N,11841.73891308,E,0.006,175.0,030424,6.1,W,A,C*5C
#HEADINGA,COM3,9984,91.0,FINE,2308,288623.000,3518923,18,18;SOL_COMPUTED,NARROW_INT,1.9936,279.4458,0.2080,0.0000,0.1140,0.2439,"999",51,44,44,38,0,01,3,f3*9d5afd69
$GPGSV,3,1,10,03,19,040,37,06,57,314,46,14,27,175,41,09,21,122,36,1*64
$GPGSV,3,2,10,17,61,081,46,19,68,009,46,22,49,193,45,04,16,080,25,1*68
$GPGSV,3,3,10,11,31,271,44,20,18,218,28,1*69
$GPGSV,3,1,09,03,19,040,36,06,57,314,48,14,27,175,42,09,21,122,31,4*62
$GPGSV,3,2,09,17,61,081,46,19,68,009,45,22,49,193,42,04,16,080,32,4*67
$GPGSV,3,3,09,11,31,271,42,4*58
$GPGSV,2,1,06,03,19,040,43,06,57,314,51,14,27,175,46,09,21,122,38,8*67
$GPGSV,2,2,06,04,16,080,33,11,31,271,45,8*67
$GLGSV,2,1,06,74,31,228,43,75,32,294,49,69,43,089,51,84,43,020,42,1*70
$GLGSV,2,2,06,85,28,308,51,68,18,036,44,1*74
$GLGSV,2,1,05,75,32,294,46,69,43,089,50,84,43,020,43,85,28,308,47,3*7F
$GLGSV,2,2,05,68,18,036,42,3*4B
$GBGSV,6,1,21,01,44,137,43,02,36,231,39,03,51,195,44,07,85,175,46,1*7D
$GBGSV,6,2,21,08,61,225,43,10,76,299,45,12,47,321,44,13,47,224,43,1*7D
$GBGSV,6,3,21,22,52,110,48,24,26,244,43,26,10,196,26,38,74,232,48,1*74
$GBGSV,6,4,21,40,74,100,48,59,45,144,46,60,34,236,46,04,33,119,39,1*70
$GBGSV,6,5,21,19,24,048,43,44,62,358,48,25,14,299,35,21,27,175,44,1*76
$GBGSV,6,6,21,34,23,299,43,1*46
$GBGSV,6,1,21,01,44,137,44,02,36,231,42,03,51,195,46,07,85,175,48,8*73
$GBGSV,6,2,21,08,61,225,47,10,76,299,47,12,47,321,49,13,47,224,45,8*79
$GBGSV,6,3,21,22,52,110,51,24,26,244,44,26,10,196,21,38,74,232,50,8*7C
$GBGSV,6,4,21,40,74,100,51,59,45,144,47,60,34,236,44,04,33,119,42,8*7E
$GBGSV,6,5,21,19,24,048,46,44,62,358,51,25,14,299,38,21,27,175,45,8*7E
$GBGSV,6,6,21,34,23,299,43,8*4F
$GBGSV,3,1,09,01,44,137,46,02,36,231,43,03,51,195,47,07,85,175,48,B*04
$GBGSV,3,2,09,08,61,225,48,10,76,299,48,12,47,321,50,13,47,224,46,B*07
$GBGSV,3,3,09,04,33,119,43,B*36
$GAGSV,2,1,08,02,23,171,39,15,45,286,45,27,33,306,44,30,58,230,48,1*7B
$GAGSV,2,2,08,34,55,018,48,36,14,059,36,05,21,100,41,09,07,049,28,1*7D
$GAGSV,2,1,08,02,23,171,40,15,45,286,50,27,33,306,45,30,58,230,51,2*7B
$GAGSV,2,2,08,34,55,018,51,36,14,059,40,05,21,100,42,09,07,049,31,2*7C
$GAGSV,2,1,08,02,23,171,38,15,45,286,46,27,33,306,43,30,58,230,48,7*78
$GAGSV,2,2,08,34,55,018,47,36,14,059,34,05,21,100,39,09,07,049,34,7*74
$GNGGA,081006.00,3207.95307815,N,11841.73891398,E,1,28,0.7,9.0674,M,1.7756,M,,*47
$GNRMC,081006.00,A,3207.95307815,N,11841.73891398,E,0.006,174.9,030424,6.1,W,A,C*5B
#HEADINGA,COM3,9984,91.0,FINE,2308,288624.000,3519924,17,18;SOL_COMPUTED,NARROW_INT,1.9936,279.5216,0.2077,0.0000,0.1168,0.2505,"999",51,43,43,39,0,01,3,f3*078e4f46
$GPGSV,3,1,10,03,19,040,37,06,57,314,47,14,27,175,42,09,21,122,37,1*67
$GPGSV,3,2,10,17,61,081,46,19,68,009,47,22,49,193,45,04,16,080,23,1*6F
$GPGSV,3,3,10,11,31,271,43,20,18,218,29,1*6F
$GPGSV,3,1,09,03,19,040,36,06,57,314,48,14,27,175,42,09,21,122,31,4*62
$GPGSV,3,2,09,17,61,081,46,19,68,009,45,22,49,193,43,04,16,080,34,4*60
$GPGSV,3,3,09,11,31,271,42,4*58
$GPGSV,2,1,06,03,19,040,43,06,57,314,51,14,27,175,46,09,21,122,38,8*67
$GPGSV,2,2,06,04,16,080,33,11,31,271,45,8*67
$GLGSV,2,1,06,74,31,228,44,75,32,294,49,69,43,089,52,84,43,020,42,1*74
$GLGSV,2,2,06,85,28,308,51,68,18,036,44,1*74
$GLGSV,2,1,05,75,32,294,46,69,43,089,50,84,43,020,43,85,28,308,47,3*7F
$GLGSV,2,2,05,68,18,036,42,3*4B
$GBGSV,6,1,21,01,44,137,43,02,36,231,39,03,51,195,44,07,85,175,46,1*7D
$GBGSV,6,2,21,08,61,225,43,10,76,299,45,12,47,321,44,13,47,224,43,1*7D
$GBGSV,6,3,21,22,52,110,48,24,26,244,43,26,10,196,26,38,74,232,48,1*74
$GBGSV,6,4,21,40,74,100,48,59,45,144,46,60,34,236,46,04,33,119,39,1*70
$GBGSV,6,5,21,19,24,048,43,44,62,358,48,25,14,299,35,21,27,175,44,1*76
$GBGSV,6,6,21,34,23,299,42,1*47
$GBGSV,6,1,21,01,44,137,44,02,36,231,42,03,51,195,45,07,85,175,48,8*70
$GBGSV,6,2,21,08,61,225,47,10,76,299,47,12,47,321,49,13,47,224,45,8*79
$GBGSV,6,3,21,22,52,110,51,24,26,244,44,26,10,196,20,38,74,232,50,8*7D
$GBGSV,6,4,21,40,74,100,50,59,45,144,47,60,34,236,44,04,33,119,42,8*7F
$GBGSV,6,5,21,19,24,048,45,44,62,358,51,25,14,299,38,21,27,175,45,8*7D
$GBGSV,6,6,21,34,23,299,43,8*4F
$GBGSV,3,1,09,01,44,137,46,02,36,231,43,03,51,195,47,07,85,175,49,B*05
$GBGSV,3,2,09,08,61,225,48,10,76,299,48,12,47,321,50,13,47,224,46,B*07
$GBGSV,3,3,09,04,33,119,43,B*36
$GAGSV,2,1,08,02,23,171,39,15,45,286,45,27,33,306,44,30,58,230,48,1*7B
$GAGSV,2,2,08,34,55,018,49,36,14,059,36,05,21,100,42,09,07,049,29,1*7E
$GAGSV,2,1,08,02,23,171,40,15,45,286,50,27,33,306,45,30,58,230,51,2*7B
$GAGSV,2,2,08,34,55,018,51,36,14,059,40,05,21,100,42,09,07,049,31,2*7C
$GAGSV,2,1,08,02,23,171,38,15,45,286,45,27,33,306,43,30,58,230,47,7*74
$GAGSV,2,2,08,34,55,018,47,36,14,059,34,05,21,100,39,09,07,049,34,7*74
$GNGGA,081007.00,3207.95307759,N,11841.73891487,E,1,28,0.7,9.0634,M,1.7756,M,,*4C
$GNRMC,081007.00,A,3207.95307759,N,11841.73891487,E,0.006,173.9,030424,6.1,W,A,C*53
#HEADINGA,COM3,9984,91.0,FINE,2308,288625.000,3520924,17,18;SOL_COMPUTED,NARROW_INT,1.9936,279.5974,0.2073,0.0000,0.1168,0.2502,"999",51,43,43,39,0,01,3,f3*5197275c
$GPGSV,3,1,10,03,19,040,36,06,57,314,46,14,27,175,42,09,21,122,37,1*67
$GPGSV,3,2,10,17,61,081,46,19,68,009,47,22,49,193,45,04,16,080,23,1*6F
$GPGSV,3,3,10,11,31,271,43,20,18,218,30,1*67
$GPGSV,3,1,09,03,19,040,36,06,57,314,48,14,27,175,42,09,21,122,31,4*62
$GPGSV,3,2,09,17,61,081,46,19,68,009,45,22,49,193,42,04,16,080,34,4*61
$GPGSV,3,3,09,11,31,271,42,4*58
$GPGSV,2,1,06,03,19,040,43,06,57,314,51,14,27,175,46,09,21,122,38,8*67
$GPGSV,2,2,06,04,16,080,33,11,31,271,45,8*67
$GLGSV,2,1,06,74,31,228,44,75,32,294,49,69,43,089,51,84,43,020,42,1*77
$GLGSV,2,2,06,85,28,308,51,68,18,036,43,1*73
$GLGSV,2,1,05,75,32,294,47,69,43,089,50,84,43,020,43,85,28,308,47,3*7E
$GLGSV,2,2,05,68,18,036,42,3*4B
$GBGSV,6,1,21,01,44,137,43,02,36,231,39,03,51,195,44,07,85,175,46,1*7D
$GBGSV,6,2,21,08,61,225,43,10,76,299,45,12,47,321,44,13,47,224,43,1*7D
$GBGSV,6,3,21,22,52,110,48,24,26,244,43,26,10,196,27,38,74,232,48,1*75
$GBGSV,6,4,21,40,74,100,48,59,45,144,46,60,34,236,46,04,33,119,39,1*70
$GBGSV,6,5,21,19,24,048,42,44,62,358,48,25,14,299,34,21,27,175,44,1*76
$GBGSV,6,6,21,34,23,299,42,1*47
$GBGSV,6,1,21,01,44,137,44,02,36,231,42,03,51,195,45,07,85,175,48,8*70
$GBGSV,6,2,21,08,61,225,47,10,76,299,47,12,47,321,49,13,47,224,45,8*79
$GBGSV,6,3,21,22,52,110,51,24,26,244,43,26,10,196,19,38,74,232,50,8*70
$GBGSV,6,4,21,40,74,100,50,59,45,144,47,60,34,236,44,04,33,119,42,8*7F
$GBGSV,6,5,21,19,24,048,45,44,62,358,51,25,14,299,38,21,27,175,45,8*7D
$GBGSV,6,6,21,34,23,299,43,8*4F
$GBGSV,3,1,09,01,44,137,46,02,36,231,43,03,51,195,47,07,85,175,49,B*05
$GBGSV,3,2,09,08,61,225,48,10,76,299,48,12,47,321,50,13,47,224,46,B*07
$GBGSV,3,3,09,04,33,119,43,B*36
$GAGSV,2,1,08,02,23,171,39,15,45,286,45,27,33,306,44,30,58,230,48,1*7B
$GAGSV,2,2,08,34,55,018,49,36,14,059,36,05,21,100,42,09,07,049,28,1*7F
$GAGSV,2,1,08,02,23,171,40,15,45,286,51,27,33,306,45,30,58,230,51,2*7A
$GAGSV,2,2,08,34,55,018,51,36,14,059,40,05,21,100,42,09,07,049,31,2*7C
$GAGSV,2,1,08,02,23,171,38,15,45,286,44,27,33,306,43,30,58,230,47,7*75
$GAGSV,2,2,08,34,55,018,47,36,14,059,34,05,21,100,39,09,07,049,34,7*74
$GNGGA,081008.00,3207.95307722,N,11841.73891578,E,1,28,0.7,9.0596,M,1.7756,M,,*45
$GNRMC,081008.00,A,3207.95307722,N,11841.73891578,E,0.004,171.6,030424,6.1,W,A,C*5E
#HEADINGA,COM3,9984,91.0,FINE,2308,288626.000,3521923,18,18;SOL_COMPUTED,NARROW_INT,1.9936,279.6731,0.2070,0.0000,0.1143,0.2453,"999",51,44,44,39,0,01,3,f3*75375956
$GPGSV,3,1,10,03,19,040,37,06,57,314,46,14,27,175,42,09,21,122,37,1*66
$GPGSV,3,2,10,17,61,081,46,19,68,009,47,22,49,193,45,04,16,080,24,1*68
$GPGSV,3,3,10,11,31,271,44,20,18,218,29,1*68
$GPGSV,3,1,09,03,19,040,36,06,57,314,48,14,27,175,42,09,21,122,32,4*61
$GPGSV,3,2,09,17,61,081,46,19,68,009,45,22,49,193,42,04,16,080,33,4*66
$GPGSV,3,3,09,11,31,271,42,4*58
$GPGSV,2,1,06,03,19,040,43,06,57,314,51,14,27,175,46,09,21,122,38,8*67
$GPGSV,2,2,06,04,16,080,34,11,31,271,45,8*60
$GLGSV,2,1,06,74,31,228,44,75,32,294,49,69,43,089,51,84,43,020,42,1*77
$GLGSV,2,2,06,85,28,308,51,68,18,036,44,1*74
$GLGSV,2,1,05,75,32,294,47,69,43,089,50,84,43,020,43,85,28,308,47,3*7E
$GLGSV,2,2,05,68,18,036,43,3*4A
$GBGSV,6,1,21,01,44,137,43,02,36,231,39,03,51,195,45,07,85,175,46,1*7C
$GBGSV,6,2,21,08,61,225,43,10,76,299,45,12,47,321,44,13,47,224,43,1*7D
$GBGSV,6,3,21,22,52,110,49,24,26,244,44,26,10,196,26,38,74,232,48,1*72
$GBGSV,6,4,21,40,74,100,48,59,45,144,46,60,34,236,46,04,33,119,39,1*70
$GBGSV,6,5,21,19,24,048,43,44,62,358,49,25,14,299,34,21,27,175,44,1*76
$GBGSV,6,6,21,34,23,299,43,1*46
$GBGSV,6,1,21,01,44,137,44,02,36,231,42,03,51,195,45,07,85,175,47,8*7F
$GBGSV,6,2,21,08,61,225,47,10,76,299,46,12,47,321,48,13,47,224,45,8*79
$GBGSV,6,3,21,22,52,110,51,24,26,244,43,26,10,196,20,38,74,232,50,8*7A
$GBGSV,6,4,21,40,74,100,50,59,45,144,47,60,34,236,44,04,33,119,42,8*7F
$GBGSV,6,5,21,19,24,048,45,44,62,358,51,25,14,299,38,21,27,175,44,8*7C
$GBGSV,6,6,21,34,23,299,43,8*4F
$GBGSV,3,1,09,01,44,137,46,02,36,231,43,03,51,195,47,07,85,175,49,B*05
$GBGSV,3,2,09,08,61,225,48,10,76,299,48,12,47,321,49,13,47,224,46,B*0F
$GBGSV,3,3,09,04,33,119,43,B*36
$GAGSV,2,1,08,02,23,171,38,15,45,287,45,27,33,306,44,30,58,230,49,1*7A
$GAGSV,2,2,08,34,55,018,49,36,14,059,36,05,21,100,42,09,07,049,28,1*7F
$GAGSV,2,1,08,02,23,171,40,15,45,287,51,27,33,306,45,30,58,230,51,2*7B
$GAGSV,2,2,08,34,55,018,51,36,14,059,41,05,21,100,43,09,07,049,31,2*7C
$GAGSV,2,1,08,02,23,171,38,15,45,287,45,27,33,306,43,30,58,230,48,7*7A
$GAGSV,2,2,08,34,55,018,47,36,14,059,34,05,21,100,40,09,07,049,34,7*7A
$GNGGA,081009.00,3207.95307682,N,11841.73891679,E,1,28,0.7,9.0556,M,1.7756,M,,*41
$GNRMC,081009.00,A,3207.95307682,N,11841.73891679,E,0.005,169.0,030424,6.1,W,A,C*58
#HEADINGA,COM3,9984,91.0,FINE,2308,288627.000,3522924,17,18;SOL_COMPUTED,NARROW_INT,1.9936,279.7486,0.2066,0.0000,0.1164,0.2493,"999",51,43,43,39,0,01,3,f3*a40d08aa
$GPGSV,3,1,10,03,19,040,37,06,57,314,47,14,27,175,42,09,21,122,37,1*67
$GPGSV,3,2,10,17,61,081,46,19,68,009,47,22,49,193,45,04,16,080,24,1*68
$GPGSV,3,3,10,11,31,271,44,20,18,218,30,1*60
$GPGSV,3,1,09,03,19,040,35,06,57,314,48,14,27,175,42,09,21,122,31,4*61
$GPGSV,3,2,09,17,61,081,46,19,68,009,45,22,49,193,42,04,16,080,33,4*66
$GPGSV,3,3,09,11,31,271,43,4*59
$GPGSV,2,1,06,03,19,040,42,06,57,314,51,14,27,175,46,09,21,122,38,8*66
$GPGSV,2,2,06,04,16,080,34,11,31,271,45,8*60
$GLGSV,2,1,06,74,31,228,44,75,32,294,49,69,43,089,52,84,43,020,42,1*74
$GLGSV,2,2,06,85,28,308,51,68,18,036,44,1*74
$GLGSV,2,1,05,75,32,294,47,69,43,089,51,84,43,020,43,85,28,308,47,3*7F
$GLGSV,2,2,05,68,18,036,43,3*4A
$GBGSV,6,1,21,01,44,137,43,02,36,231,39,03,51,195,45,07,85,175,46,1*7C
$GBGSV,6,2,21,08,61,225,43,10,76,299,45,12,47,321,44,13,47,224,43,1*7D
$GBGSV,6,3,21,22,52,110,48,24,26,244,44,26,10,196,26,38,74,232,48,1*73
$GBGSV,6,4,21,40,74,100,48,59,45,144,46,60,34,236,46,04,33,119,39,1*70
$GBGSV,6,5,21,19,24,048,42,44,62,358,48,25,14,299,34,21,27,175,44,1*76
$GBGSV,6,6,21,34,23,299,42,1*47
$GBGSV,6,1,21,01,44,137,44,02,36,231,42,03,51,195,45,07,85,175,48,8*70
$GBGSV,6,2,21,08,61,225,47,10,76,299,46,12,47,321,48,13,47,224,45,8*79
$GBGSV,6,3,21,22,52,110,51,24,26,244,44,26,10,196,20,38,74,232,50,8*7D
$GBGSV,6,4,21,40,74,100,50,59,45,144,47,60,34,236,44,04,33,119,42,8*7F
$GBGSV,6,5,21,19,24,048,45,44,62,358,51,25,14,299,38,21,27,175,44,8*7C
$GBGSV,6,6,21,34,23,299,43,8*4F
$GBGSV,3,1,09,01,44,137,46,02,36,231,43,03,51,195,47,07,85,175,49,B*05
$GBGSV,3,2,09,08,61,225,48,10,76,299,48,12,47,321,50,13,47,224,46,B*07
$GBGSV,3,3,09,04,33,119,43,B*36
$GAGSV,2,1,08,02,23,171,39,15,45,287,45,27,33,306,44,30,58,230,49,1*7B
$GAGSV,2,2,08,34,55,018,49,36,14,059,36,05,21,100,42,09,07,049,29,1*7E
$GAGSV,2,1,08,02,23,171,40,15,45,287,51,27,33,306,45,30,58,230,51,2*7B
$GAGSV,2,2,08,34,55,018,51,36,14,059,41,05,21,100,43,09,07,049,31,2*7C
$GAGSV,2,1,08,02,23,171,38,15,45,287,45,27,33,306,43,30,58,230,48,7*7A
$GAGSV,2,2,08,34,55,018,47,36,14,059,34,05,21,100,40,09,07,049,34,7*7A
$GNGGA,081010.00,3207.95307620,N,11841.73891771,E,1,28,0.7,9.0516,M,1.7756,M,,*4C
$GNRMC,081010.00,A,3207.95307620,N,11841.73891771,E,0.006,172.3,030424,6.1,W,A,C*5B
#HEADINGA,COM3,9984,89.0,FINE,2308,288628.000,3523923,18,18;SOL_COMPUTED,NARROW_INT,1.9936,279.8242,0.2062,0.0000,0.1146,0.2457,"999",51,44,44,39,0,01,3,f3*38e9e749
$GPGSV,3,1,10,03,19,040,36,06,57,314,46,14,27,175,42,09,21,122,36,1*66
$GPGSV,3,2,10,17,61,081,46,19,68,009,47,22,49,193,45,04,16,080,24,1*68
$GPGSV,3,3,10,11,31,271,43,20,18,218,30,1*67
$GPGSV,3,1,09,03,19,040,35,06,57,314,48,14,27,175,42,09,21,122,31,4*61
$GPGSV,3,2,09,17,61,081,46,19,68,009,45,22,49,193,42,04,16,080,33,4*66
$GPGSV,3,3,09,11,31,271,43,4*59
$GPGSV,2,1,06,03,19,040,42,06,57,314,51,14,27,175,46,09,21,122,38,8*66
$GPGSV,2,2,06,04,16,080,34,11,31,271,45,8*60
$GLGSV,2,1,06,74,31,228,43,75,32,294,49,69,43,089,51,84,43,020,42,1*70
$GLGSV,2,2,06,85,28,308,51,68,18,036,43,1*73
$GLGSV,2,1,05,75,32,294,47,69,43,089,50,84,43,020,43,85,28,308,46,3*7F
$GLGSV,2,2,05,68,18,036,43,3*4A
$GBGSV,6,1,21,01,44,137,43,02,36,231,39,03,51,195,44,07,85,175,46,1*7D
$GBGSV,6,2,21,08,61,225,43,10,76,299,45,12,47,321,44,13,47,224,43,1*7D
$GBGSV,6,3,21,22,52,110,48,24,26,244,44,26,10,196,26,38,74,232,48,1*73
$GBGSV,6,4,21,40,74,100,48,59,45,144,46,60,34,236,46,04,33,119,39,1*70
$GBGSV,6,5,21,19,24,048,42,44,62,358,48,25,14,299,33,21,27,175,43,1*76
$GBGSV,6,6,21,34,23,299,42,1*47
$GBGSV,6,1,21,01,44,137,44,02,36,231,42,03,51,195,45,07,85,175,47,8*7F
$GBGSV,6,2,21,08,61,225,47,10,76,299,46,12,47,321,48,13,47,224,45,8*79
$GBGSV,6,3,21,22,52,110,51,24,26,244,43,26,10,196,19,38,74,232,50,8*70
$GBGSV,6,4,21,40,74,100,50,59,45,144,47,60,34,236,44,04,33,119,42,8*7F
$GBGSV,6,5,21,19,24,048,45,44,62,358,50,25,14,299,38,21,27,175,45,8*7C
$GBGSV,6,6,21,34,23,299,42,8*4E
$GBGSV,3,1,09,01,44,137,46,02,36,231,43,03,51,195,46,07,85,175,49,B*04
$GBGSV,3,2,09,08,61,225,48,10,76,299,48,12,47,321,49,13,47,224,45,B*0C
$GBGSV,3,3,09,04,33,119,43,B*36
$GAGSV,2,1,08,02,23,171,39,15,45,287,45,27,33,306,44,30,58,230,48,1*7A
$GAGSV,2,2,08,34,55,018,49,36,14,059,36,05,21,100,42,09,07,049,28,1*7F
$GAGSV,2,1,08,02,23,171,39,15,45,287,50,27,33,306,45,30,58,230,51,2*74
$GAGSV,2,2,08,34,55,018,51,36,14,059,40,05,21,100,43,09,07,049,31,2*7D
$GAGSV,2,1,08,02,23,171,38,15,45,287,45,27,33,306,43,30,58,230,48,7*7A
$GAGSV,2,2,08,34,55,018,47,36,14,059,34,05,21,100,40,09,07,049,33,7*7D
$GNGGA,081011.00,3207.95307551,N,11841.73891863,E,1,28,0.7,9.0475,M,1.7756,M,,*40
$GNRMC,081011.00,A,3207.95307551,N,11841.73891863,E,0.006,171.9,030424,6.1,W,A,C*5A
#HEADINGA,COM3,9984,88.0,FINE,2308,288629.000,3524923,18,18;SOL_COMPUTED,NARROW_INT,1.9936,279.8996,0.2059,0.0000,0.1165,0.2497,"999",51,43,43,39,0,01,3,f3*b709e4dd
$GPGSV,3,1,10,03,19,040,36,06,57,314,46,14,27,175,42,09,21,122,36,1*66
$GPGSV,3,2,10,17,61,081,46,19,68,009,47,22,49,193,46,04,16,080,24,1*6B
$GPGSV,3,3,10,11,31,271,44,20,18,218,30,1*60
$GPGSV,3,1,09,03,19,040,36,06,57,314,48,14,27,175,42,09,21,122,31,4*62
$GPGSV,3,2,09,17,61,081,46,19,68,009,45,22,49,193,42,04,16,080,33,4*66
$GPGSV,3,3,09,11,31,271,43,4*59
$GPGSV,2,1,06,03,19,040,42,06,57,314,51,14,27,175,46,09,21,122,38,8*66
$GPGSV,2,2,06,04,16,080,34,11,31,271,45,8*60
$GLGSV,2,1,06,74,31,228,43,75,32,294,50,69,43,089,51,84,43,020,42,1*78
$GLGSV,2,2,06,85,28,308,51,68,18,036,43,1*73
$GLGSV,2,1,05,75,32,294,47,69,43,089,50,84,43,020,43,85,28,308,46,3*7F
$GLGSV,2,2,05,68,18,036,43,3*4A
$GBGSV,6,1,21,01,44,137,43,02,36,231,38,03,51,195,44,07,85,175,46,1*7C
$GBGSV,6,2,21,08,61,225,43,10,76,299,45,12,47,321,44,13,47,224,43,1*7D
$GBGSV,6,3,21,22,52,110,48,24,26,244,44,26,10,196,26,38,74,232,48,1*73
