$GNGGA,082921.00,3207.95363943,N,11841.73834087,E,1,28,0.7,8.1322,M,1.7756,M,,*4C
$GNRMC,082921.00,A,3207.95363943,N,11841.73834087,E,0.005,193.2,030424,6.1,W,A,C*57
#HEADINGA,COM3,9984,90.0,FINE,2308,289779.000,4674924,16,18;SOL_COMPUTED,NARROW_INT,1.9937,182.1045,-0.0470,0.0000,0.1305,0.2840,"999",53,42,42,34,0,01,3,f3*5d63f091
$GPGSV,3,1,11,12,16,317,39,03,11,039,29,06,58,331,46,14,19,174,33,1*68
$GPGSV,3,2,11,09,26,114,40,17,56,097,45,19,72,035,46,22,40,189,44,1*6F
$GPGSV,3,3,11,04,18,071,31,11,36,280,43,20,26,223,40,1*54
$GPGSV,3,1,11,12,16,317,38,03,11,039,29,06,58,331,47,14,19,174,37,4*69
$GPGSV,3,2,11,09,26,114,40,17,56,097,45,19,72,035,45,22,40,189,40,4*6D
$GPGSV,3,3,11,04,18,071,34,11,36,280,44,20,26,223,36,4*52
$GPGSV,2,1,06,03,11,039,32,06,58,331,51,14,19,174,40,09,26,114,46,8*6E
$GPGSV,2,2,06,04,18,071,36,11,36,280,46,8*68
$GLGSV,2,1,07,74,22,221,39,75,31,282,48,69,45,073,52,84,41,034,42,1*75
$GLGSV,2,2,07,85,32,318,49,68,12,029,24,70,31,160,36,1*43
$GLGSV,2,1,05,75,31,282,47,69,45,073,49,84,41,034,43,85,32,318,45,3*7E
$GLGSV,2,2,05,68,12,029,26,3*4D
$GBGSV,5,1,20,01,44,136,45,02,36,231,38,03,51,195,43,07,81,183,46,1*73
$GBGSV,5,2,20,08,63,237,42,10,77,284,45,12,51,330,46,13,49,232,45,1*78
$GBGSV,5,3,20,22,55,095,47,24,21,237,43,38,75,251,48,40,74,118,48,1*79
$GBGSV,5,4,20,59,45,144,45,60,34,236,45,04,33,119,40,19,19,042,35,1*76
$GBGSV,5,5,20,44,64,015,48,25,14,291,35,21,36,174,46,34,28,305,43,1*7A
$GBGSV,5,1,20,01,44,136,43,02,36,231,41,03,51,195,46,07,81,183,48,8*79
$GBGSV,5,2,20,08,63,237,47,10,77,284,47,12,51,330,51,13,49,232,46,8*73
$GBGSV,5,3,20,22,55,095,51,24,21,237,41,38,75,251,51,40,74,118,51,8*75
$GBGSV,5,4,20,59,45,144,48,60,34,236,44,04,33,119,40,19,19,042,37,8*71
$GBGSV,5,5,20,44,64,015,51,25,14,291,36,21,36,174,47,34,28,305,43,8*79
$GBGSV,3,1,09,01,44,136,45,02,36,231,45,03,51,195,46,07,81,183,49,B*0D
$GBGSV,3,2,09,08,63,237,48,10,77,284,48,12,51,330,50,13,49,232,46,B*05
$GBGSV,3,3,09,04,33,119,42,B*37
$GAGSV,3,1,09,02,16,171,30,15,48,297,47,27,36,299,45,30,52,221,47,1*7D
$GAGSV,3,2,09,34,51,028,48,36,10,065,22,05,25,093,43,09,06,043,16,1*7F
$GAGSV,3,3,09,03,18,146,34,1*42
$GAGSV,3,1,09,02,16,171,36,15,48,297,50,27,36,299,47,30,52,221,50,2*7A
$GAGSV,3,2,09,34,51,028,50,36,10,065,24,05,25,093,45,09,06,043,17,2*74
$GAGSV,3,3,09,03,18,146,35,2*40
$GAGSV,2,1,08,02,16,171,34,15,48,297,45,27,36,299,43,30,52,221,45,7*79
$GAGSV,2,2,08,34,51,028,46,36,10,065,19,05,25,093,38,03,18,146,29,7*7E
$GNGGA,082922.00,3207.95363773,N,11841.73833992,E,1,28,0.7,8.1393,M,1.7756,M,,*42
$GNRMC,082922.00,A,3207.95363773,N,11841.73833992,E,0.005,201.0,030424,6.1,W,A,C*59
#HEADINGA,COM3,9984,90.0,FINE,2308,289780.000,4675924,16,18;SOL_COMPUTED,NARROW_INT,1.9937,182.0063,-0.0471,0.0000,0.1296,0.2825,"999",53,42,42,34,0,01,3,f3*d8b34e5d
$GPGSV,3,1,11,12,16,317,39,03,11,039,29,06,58,331,46,14,19,174,33,1*68
$GPGSV,3,2,11,09,26,114,41,17,56,097,46,19,72,035,46,22,40,189,45,1*6C
$GPGSV,3,3,11,04,18,071,31,11,36,280,43,20,26,223,41,1*55
$GPGSV,3,1,11,12,16,317,37,03,11,039,29,06,58,331,47,14,19,174,37,4*66
$GPGSV,3,2,11,09,26,114,40,17,56,097,45,19,72,035,45,22,40,189,40,4*6D
$GPGSV,3,3,11,04,18,071,34,11,36,280,44,20,26,223,36,4*52
$GPGSV,2,1,06,03,11,039,32,06,58,331,51,14,19,174,40,09,26,114,46,8*6E
$GPGSV,2,2,06,04,18,071,35,11,36,280,46,8*6B
$GLGSV,2,1,07,74,22,221,40,75,31,282,48,69,45,073,52,84,41,034,42,1*7B
$GLGSV,2,2,07,85,32,318,49,68,12,029,27,70,31,160,36,1*40
$GLGSV,2,1,05,75,31,282,47,69,45,073,49,84,41,034,43,85,32,318,44,3*7F
$GLGSV,2,2,05,68,12,029,26,3*4D
$GBGSV,5,1,20,01,44,136,45,02,36,231,38,03,51,195,43,07,81,183,46,1*73
$GBGSV,5,2,20,08,63,237,42,10,77,284,45,12,51,330,46,13,49,232,45,1*78
$GBGSV,5,3,20,22,55,095,47,24,21,237,43,38,75,251,48,40,74,118,48,1*79
$GBGSV,5,4,20,59,45,144,46,60,34,236,45,04,33,119,40,19,19,042,35,1*75
$GBGSV,5,5,20,44,64,015,48,25,14,291,36,21,36,174,46,34,28,305,43,1*79
$GBGSV,5,1,20,01,44,136,43,02,36,231,41,03,51,195,46,07,81,183,48,8*79
$GBGSV,5,2,20,08,63,237,47,10,77,284,47,12,51,330,51,13,49,232,46,8*73
$GBGSV,5,3,20,22,55,095,51,24,21,237,41,38,75,251,50,40,74,118,51,8*74
$GBGSV,5,4,20,59,45,144,48,60,34,236,44,04,33,119,40,19,19,042,37,8*71
$GBGSV,5,5,20,44,64,015,51,25,14,291,36,21,36,174,47,34,28,305,43,8*79
$GBGSV,3,1,09,01,44,136,45,02,36,231,45,03,51,195,46,07,81,183,49,B*0D
$GBGSV,3,2,09,08,63,237,48,10,77,284,48,12,51,330,50,13,49,232,46,B*05
$GBGSV,3,3,09,04,33,119,42,B*37
$GAGSV,3,1,09,02,16,171,29,15,48,297,47,27,36,299,45,30,52,221,47,1*75
$GAGSV,3,2,09,34,51,028,48,36,10,065,21,05,25,093,42,09,06,043,15,1*7E
$GAGSV,3,3,09,03,18,146,35,1*43
$GAGSV,3,1,09,02,16,171,36,15,48,297,50,27,36,299,47,30,52,221,50,2*7A
$GAGSV,3,2,09,34,51,028,50,36,10,065,25,05,25,093,45,09,06,043,17,2*75
$GAGSV,3,3,09,03,18,146,35,2*40
$GAGSV,2,1,08,02,16,171,34,15,48,297,45,27,36,299,43,30,52,221,44,7*78
$GAGSV,2,2,08,34,51,028,45,36,10,065,19,05,25,093,39,03,18,146,29,7*7C
$GNGGA,082923.00,3207.95363595,N,11841.73833891,E,1,28,0.7,8.1467,M,1.7756,M,,*47
$GNRMC,082923.00,A,3207.95363595,N,11841.73833891,E,0.005,201.0,030424,6.1,W,A,C*50
#HEADINGA,COM3,9984,90.0,FINE,2308,289781.000,4676925,16,18;SOL_COMPUTED,NARROW_INT,1.9937,181.9082,-0.0471,0.0000,0.1292,0.2817,"999",53,42,42,34,0,01,3,f3*6b4c980e
$GPGSV,3,1,11,12,16,317,40,03,11,039,29,06,58,331,46,14,19,174,33,1*66
$GPGSV,3,2,11,09,26,114,41,17,56,097,46,19,72,035,46,22,40,189,45,1*6C
$GPGSV,3,3,11,04,18,071,32,11,36,280,43,20,26,223,41,1*56
$GPGSV,3,1,11,12,16,317,37,03,11,039,29,06,58,331,47,14,19,174,37,4*66
$GPGSV,3,2,11,09,26,114,40,17,56,097,45,19,72,035,45,22,40,189,41,4*6C
$GPGSV,3,3,11,04,18,071,35,11,36,280,44,20,26,223,36,4*53
$GPGSV,2,1,06,03,11,039,32,06,58,331,51,14,19,174,40,09,26,114,46,8*6E
$GPGSV,2,2,06,04,18,071,35,11,36,280,46,8*6B
$GLGSV,2,1,07,74,22,221,39,75,31,282,49,69,45,073,52,84,41,034,42,1*74
$GLGSV,2,2,07,85,32,318,50,68,12,029,29,70,31,160,36,1*46
$GLGSV,2,1,05,75,31,282,47,69,45,073,49,84,41,034,43,85,32,318,45,3*7E
$GLGSV,2,2,05,68,12,029,24,3*4F
$GBGSV,5,1,20,01,44,136,45,02,36,231,38,03,51,195,44,07,81,183,46,1*74
$GBGSV,5,2,20,08,63,237,43,10,77,284,45,12,51,330,46,13,49,232,45,1*79
$GBGSV,5,3,20,22,55,095,48,24,21,237,43,38,75,251,48,40,74,118,48,1*76
$GBGSV,5,4,20,59,45,144,46,60,34,236,45,04,33,119,40,19,19,042,35,1*75
$GBGSV,5,5,20,44,64,015,48,25,14,291,36,21,36,174,46,34,28,305,43,1*79
$GBGSV,5,1,20,01,44,136,44,02,36,231,41,03,51,195,46,07,81,183,48,8*7E
$GBGSV,5,2,20,08,63,237,47,10,77,284,47,12,51,330,51,13,49,232,46,8*73
$GBGSV,5,3,20,22,55,095,51,24,21,237,41,38,75,251,50,40,74,118,51,8*74
$GBGSV,5,4,20,59,45,144,48,60,34,236,44,04,33,119,40,19,19,042,37,8*71
$GBGSV,5,5,20,44,64,015,51,25,14,291,36,21,36,174,47,34,28,305,43,8*79
$GBGSV,3,1,09,01,44,136,45,02,36,231,45,03,51,195,46,07,81,183,49,B*0D
$GBGSV,3,2,09,08,63,237,48,10,77,284,48,12,51,330,50,13,49,232,46,B*05
$GBGSV,3,3,09,04,33,119,42,B*37
$GAGSV,3,1,09,02,16,171,29,15,48,297,47,27,36,299,45,30,51,221,47,1*76
$GAGSV,3,2,09,34,51,028,48,36,10,065,22,05,25,093,42,09,06,043,15,1*7D
$GAGSV,3,3,09,03,18,146,34,1*42
$GAGSV,3,1,09,02,16,171,36,15,48,297,50,27,36,299,47,30,51,221,50,2*79
$GAGSV,3,2,09,34,51,028,50,36,10,065,25,05,25,093,45,09,06,043,17,2*75
$GAGSV,3,3,09,03,18,146,35,2*40
$GAGSV,2,1,08,02,16,171,34,15,48,297,45,27,36,299,43,30,51,221,44,7*7B
$GAGSV,2,2,08,34,51,028,45,36,10,065,19,05,25,093,39,03,18,146,30,7*74
$GNGGA,082924.00,3207.95363413,N,11841.73833784,E,1,28,0.7,8.1551,M,1.7756,M,,*40
$GNRMC,082924.00,A,3207.95363413,N,11841.73833784,E,0.006,199.5,030424,6.1,W,A,C*57
#HEADINGA,COM3,9984,90.0,FINE,2308,289782.000,4677924,16,18;SOL_COMPUTED,NARROW_INT,1.9937,181.8102,-0.0471,0.0000,0.1291,0.2834,"999",53,42,42,35,0,01,3,f3*10781019
$GPGSV,3,1,11,12,16,317,40,03,11,039,30,06,58,331,46,14,19,174,33,1*6E
$GPGSV,3,2,11,09,26,114,41,17,56,097,46,19,72,035,46,22,40,189,44,1*6D
$GPGSV,3,3,11,04,18,071,31,11,36,280,43,20,26,223,41,1*55
$GPGSV,3,1,11,12,16,317,37,03,11,039,28,06,58,331,47,14,19,174,37,4*67
$GPGSV,3,2,11,09,26,114,40,17,56,097,45,19,72,035,45,22,40,189,40,4*6D
$GPGSV,3,3,11,04,18,071,35,11,36,280,44,20,26,223,35,4*50
$GPGSV,2,1,06,03,11,039,32,06,58,331,51,14,19,174,40,09,26,114,45,8*6D
$GPGSV,2,2,06,04,18,071,35,11,36,280,46,8*6B
$GLGSV,2,1,07,74,22,221,40,75,31,282,49,69,45,073,52,84,41,034,42,1*7A
$GLGSV,2,2,07,85,32,319,50,68,12,029,30,70,31,160,36,1*4F
$GLGSV,2,1,05,75,31,282,47,69,45,073,48,84,41,034,43,85,32,319,45,3*7E
$GLGSV,2,2,05,68,12,029,22,3*49
$GBGSV,5,1,20,01,44,136,45,02,36,231,38,03,51,195,43,07,81,183,46,1*73
$GBGSV,5,2,20,08,63,237,43,10,77,284,45,12,51,330,46,13,49,232,45,1*79
$GBGSV,5,3,20,22,55,095,47,24,21,237,43,38,75,251,48,40,74,118,48,1*79
$GBGSV,5,4,20,59,45,144,46,60,34,236,44,04,33,119,40,19,19,042,35,1*74
$GBGSV,5,5,20,44,64,015,48,25,14,291,35,21,36,174,46,34,28,305,43,1*7A
$GBGSV,5,1,20,01,44,136,43,02,36,231,41,03,51,195,45,07,81,183,48,8*7A
$GBGSV,5,2,20,08,63,237,47,10,77,284,47,12,51,330,50,13,49,232,46,8*72
$GBGSV,5,3,20,22,55,095,51,24,21,237,41,38,75,251,50,40,74,118,50,8*75
$GBGSV,5,4,20,59,45,144,48,60,34,236,44,04,33,119,40,19,19,042,37,8*71
$GBGSV,5,5,20,44,64,015,51,25,14,291,35,21,36,174,46,34,28,305,43,8*7B
$GBGSV,3,1,09,01,44,136,45,02,36,231,45,03,51,195,46,07,81,183,49,B*0D
$GBGSV,3,2,09,08,63,237,48,10,77,284,48,12,51,330,50,13,49,232,46,B*05
$GBGSV,3,3,09,04,33,119,42,B*37
$GAGSV,3,1,09,02,16,171,29,15,48,297,47,27,36,299,45,30,51,221,47,1*76
$GAGSV,3,2,09,34,51,028,48,36,10,065,22,05,25,093,42,09,06,043,14,1*7C
$GAGSV,3,3,09,03,18,146,34,1*42
$GAGSV,3,1,09,02,16,171,36,15,48,297,50,27,36,299,47,30,51,221,50,2*79
$GAGSV,3,2,09,34,51,028,50,36,10,065,25,05,25,093,45,09,06,043,17,2*75
$GAGSV,3,3,09,03,18,146,35,2*40
$GAGSV,2,1,08,02,16,171,34,15,48,297,45,27,36,299,43,30,51,221,44,7*7B
$GAGSV,2,2,08,34,51,028,45,36,10,065,20,05,25,093,39,03,18,146,30,7*7E
$GNGGA,082925.00,3207.95363230,N,11841.73833668,E,1,28,0.7,8.1635,M,1.7756,M,,*44
$GNRMC,082925.00,A,3207.95363230,N,11841.73833668,E,0.006,199.1,030424,6.1,W,A,C*56
#HEADINGA,COM3,9984,90.0,FINE,2308,289783.000,4678924,16,18;SOL_COMPUTED,NARROW_INT,1.9937,181.7123,-0.0472,0.0000,0.1287,0.2820,"999",53,43,43,35,0,01,3,f3*40f4feaf
$GPGSV,3,1,11,12,16,317,39,03,11,039,30,06,58,331,46,14,19,174,33,1*60
$GPGSV,3,2,11,09,26,114,41,17,56,097,46,19,72,035,46,22,40,189,44,1*6D
$GPGSV,3,3,11,04,18,071,30,11,36,280,43,20,26,223,41,1*54
$GPGSV,3,1,11,12,16,317,37,03,11,039,29,06,58,331,47,14,19,174,37,4*66
$GPGSV,3,2,11,09,26,114,40,17,56,097,45,19,72,035,45,22,40,189,40,4*6D
$GPGSV,3,3,11,04,18,071,35,11,36,280,44,20,26,223,35,4*50
$GPGSV,2,1,06,03,11,039,32,06,58,331,51,14,19,174,40,09,26,114,46,8*6E
$GPGSV,2,2,06,04,18,071,35,11,36,280,46,8*6B
$GLGSV,2,1,07,74,22,221,40,75,31,282,48,69,45,073,52,84,41,034,42,1*7B
$GLGSV,2,2,07,85,32,319,50,68,12,029,30,70,31,160,36,1*4F
$GLGSV,2,1,05,75,31,282,47,69,45,073,49,84,41,034,43,85,32,319,45,3*7F
$GLGSV,2,2,05,68,12,029,22,3*49
$GBGSV,5,1,20,01,44,136,44,02,36,231,38,03,51,195,43,07,81,183,46,1*72
$GBGSV,5,2,20,08,63,237,43,10,77,284,45,12,51,330,45,13,49,232,45,1*7A
$GBGSV,5,3,20,22,55,095,47,24,21,237,43,38,75,251,48,40,74,118,48,1*79
$GBGSV,5,4,20,59,45,144,46,60,34,236,44,04,33,119,39,19,19,042,35,1*7A
$GBGSV,5,5,20,44,64,015,48,25,14,291,35,21,36,174,46,34,28,305,43,1*7A
$GBGSV,5,1,20,01,44,136,43,02,36,231,41,03,51,195,45,07,81,183,48,8*7A
$GBGSV,5,2,20,08,63,237,47,10,77,284,47,12,51,330,50,13,49,232,46,8*72
$GBGSV,5,3,20,22,55,095,51,24,21,237,41,38,75,251,50,40,74,118,50,8*75
$GBGSV,5,4,20,59,45,144,48,60,34,236,44,04,33,119,40,19,19,042,37,8*71
$GBGSV,5,5,20,44,64,015,51,25,14,291,36,21,36,174,46,34,28,305,43,8*78
$GBGSV,3,1,09,01,44,136,45,02,36,231,45,03,51,195,46,07,81,183,49,B*0D
$GBGSV,3,2,09,08,63,237,48,10,77,284,48,12,51,330,50,13,49,232,46,B*05
$GBGSV,3,3,09,04,33,119,42,B*37
$GAGSV,3,1,09,02,16,171,30,15,48,297,47,27,36,299,45,30,51,221,47,1*7E
$GAGSV,3,2,09,34,51,028,48,36,10,065,22,05,25,093,42,09,06,043,13,1*7B
$GAGSV,3,3,09,03,18,146,34,1*42
$GAGSV,3,1,09,02,16,171,36,15,48,297,50,27,36,299,47,30,51,221,50,2*79
$GAGSV,3,2,09,34,51,028,50,36,10,065,25,05,25,093,45,09,06,043,17,2*75
$GAGSV,3,3,09,03,18,146,35,2*40
$GAGSV,2,1,08,02,16,171,33,15,48,297,45,27,36,299,42,30,51,221,44,7*7D
$GAGSV,2,2,08,34,51,028,45,36,10,065,21,05,25,093,39,03,18,146,30,7*7F
$GNGGA,082926.00,3207.95363060,N,11841.73833543,E,1,28,0.7,8.1723,M,1.7756,M,,*4C
$GNRMC,082926.00,A,3207.95363060,N,11841.73833543,E,0.005,206.4,030424,6.1,W,A,C*5B
#HEADINGA,COM3,9984,90.0,FINE,2308,289784.000,4679923,17,18;SOL_COMPUTED,NARROW_INT,1.9937,181.6145,-0.0472,0.0000,0.1289,0.2802,"999",53,43,43,34,0,01,3,f3*d9006b88
$GPGSV,3,1,11,12,16,317,39,03,11,039,30,06,58,331,46,14,19,174,33,1*60
$GPGSV,3,2,11,09,26,114,41,17,56,097,46,19,72,035,46,22,40,189,45,1*6C
$GPGSV,3,3,11,04,18,071,31,11,36,280,43,20,26,223,41,1*55
$GPGSV,3,1,11,12,16,317,38,03,11,039,28,06,58,331,48,14,19,174,37,4*67
$GPGSV,3,2,11,09,26,114,40,17,56,097,45,19,72,035,45,22,40,189,41,4*6C
$GPGSV,3,3,11,04,18,071,35,11,36,280,44,20,26,223,36,4*53
$GPGSV,2,1,06,03,11,039,32,06,58,331,51,14,19,174,40,09,26,114,46,8*6E
$GPGSV,2,2,06,04,18,071,35,11,36,280,46,8*6B
$GLGSV,2,1,07,74,22,221,40,75,31,282,48,69,45,073,52,84,41,034,42,1*7B
$GLGSV,2,2,07,85,32,319,50,68,12,029,29,70,31,160,36,1*47
$GLGSV,2,1,05,75,31,282,48,69,45,073,49,84,41,034,43,85,32,319,45,3*70
$GLGSV,2,2,05,68,12,029,23,3*48
$GBGSV,5,1,20,01,44,136,45,02,36,231,38,03,51,195,43,07,81,183,46,1*73
$GBGSV,5,2,20,08,63,237,43,10,77,284,45,12,51,330,46,13,49,232,45,1*79
$GBGSV,5,3,20,22,55,095,47,24,21,237,43,38,75,251,48,40,74,118,48,1*79
$GBGSV,5,4,20,59,45,144,45,60,34,236,45,04,33,119,40,19,19,042,35,1*76
$GBGSV,5,5,20,44,64,015,48,25,14,291,36,21,36,174,46,34,28,305,43,1*79
$GBGSV,5,1,20,01,44,136,43,02,36,231,41,03,51,195,45,07,81,183,48,8*7A
$GBGSV,5,2,20,08,63,237,47,10,77,284,47,12,51,330,50,13,49,232,46,8*72
$GBGSV,5,3,20,22,55,095,51,24,21,237,41,38,75,251,50,40,74,118,51,8*74
$GBGSV,5,4,20,59,45,144,48,60,34,236,44,04,33,119,40,19,19,042,37,8*71
$GBGSV,5,5,20,44,64,015,51,25,14,291,36,21,36,174,47,34,28,305,43,8*79
$GBGSV,3,1,09,01,44,136,45,02,36,231,45,03,51,195,46,07,81,183,49,B*0D
$GBGSV,3,2,09,08,63,237,48,10,77,284,48,12,51,330,50,13,49,232,46,B*05
$GBGSV,3,3,09,04,33,119,42,B*37
$GAGSV,3,1,09,02,16,171,29,15,48,297,47,27,36,299,45,30,51,221,48,1*79
$GAGSV,3,2,09,34,51,028,48,36,10,065,22,05,25,093,43,09,06,043,13,1*7A
$GAGSV,3,3,09,03,18,146,35,1*43
$GAGSV,3,1,09,02,16,171,37,15,48,297,50,27,36,299,47,30,51,221,50,2*78
$GAGSV,3,2,09,34,51,028,50,36,10,065,25,05,25,093,45,09,06,043,16,2*74
$GAGSV,3,3,09,03,18,146,36,2*43
$GAGSV,2,1,08,02,16,171,33,15,48,297,45,27,36,299,42,30,51,221,45,7*7C
$GAGSV,2,2,08,34,51,028,46,36,10,065,21,05,25,093,39,03,18,146,30,7*7C
$GNGGA,082927.00,3207.95362908,N,11841.73833422,E,1,28,0.7,8.1813,M,1.7756,M,,*41
$GNRMC,082927.00,A,3207.95362908,N,11841.73833422,E,0.004,207.8,030424,6.1,W,A,C*56
#HEADINGA,COM3,9984,90.0,FINE,2308,289785.000,4680924,17,18;SOL_COMPUTED,NARROW_INT,1.9937,181.5168,-0.0473,0.0000,0.1287,0.2786,"999",53,43,43,34,0,01,3,f3*86692f8e
$GPGSV,3,1,11,12,16,317,39,03,11,039,30,06,58,331,46,14,19,174,33,1*60
$GPGSV,3,2,11,09,26,114,41,17,56,097,46,19,72,035,46,22,40,189,45,1*6C
$GPGSV,3,3,11,04,18,071,31,11,36,280,43,20,26,223,41,1*55
$GPGSV,3,1,11,12,16,317,38,03,11,039,28,06,58,331,48,14,19,174,37,4*67
$GPGSV,3,2,11,09,26,114,40,17,56,097,45,19,72,035,45,22,40,189,41,4*6C
$GPGSV,3,3,11,04,18,071,36,11,36,280,44,20,26,223,36,4*50
$GPGSV,2,1,06,03,11,039,33,06,58,331,51,14,19,174,40,09,26,114,46,8*6F
$GPGSV,2,2,06,04,18,071,35,11,36,280,46,8*6B
$GLGSV,2,1,07,74,22,221,40,75,31,282,48,69,45,073,52,84,41,034,42,1*7B
$GLGSV,2,2,07,85,32,319,50,68,12,029,30,70,31,160,36,1*4F
$GLGSV,2,1,05,75,31,282,48,69,45,073,49,84,41,034,43,85,32,319,45,3*70
$GLGSV,2,2,05,68,12,029,25,3*4E
$GBGSV,5,1,20,01,44,136,45,02,36,231,38,03,51,195,43,07,81,183,46,1*73
$GBGSV,5,2,20,08,63,237,43,10,77,284,45,12,51,330,46,13,49,232,45,1*79
$GBGSV,5,3,20,22,55,095,48,24,21,237,43,38,75,251,48,40,74,118,48,1*76
$GBGSV,5,4,20,59,45,144,45,60,34,236,45,04,33,119,40,19,19,042,35,1*76
$GBGSV,5,5,20,44,64,015,48,25,14,291,35,21,36,174,47,34,28,305,43,1*7B
$GBGSV,5,1,20,01,44,136,43,02,36,231,40,03,51,195,45,07,81,183,47,8*74
$GBGSV,5,2,20,08,63,237,47,10,77,284,47,12,51,330,50,13,49,232,46,8*72
$GBGSV,5,3,20,22,55,095,51,24,21,237,41,38,75,251,50,40,74,118,50,8*75
$GBGSV,5,4,20,59,45,144,48,60,34,236,44,04,33,119,40,19,19,042,37,8*71
$GBGSV,5,5,20,44,64,015,51,25,14,291,36,21,36,174,46,34,28,305,43,8*78
$GBGSV,3,1,09,01,44,136,45,02,36,231,45,03,51,195,46,07,81,183,49,B*0D
$GBGSV,3,2,09,08,63,237,48,10,77,284,48,12,51,330,50,13,49,232,46,B*05
$GBGSV,3,3,09,04,33,119,42,B*37
$GAGSV,3,1,09,02,16,171,29,15,48,297,47,27,36,299,45,30,51,221,48,1*79
$GAGSV,3,2,09,34,51,028,49,36,10,065,22,05,25,093,43,09,06,043,13,1*7B
$GAGSV,3,3,09,03,18,146,35,1*43
$GAGSV,3,1,09,02,16,171,37,15,48,297,50,27,36,299,47,30,51,221,50,2*78
$GAGSV,3,2,09,34,51,028,51,36,10,065,25,05,25,093,45,09,06,043,16,2*75
$GAGSV,3,3,09,03,18,146,36,2*43
$GAGSV,2,1,08,02,16,171,33,15,48,297,45,27,36,299,42,30,51,221,45,7*7C
$GAGSV,2,2,08,34,51,028,46,36,10,065,21,05,25,093,39,03,18,146,30,7*7C
$GNGGA,082928.00,3207.95362761,N,11841.73833302,E,1,28,0.7,8.1914,M,1.7756,M,,*4C
$GNRMC,082928.00,A,3207.95362761,N,11841.73833302,E,0.004,211.9,030424,6.1,W,A,C*5B
#HEADINGA,COM3,9984,90.0,FINE,2308,289786.000,4681924,16,18;SOL_COMPUTED,NARROW_INT,1.9937,181.4192,-0.0473,0.0000,0.1282,0.2841,"999",53,45,45,35,0,01,3,f3*f1af0e32
$GPGSV,3,1,11,12,16,317,40,03,11,039,30,06,58,331,46,14,19,174,33,1*6E
$GPGSV,3,2,11,09,26,114,41,17,56,097,46,19,72,035,46,22,40,189,45,1*6C
$GPGSV,3,3,11,04,18,071,31,11,36,280,43,20,26,223,41,1*55
$GPGSV,3,1,11,12,16,317,38,03,11,039,28,06,58,331,48,14,19,174,37,4*67
$GPGSV,3,2,11,09,26,114,40,17,56,097,45,19,72,035,45,22,40,189,40,4*6D
$GPGSV,3,3,11,04,18,071,36,11,36,280,44,20,26,223,36,4*50
$GPGSV,2,1,06,03,11,039,33,06,58,331,51,14,19,174,40,09,26,114,46,8*6F
$GPGSV,2,2,06,04,18,071,35,11,36,280,46,8*6B
$GLGSV,2,1,07,74,22,221,40,75,31,282,48,69,45,073,52,84,41,034,42,1*7B
$GLGSV,2,2,07,85,32,319,50,68,12,029,31,70,31,160,36,1*4E
$GLGSV,2,1,05,75,31,282,48,69,45,073,49,84,41,034,43,85,32,319,46,3*73
$GLGSV,2,2,05,68,12,029,26,3*4D
$GBGSV,5,1,20,01,44,136,45,02,36,231,38,03,51,195,43,07,81,183,46,1*73
$GBGSV,5,2,20,08,63,237,43,10,77,284,45,12,51,330,46,13,49,232,45,1*79
$GBGSV,5,3,20,22,55,095,48,24,21,237,43,38,75,251,48,40,74,118,48,1*76
$GBGSV,5,4,20,59,45,144,46,60,34,236,45,04,33,119,41,19,19,042,36,1*77
$GBGSV,5,5,20,44,64,015,48,25,14,291,35,21,36,174,47,34,28,305,43,1*7B
$GBGSV,5,1,20,01,44,136,43,02,36,231,41,03,51,195,45,07,81,183,47,8*75
$GBGSV,5,2,20,08,63,237,47,10,77,284,47,12,51,330,50,13,49,232,46,8*72
$GBGSV,5,3,20,22,55,095,51,24,21,237,41,38,75,251,50,40,74,118,50,8*75
$GBGSV,5,4,20,59,45,144,48,60,34,236,44,04,33,119,40,19,19,042,37,8*71
$GBGSV,5,5,20,44,64,015,51,25,14,291,37,21,36,174,47,34,28,305,43,8*78
$GBGSV,3,1,09,01,44,136,45,02,36,231,45,03,51,195,46,07,81,183,49,B*0D
$GBGSV,3,2,09,08,63,237,48,10,77,284,48,12,51,330,50,13,49,232,46,B*05
$GBGSV,3,3,09,04,33,119,42,B*37
$GAGSV,3,1,09,02,16,171,30,15,48,297,47,27,36,299,45,30,51,221,48,1*71
$GAGSV,3,2,09,34,51,028,49,36,10,065,22,05,25,093,43,09,06,043,13,1*7B
$GAGSV,3,3,09,03,18,146,35,1*43
$GAGSV,3,1,09,02,16,171,37,15,48,297,50,27,36,299,47,30,51,221,50,2*78
$GAGSV,3,2,09,34,51,028,51,36,10,065,25,05,25,093,45,09,06,043,16,2*75
$GAGSV,3,3,09,03,18,146,36,2*43
$GAGSV,2,1,08,02,16,171,33,15,48,297,45,27,36,299,42,30,51,221,45,7*7C
$GAGSV,2,2,08,34,51,028,46,36,10,065,22,05,25,093,39,03,18,146,30,7*7F
$GNGGA,082929.00,3207.95362621,N,11841.73833177,E,1,28,0.7,8.2010,M,1.7756,M,,*46
$GNRMC,082929.00,A,3207.95362621,N,11841.73833177,E,0.004,207.3,030424,6.1,W,A,C*52
#HEADINGA,COM3,9984,90.0,FINE,2308,289787.000,4682924,16,18;SOL_COMPUTED,NARROW_INT,1.9937,181.3216,-0.0474,0.0000,0.1276,0.2806,"999",53,45,45,35,0,01,3,f3*e1b14541
$GPGSV,3,1,11,12,16,317,40,03,11,039,31,06,58,331,46,14,19,174,33,1*6F
$GPGSV,3,2,11,09,26,114,41,17,56,097,46,19,72,035,46,22,40,189,45,1*6C
$GPGSV,3,3,11,04,18,071,32,11,36,280,44,20,26,223,41,1*51
$GPGSV,3,1,11,12,16,317,38,03,11,039,28,06,58,331,48,14,19,174,37,4*67
$GPGSV,3,2,11,09,26,114,40,17,56,097,45,19,72,035,45,22,40,189,41,4*6C
$GPGSV,3,3,11,04,18,071,35,11,36,280,44,20,26,223,36,4*53
$GPGSV,2,1,06,03,11,039,32,06,58,331,51,14,19,174,40,09,26,114,46,8*6E
$GPGSV,2,2,06,04,18,071,35,11,36,280,46,8*6B
$GLGSV,2,1,07,74,22,221,40,75,31,282,48,69,45,073,52,84,41,034,42,1*7B
$GLGSV,2,2,07,85,32,319,51,68,12,029,31,70,31,160,36,1*4F
$GLGSV,2,1,05,75,31,282,48,69,45,073,49,84,41,034,42,85,32,319,46,3*72
$GLGSV,2,2,05,68,12,029,25,3*4E
$GBGSV,5,1,20,01,44,136,45,02,36,231,38,03,51,195,43,07,81,183,46,1*73
$GBGSV,5,2,20,08,63,237,43,10,77,284,45,12,51,330,46,13,49,232,45,1*79
$GBGSV,5,3,20,22,55,095,48,24,21,237,44,38,75,251,48,40,74,118,48,1*71
$GBGSV,5,4,20,59,45,144,46,60,34,236,45,04,33,119,41,19,19,042,36,1*77
$GBGSV,5,5,20,44,64,015,48,25,14,291,35,21,36,174,47,34,28,305,43,1*7B
$GBGSV,5,1,20,01,44,136,43,02,36,231,41,03,51,195,45,07,81,183,47,8*75
$GBGSV,5,2,20,08,63,237,47,10,77,284,47,12,51,330,50,13,49,232,46,8*72
$GBGSV,5,3,20,22,55,095,51,24,21,237,41,38,75,251,50,40,74,118,50,8*75
$GBGSV,5,4,20,59,45,144,48,60,34,236,44,04,33,119,40,19,19,042,36,8*70
$GBGSV,5,5,20,44,64,015,51,25,14,291,36,21,36,174,46,34,28,305,43,8*78
$GBGSV,3,1,09,01,44,136,45,02,36,231,45,03,51,195,46,07,81,183,49,B*0D
$GBGSV,3,2,09,08,63,237,49,10,77,284,48,12,51,330,50,13,49,232,46,B*04
$GBGSV,3,3,09,04,33,119,42,B*37
$GAGSV,3,1,09,02,16,171,30,15,48,297,47,27,36,299,45,30,51,221,48,1*71
$GAGSV,3,2,09,34,51,028,49,36,10,065,22,05,25,093,43,09,06,043,13,1*7B
$GAGSV,3,3,09,03,18,146,35,1*43
$GAGSV,3,1,09,02,16,171,37,15,48,297,50,27,36,299,47,30,51,221,50,2*78
$GAGSV,3,2,09,34,51,028,51,36,10,065,25,05,25,093,45,09,06,043,17,2*74
$GAGSV,3,3,09,03,18,146,35,2*40
$GAGSV,2,1,08,02,16,171,33,15,48,297,45,27,36,299,42,30,51,221,45,7*7C
$GAGSV,2,2,08,34,51,028,46,36,10,065,23,05,25,093,39,03,18,146,29,7*76
$GNGGA,082930.00,3207.95362487,N,11841.73833049,E,1,28,0.7,8.2112,M,1.7756,M,,*4F
$GNRMC,082930.00,A,3207.95362487,N,11841.73833049,E,0.003,212.8,030424,6.1,W,A,C*50
#HEADINGA,COM3,9984,90.0,FINE,2308,289788.000,4683924,17,18;SOL_COMPUTED,NARROW_INT,1.9937,181.2242,-0.0475,0.0000,0.1275,0.2782,"999",53,45,45,35,0,01,3,f3*6b859bba
$GPGSV,3,1,11,12,16,317,40,03,11,039,31,06,58,331,47,14,19,174,33,1*6E
$GPGSV,3,2,11,09,26,114,41,17,56,097,46,19,72,035,45,22,40,189,45,1*6F
$GPGSV,3,3,11,04,18,071,31,11,36,280,43,20,26,223,41,1*55
$GPGSV,3,1,11,12,16,317,38,03,11,039,28,06,58,331,48,14,19,174,36,4*66
$GPGSV,3,2,11,09,26,114,40,17,56,097,45,19,72,035,45,22,40,189,41,4*6C
$GPGSV,3,3,11,04,18,071,36,11,36,280,44,20,26,223,36,4*50
$GPGSV,2,1,06,03,11,039,32,06,58,331,51,14,19,174,40,09,26,114,46,8*6E
$GPGSV,2,2,06,04,18,071,35,11,36,280,46,8*6B
$GLGSV,2,1,07,74,22,221,40,75,31,281,48,69,45,073,52,84,41,034,41,1*7B
$GLGSV,2,2,07,85,32,319,50,68,12,029,31,70,31,160,36,1*4E
$GLGSV,2,1,05,75,31,281,48,69,45,073,49,84,41,034,42,85,32,319,46,3*71
$GLGSV,2,2,05,68,12,029,25,3*4E
$GBGSV,5,1,20,01,44,136,45,02,36,231,38,03,51,195,43,07,81,183,46,1*73
$GBGSV,5,2,20,08,63,237,43,10,77,284,45,12,51,330,45,13,49,232,44,1*7B
$GBGSV,5,3,20,22,55,095,48,24,21,237,43,38,75,251,48,40,74,118,48,1*76
$GBGSV,5,4,20,59,45,144,46,60,34,236,45,04,33,119,40,19,19,042,36,1*76
$GBGSV,5,5,20,44,64,015,48,25,14,291,35,21,36,174,47,34,28,305,43,1*7B
$GBGSV,5,1,20,01,44,136,43,02,36,231,41,03,51,195,45,07,81,183,47,8*75
$GBGSV,5,2,20,08,63,237,47,10,77,284,47,12,51,330,50,13,49,232,46,8*72
$GBGSV,5,3,20,22,55,095,51,24,21,237,41,38,75,251,50,40,74,118,50,8*75
$GBGSV,5,4,20,59,45,144,48,60,34,236,44,04,33,119,40,19,19,042,36,8*70
$GBGSV,5,5,20,44,64,015,51,25,14,291,36,21,36,174,47,34,28,305,43,8*79
$GBGSV,3,1,09,01,44,136,45,02,36,231,45,03,51,195,46,07,81,183,49,B*0D
$GBGSV,3,2,09,08,63,237,49,10,77,284,48,12,51,330,50,13,49,232,46,B*04
$GBGSV,3,3,09,04,33,119,42,B*37
$GAGSV,3,1,09,02,16,171,30,15,48,297,47,27,36,299,45,30,51,221,48,1*71
$GAGSV,3,2,09,34,51,028,49,36,10,065,23,05,25,093,43,09,06,043,15,1*7C
$GAGSV,3,3,09,03,18,146,35,1*43
$GAGSV,3,1,09,02,16,171,37,15,48,297,50,27,36,299,47,30,51,221,50,2*78
$GAGSV,3,2,09,34,51,028,51,36,10,065,25,05,25,093,45,09,06,043,16,2*75
$GAGSV,3,3,09,03,18,146,35,2*40
$GAGSV,2,1,08,02,16,171,33,15,48,297,45,27,36,299,42,30,51,221,45,7*7C
$GAGSV,2,2,08,34,51,028,46,36,10,065,23,05,25,093,39,03,18,146,30,7*7E
$GNGGA,082931.00,3207.95362372,N,11841.73832917,E,1,28,0.7,8.2208,M,1.7756,M,,*48
$GNRMC,082931.00,A,3207.95362372,N,11841.73832917,E,0.002,225.5,030424,6.1,W,A,C*57
#HEADINGA,COM3,9984,90.0,FINE,2308,289789.000,4684924,17,18;SOL_COMPUTED,NARROW_INT,1.9937,181.1268,-0.0475,0.0000,0.1272,0.2761,"999",53,45,45,35,0,01,3,f3*d145645f
$GPGSV,3,1,11,12,16,317,40,03,11,039,30,06,58,331,47,14,19,174,33,1*6F
$GPGSV,3,2,11,09,26,114,41,17,56,097,46,19,72,035,45,22,40,189,45,1*6F
$GPGSV,3,3,11,04,18,071,32,11,36,280,43,20,26,223,41,1*56
$GPGSV,3,1,11,12,16,317,37,03,11,039,28,06,58,331,48,14,19,174,36,4*69
$GPGSV,3,2,11,09,26,114,40,17,56,097,45,19,72,035,45,22,40,189,40,4*6D
$GPGSV,3,3,11,04,18,071,35,11,36,280,44,20,26,223,36,4*53
$GPGSV,2,1,06,03,11,039,32,06,58,331,51,14,19,174,40,09,26,114,46,8*6E
$GPGSV,2,2,06,04,18,071,35,11,36,280,46,8*6B
$GLGSV,2,1,07,74,22,221,40,75,31,281,48,69,45,073,52,84,41,034,42,1*78
$GLGSV,2,2,07,85,33,319,50,68,12,029,31,70,31,160,36,1*4F
$GLGSV,2,1,05,75,31,281,48,69,45,073,49,84,41,034,43,85,33,319,46,3*71
$GLGSV,2,2,05,68,12,029,26,3*4D
$GBGSV,5,1,20,01,44,136,45,02,36,231,38,03,51,195,43,07,81,183,46,1*73
$GBGSV,5,2,20,08,63,237,43,10,77,284,45,12,51,330,45,13,49,232,44,1*7B
$GBGSV,5,3,20,22,55,095,48,24,21,237,44,38,75,251,48,40,74,118,48,1*71
$GBGSV,5,4,20,59,45,144,46,60,34,236,45,04,33,119,41,19,19,042,36,1*77
$GBGSV,5,5,20,44,64,015,48,25,14,291,35,21,36,174,47,34,28,305,43,1*7B
$GBGSV,5,1,20,01,44,136,43,02,36,231,40,03,51,195,45,07,81,183,47,8*74
$GBGSV,5,2,20,08,63,237,47,10,77,284,47,12,51,330,50,13,49,232,45,8*71
$GBGSV,5,3,20,22,55,095,51,24,21,237,41,38,75,251,50,40,74,118,50,8*75
$GBGSV,5,4,20,59,45,144,48,60,34,236,44,04,33,119,40,19,19,042,36,8*70
$GBGSV,5,5,20,44,64,015,51,25,14,291,36,21,36,174,46,34,28,305,43,8*78
$GBGSV,3,1,09,01,44,136,45,02,36,231,45,03,51,195,46,07,81,183,49,B*0D
$GBGSV,3,2,09,08,63,237,49,10,77,284,48,12,51,330,50,13,49,232,46,B*04
$GBGSV,3,3,09,04,33,119,42,B*37
$GAGSV,3,1,09,02,16,171,30,15,48,297,47,27,36,299,45,30,51,221,48,1*71
$GAGSV,3,2,09,34,51,028,49,36,10,065,22,05,25,092,43,09,06,043,14,1*7D
$GAGSV,3,3,09,03,18,146,35,1*43
$GAGSV,3,1,09,02,16,171,37,15,48,297,50,27,36,299,47,30,51,221,50,2*78
$GAGSV,3,2,09,34,51,028,51,36,10,065,24,05,25,092,45,09,06,043,15,2*76
$GAGSV,3,3,09,03,18,146,35,2*40
$GAGSV,2,1,08,02,16,171,33,15,48,297,45,27,36,299,42,30,51,221,45,7*7C
$GAGSV,2,2,08,34,51,028,46,36,10,065,23,05,25,092,39,03,18,146,30,7*7F
$GNGGA,082932.00,3207.95362248,N,11841.73832778,E,1,28,0.7,8.2304,M,1.7756,M,,*49
$GNRMC,082932.00,A,3207.95362248,N,11841.73832778,E,0.003,217.5,030424,6.1,W,A,C*5B
#HEADINGA,COM3,9984,90.0,FINE,2308,289790.000,4685923,17,18;SOL_COMPUTED,NARROW_INT,1.9937,181.0296,-0.0476,0.0000,0.1268,0.2739,"999",53,45,45,35,0,01,3,f3*3ca02033
$GPGSV,3,1,11,12,16,317,40,03,11,039,29,06,58,331,47,14,19,174,34,1*60
$GPGSV,3,2,11,09,26,114,41,17,56,097,46,19,72,035,46,22,40,189,45,1*6C
$GPGSV,3,3,11,04,18,071,33,11,36,280,44,20,26,223,41,1*50
$GPGSV,3,1,11,12,16,317,38,03,11,039,28,06,58,331,48,14,19,174,36,4*66
$GPGSV,3,2,11,09,26,114,40,17,56,097,45,19,72,035,45,22,40,189,41,4*6C
$GPGSV,3,3,11,04,18,071,35,11,36,280,44,20,26,223,36,4*53
$GPGSV,2,1,06,03,11,039,32,06,58,331,51,14,19,174,40,09,26,114,46,8*6E
$GPGSV,2,2,06,04,18,071,35,11,36,280,46,8*6B
$GLGSV,2,1,07,74,22,221,40,75,31,281,49,69,45,073,52,84,41,034,42,1*79
$GLGSV,2,2,07,85,33,319,50,68,12,029,32,70,31,160,36,1*4C
$GLGSV,2,1,05,75,31,281,48,69,45,073,49,84,41,034,43,85,33,319,46,3*71
$GLGSV,2,2,05,68,12,029,26,3*4D
$GBGSV,5,1,20,01,44,136,45,02,36,231,38,03,51,195,43,07,81,183,46,1*73
$GBGSV,5,2,20,08,63,237,43,10,77,284,45,12,51,330,45,13,49,232,44,1*7B
$GBGSV,5,3,20,22,55,095,48,24,21,237,44,38,75,251,48,40,74,118,49,1*70
$GBGSV,5,4,20,59,45,144,46,60,34,236,45,04,33,119,40,19,19,042,36,1*76
$GBGSV,5,5,20,44,64,015,48,25,14,291,35,21,36,174,47,34,28,305,43,1*7B
$GBGSV,5,1,20,01,44,136,43,02,36,231,40,03,51,195,45,07,81,183,47,8*74
$GBGSV,5,2,20,08,63,237,47,10,77,284,47,12,51,330,50,13,49,232,45,8*71
$GBGSV,5,3,20,22,55,095,51,24,21,237,41,38,75,251,50,40,74,118,50,8*75
$GBGSV,5,4,20,59,45,144,48,60,34,236,44,04,33,119,40,19,19,042,36,8*70
$GBGSV,5,5,20,44,64,015,51,25,14,291,36,21,36,174,46,34,28,305,43,8*78
$GBGSV,3,1,09,01,44,136,45,02,36,231,45,03,51,195,46,07,81,183,49,B*0D
$GBGSV,3,2,09,08,63,237,49,10,77,284,48,12,51,330,50,13,49,232,46,B*04
$GBGSV,3,3,09,04,33,119,42,B*37
$GAGSV,3,1,09,02,16,171,30,15,48,297,47,27,36,299,45,30,51,221,48,1*71
$GAGSV,3,2,09,34,51,028,49,36,10,065,23,05,25,092,43,09,06,043,15,1*7D
$GAGSV,3,3,09,03,18,146,35,1*43
$GAGSV,3,1,09,02,16,171,37,15,48,297,50,27,36,299,47,30,51,221,50,2*78
$GAGSV,3,2,09,34,51,028,51,36,10,065,25,05,25,092,45,09,06,043,15,2*77
$GAGSV,3,3,09,03,18,146,35,2*40
$GAGSV,2,1,08,02,16,171,33,15,48,297,45,27,36,299,42,30,51,221,45,7*7C
$GAGSV,2,2,08,34,51,028,46,36,10,065,24,05,25,092,39,03,18,146,30,7*78
$GNGGA,082933.00,3207.95362113,N,11841.73832624,E,1,28,0.7,8.2395,M,1.7756,M,,*45
$GNRMC,082933.00,A,3207.95362113,N,11841.73832624,E,0.005,217.8,030424,6.1,W,A,C*54
#HEADINGA,COM3,9984,90.0,FINE,2308,289791.000,4686926,17,18;SOL_COMPUTED,NARROW_INT,1.9937,180.9324,-0.0477,0.0000,0.1264,0.2673,"999",53,45,45,35,0,01,3,f3*ffdd86b6
$GPGSV,3,1,11,12,16,317,41,03,11,039,29,06,58,331,47,14,19,174,34,1*61
$GPGSV,3,2,11,09,26,114,41,17,56,097,46,19,72,035,46,22,40,189,44,1*6D
$GPGSV,3,3,11,04,18,071,32,11,36,280,44,20,26,223,41,1*51
$GPGSV,3,1,11,12,16,317,38,03,11,039,28,06,58,331,48,14,19,174,36,4*66
$GPGSV,3,2,11,09,26,114,40,17,56,097,46,19,72,035,45,22,40,189,40,4*6E
$GPGSV,3,3,11,04,18,071,35,11,36,280,44,20,26,223,36,4*53
$GPGSV,2,1,06,03,11,039,32,06,58,331,51,14,19,174,40,09,26,114,46,8*6E
$GPGSV,2,2,06,04,18,071,35,11,36,280,46,8*6B
$GLGSV,2,1,07,74,22,221,40,75,31,281,49,69,45,073,52,84,41,034,42,1*79
$GLGSV,2,2,07,85,33,319,50,68,12,029,33,70,31,160,35,1*4E
$GLGSV,2,1,05,75,31,281,48,69,45,073,49,84,41,034,43,85,33,319,46,3*71
$GLGSV,2,2,05,68,12,029,28,3*43
$GBGSV,5,1,20,01,44,136,45,02,36,231,38,03,51,195,43,07,81,183,46,1*73
$GBGSV,5,2,20,08,63,237,43,10,77,284,45,12,51,331,45,13,49,232,44,1*7A
$GBGSV,5,3,20,22,55,095,48,24,21,237,44,38,75,251,48,40,74,118,48,1*71
$GBGSV,5,4,20,59,45,144,46,60,34,236,45,04,33,119,40,19,19,042,36,1*76
$GBGSV,5,5,20,44,64,015,48,25,14,291,35,21,36,174,46,34,28,305,43,1*7A
$GBGSV,5,1,20,01,44,136,43,02,36,231,40,03,51,195,45,07,81,183,47,8*74
$GBGSV,5,2,20,08,63,237,47,10,77,284,47,12,51,331,50,13,49,232,45,8*70
$GBGSV,5,3,20,22,55,095,50,24,21,237,41,38,75,251,50,40,74,118,50,8*74
$GBGSV,5,4,20,59,45,144,48,60,34,236,44,04,33,119,39,19,19,042,36,8*7E
$GBGSV,5,5,20,44,64,015,51,25,14,291,36,21,36,174,46,34,28,305,43,8*78
$GBGSV,3,1,09,01,44,136,45,02,36,231,45,03,51,195,46,07,81,183,49,B*0D
$GBGSV,3,2,09,08,63,237,48,10,77,284,48,12,51,331,51,13,49,232,46,B*05
$GBGSV,3,3,09,04,33,119,42,B*37
$GAGSV,3,1,09,02,16,171,29,15,48,297,47,27,36,299,45,30,51,221,48,1*79
$GAGSV,3,2,09,34,51,028,48,36,10,065,23,05,25,092,43,09,06,043,16,1*7F
$GAGSV,3,3,09,03,18,146,35,1*43
$GAGSV,3,1,09,02,16,171,37,15,48,297,50,27,36,299,47,30,51,221,50,2*78
$GAGSV,3,2,09,34,51,028,51,36,10,065,25,05,25,092,45,09,06,043,15,2*77
$GAGSV,3,3,09,03,18,146,35,2*40
$GAGSV,2,1,08,02,16,171,32,15,48,297,45,27,36,299,42,30,51,221,45,7*7D
$GAGSV,2,2,08,34,51,028,46,36,10,065,23,05,25,092,40,03,18,146,31,7*70
$GNGGA,082934.00,3207.95361975,N,11841.73832450,E,1,28,0.7,8.2487,M,1.7756,M,,*4C
$GNRMC,082934.00,A,3207.95361975,N,11841.73832450,E,0.006,222.2,030424,6.1,W,A,C*56
#HEADINGA,COM3,9984,90.0,FINE,2308,289792.000,4687924,17,18;SOL_COMPUTED,NARROW_INT,1.9937,180.8354,-0.0478,0.0000,0.1262,0.2665,"999",53,45,45,35,0,01,3,f3*ae53abf1
$GPGSV,3,1,11,12,16,317,41,03,11,039,29,06,58,331,47,14,19,174,34,1*61
$GPGSV,3,2,11,09,26,114,41,17,56,097,46,19,72,036,46,22,40,189,45,1*6F
$GPGSV,3,3,11,04,18,071,32,11,36,280,44,20,26,223,41,1*51
$GPGSV,3,1,11,12,16,317,38,03,11,039,28,06,58,331,48,14,19,174,36,4*66
$GPGSV,3,2,11,09,26,114,40,17,56,097,46,19,72,036,45,22,40,189,40,4*6D
$GPGSV,3,3,11,04,18,071,35,11,36,280,44,20,26,223,36,4*53
$GPGSV,2,1,06,03,11,039,32,06,58,331,51,14,19,174,40,09,26,114,46,8*6E
$GPGSV,2,2,06,04,18,071,35,11,36,280,46,8*6B
$GLGSV,2,1,07,74,22,221,40,75,31,281,49,69,45,073,52,84,41,034,42,1*79
$GLGSV,2,2,07,85,33,319,50,68,12,029,35,70,31,160,35,1*48
$GLGSV,2,1,05,75,31,281,48,69,45,073,49,84,41,034,43,85,33,319,46,3*71
$GLGSV,2,2,05,68,12,029,27,3*4C
$GBGSV,5,1,20,01,44,136,45,02,36,231,38,03,51,195,43,07,81,183,46,1*73
$GBGSV,5,2,20,08,63,237,43,10,77,284,45,12,51,331,45,13,49,232,44,1*7A
$GBGSV,5,3,20,22,55,095,48,24,21,237,44,38,75,251,48,40,74,118,48,1*71
$GBGSV,5,4,20,59,45,144,46,60,34,236,44,04,33,119,40,19,19,042,36,1*77
$GBGSV,5,5,20,44,64,015,48,25,14,291,35,21,36,174,46,34,28,305,43,1*7A
$GBGSV,5,1,20,01,44,136,43,02,36,231,40,03,51,195,45,07,81,183,47,8*74
$GBGSV,5,2,20,08,63,237,47,10,77,284,47,12,51,331,50,13,49,232,45,8*70
$GBGSV,5,3,20,22,55,095,51,24,21,237,41,38,75,251,50,40,74,118,50,8*75
$GBGSV,5,4,20,59,45,144,48,60,34,236,44,04,33,119,39,19,19,042,36,8*7E
$GBGSV,5,5,20,44,64,015,51,25,14,291,36,21,36,174,46,34,28,305,43,8*78
$GBGSV,3,1,09,01,44,136,45,02,36,231,45,03,51,195,46,07,81,183,49,B*0D
$GBGSV,3,2,09,08,63,237,49,10,77,284,48,12,51,331,51,13,49,232,46,B*04
$GBGSV,3,3,09,04,33,119,42,B*37
$GAGSV,3,1,09,02,16,171,29,15,48,297,47,27,36,299,45,30,51,221,48,1*79
$GAGSV,3,2,09,34,51,028,48,36,10,065,24,05,25,092,43,09,06,043,16,1*78
$GAGSV,3,3,09,03,18,146,35,1*43
$GAGSV,3,1,09,02,16,171,37,15,48,297,50,27,36,299,47,30,51,221,50,2*78
$GAGSV,3,2,09,34,51,028,50,36,10,065,25,05,25,092,45,09,06,043,15,2*76
$GAGSV,3,3,09,03,18,146,35,2*40
$GAGSV,2,1,08,02,16,171,32,15,48,297,45,27,36,299,42,30,51,221,45,7*7D
$GAGSV,2,2,08,34,51,028,46,36,10,065,23,05,25,092,40,03,18,146,31,7*70
$GNGGA,082935.00,3207.95361842,N,11841.73832276,E,1,28,0.7,8.2578,M,1.7756,M,,*4B
$GNRMC,082935.00,A,3207.95361842,N,11841.73832276,E,0.005,222.2,030424,6.1,W,A,C*53
#HEADINGA,COM3,9984,88.0,FINE,2308,289793.000,4688924,16,18;SOL_COMPUTED,NARROW_INT,1.9937,180.7384,-0.0479,0.0000,0.1266,0.2694,"999",53,45,45,36,0,01,3,f3*5451241e
$GPGSV,3,1,11,12,16,317,41,03,11,039,29,06,58,331,47,14,19,174,34,1*61
$GPGSV,3,2,11,09,26,114,41,17,56,097,46,19,72,036,46,22,40,189,45,1*6F
$GPGSV,3,3,11,04,18,071,33,11,36,280,44,20,26,223,42,1*53
$GPGSV,3,1,11,12,16,317,37,03,11,039,27,06,58,331,47,14,19,174,36,4*69
$GPGSV,3,2,11,09,26,114,40,17,56,097,46,19,72,036,45,22,40,189,41,4*6C
$GPGSV,3,3,11,04,18,071,34,11,36,280,44,20,26,223,36,4*52
$GPGSV,2,1,06,03,11,039,32,06,58,331,51,14,19,174,40,09,26,114,46,8*6E
$GPGSV,2,2,06,04,18,071,35,11,36,280,46,8*6B
$GLGSV,2,1,07,74,22,221,40,75,31,281,49,69,45,073,51,84,41,034,42,1*7A
$GLGSV,2,2,07,85,33,319,50,68,12,029,35,70,31,160,35,1*48
$GLGSV,2,1,05,75,31,281,48,69,45,073,49,84,41,034,43,85,33,319,47,3*70
$GLGSV,2,2,05,68,12,029,26,3*4D
$GBGSV,5,1,20,01,44,136,45,02,36,231,38,03,51,195,43,07,81,183,46,1*73
$GBGSV,5,2,20,08,63,237,43,10,77,284,45,12,51,331,46,13,49,232,44,1*79
$GBGSV,5,3,20,22,55,095,48,24,21,237,44,38,75,251,48,40,74,118,48,1*71
$GBGSV,5,4,20,59,45,144,46,60,34,236,45,04,33,119,40,19,19,042,36,1*76
$GBGSV,5,5,20,44,64,015,48,25,14,291,35,21,36,174,46,34,28,305,43,1*7A
$GBGSV,5,1,20,01,44,136,43,02,36,231,40,03,51,195,45,07,81,183,47,8*74
$GBGSV,5,2,20,08,63,237,47,10,77,284,46,12,51,331,50,13,49,232,45,8*71
$GBGSV,5,3,20,22,55,095,50,24,21,237,41,38,75,251,50,40,74,118,50,8*74
$GBGSV,5,4,20,59,45,144,47,60,34,236,44,04,33,119,39,19,19,042,36,8*71
$GBGSV,5,5,20,44,64,015,51,25,14,291,36,21,36,174,46,34,28,305,43,8*78
$GBGSV,3,1,09,01,44,136,45,02,36,231,45,03,51,195,46,07,81,183,49,B*0D
$GBGSV,3,2,09,08,63,237,49,10,77,284,48,12,51,331,51,13,49,232,46,B*04
$GBGSV,3,3,09,04,33,119,42,B*37
$GAGSV,3,1,09,02,16,171,29,15,48,297,47,27,36,299,45,30,51,221,48,1*79
$GAGSV,3,2,09,34,51,028,48,36,10,065,23,05,25,092,43,09,06,043,16,1*7F
$GAGSV,3,3,09,03,18,146,35,1*43
$GAGSV,3,1,09,02,16,171,36,15,48,297,50,27,36,299,47,30,51,221,50,2*79
$GAGSV,3,2,09,34,51,028,50,36,10,065,24,05,25,092,45,09,06,043,16,2*74
$GAGSV,3,3,09,03,18,146,35,2*40
$GAGSV,2,1,08,02,16,171,32,15,48,297,45,27,36,299,42,30,51,221,45,7*7D
$GAGSV,2,2,08,34,51,028,46,36,10,065,22,05,25,092,39,03,18,146,31,7*7F
$GNGGA,082936.00,3207.95361716,N,11841.73832103,E,1,28,0.7,8.2671,M,1.7756,M,,*4D
$GNRMC,082936.00,A,3207.95361716,N,11841.73832103,E,0.005,220.1,030424,6.1,W,A,C*5E
#HEADINGA,COM3,9984,87.0,FINE,2308,289794.000,4689924,17,18;SOL_COMPUTED,NARROW_INT,1.9937,180.6415,-0.0480,0.0000,0.1262,0.2677,"999",53,45,45,36,0,01,3,f3*e05606ed
$GPGSV,3,1,11,12,16,317,41,03,11,039,29,06,58,331,47,14,19,174,34,1*61
$GPGSV,3,2,11,09,26,114,42,17,56,097,47,19,72,036,46,22,40,189,45,1*6D
$GPGSV,3,3,11,04,18,071,33,11,36,280,44,20,26,223,42,1*53
$GPGSV,3,1,11,12,16,317,37,03,11,039,27,06,58,331,47,14,19,174,35,4*6A
$GPGSV,3,2,11,09,26,114,40,17,56,097,46,19,72,036,45,22,40,189,41,4*6C
$GPGSV,3,3,11,04,18,071,34,11,36,280,44,20,26,223,36,4*52
$GPGSV,2,1,06,03,11,039,32,06,58,331,51,14,19,174,40,09,26,114,46,8*6E
$GPGSV,2,2,06,04,18,071,35,11,36,280,46,8*6B
$GLGSV,2,1,07,74,22,221,39,75,31,281,50,69,45,073,51,84,41,034,42,1*7C
$GLGSV,2,2,07,85,33,319,50,68,12,029,35,70,31,160,35,1*48
$GLGSV,2,1,05,75,31,281,48,69,45,073,49,84,41,034,43,85,33,319,47,3*70
$GLGSV,2,2,05,68,12,029,26,3*4D
$GBGSV,5,1,20,01,44,136,45,02,36,231,38,03,51,195,43,07,81,183,46,1*73
$GBGSV,5,2,20,08,63,237,43,10,77,284,45,12,51,331,46,13,49,232,45,1*78
$GBGSV,5,3,20,22,55,095,48,24,21,237,44,38,75,251,48,40,74,118,48,1*71
$GBGSV,5,4,20,59,45,144,46,60,34,236,45,04,33,119,40,19,19,042,36,1*76
$GBGSV,5,5,20,44,64,015,48,25,14,291,35,21,36,174,47,34,28,305,43,1*7B
$GBGSV,5,1,20,01,44,136,43,02,36,231,40,03,51,195,45,07,81,183,47,8*74
$GBGSV,5,2,20,08,63,237,47,10,77,284,46,12,51,331,50,13,49,232,45,8*71
$GBGSV,5,3,20,22,55,095,50,24,21,237,40,38,75,251,50,40,74,118,50,8*75
$GBGSV,5,4,20,59,45,144,48,60,34,236,44,04,33,119,39,19,19,042,36,8*7E
$GBGSV,5,5,20,44,64,015,51,25,14,291,36,21,36,174,46,34,28,305,43,8*78
$GBGSV,3,1,09,01,44,136,45,02,36,231,46,03,51,195,46,07,81,183,49,B*0E
$GBGSV,3,2,09,08,63,237,49,10,77,284,48,12,51,331,51,13,49,232,46,B*04
$GBGSV,3,3,09,04,33,119,43,B*36
$GAGSV,3,1,09,02,16,171,28,15,48,297,47,27,36,299,45,30,51,221,48,1*78
$GAGSV,3,2,09,34,51,028,48,36,10,065,23,05,25,092,43,09,06,043,15,1*7C
$GAGSV,3,3,09,03,18,146,35,1*43
$GAGSV,3,1,09,02,16,171,36,15,48,297,51,27,36,299,48,30,51,221,50,2*77
$GAGSV,3,2,09,34,51,028,51,36,10,065,23,05,25,092,45,09,06,043,18,2*7C
$GAGSV,3,3,09,03,18,146,35,2*40
$GAGSV,2,1,08,02,16,171,32,15,48,297,45,27,36,299,42,30,51,221,45,7*7D
$GAGSV,2,2,08,34,51,028,46,36,10,065,22,05,25,092,40,03,18,146,31,7*71
$GNGGA,082937.00,3207.95361580,N,11841.73831928,E,1,28,0.7,8.2758,M,1.7756,M,,*49
$GNRMC,082937.00,A,3207.95361580,N,11841.73831928,E,0.006,215.1,030424,6.1,W,A,C*55
#HEADINGA,COM3,9984,89.0,FINE,2308,289795.000,4690924,17,18;SOL_COMPUTED,NARROW_INT,1.9937,180.5447,-0.0481,0.0000,0.1258,0.2656,"999",53,45,45,36,0,01,3,f3*e571f544
$GPGSV,3,1,11,12,16,317,41,03,11,039,30,06,58,331,47,14,19,174,34,1*69
$GPGSV,3,2,11,09,26,114,42,17,56,097,47,19,72,036,46,22,40,189,45,1*6D
$GPGSV,3,3,11,04,18,071,34,11,36,280,44,20,26,223,41,1*57
$GPGSV,3,1,11,12,16,317,38,03,11,039,27,06,58,331,47,14,19,174,35,4*65
$GPGSV,3,2,11,09,26,114,40,17,56,097,46,19,72,036,45,22,40,189,41,4*6C
$GPGSV,3,3,11,04,18,071,34,11,36,280,44,20,26,223,36,4*52
$GPGSV,2,1,06,03,11,039,31,06,58,331,51,14,19,174,40,09,26,114,46,8*6D
$GPGSV,2,2,06,04,18,071,35,11,36,280,46,8*6B
$GLGSV,2,1,07,74,22,221,39,75,31,281,50,69,45,073,51,84,41,034,42,1*7C
$GLGSV,2,2,07,85,33,319,51,68,12,029,34,70,31,160,35,1*48
$GLGSV,2,1,05,75,31,281,48,69,45,073,49,84,41,034,43,85,33,319,47,3*70
$GLGSV,2,2,05,68,12,029,29,3*42
$GBGSV,5,1,20,01,44,136,45,02,36,231,38,03,51,195,44,07,81,183,46,1*74
$GBGSV,5,2,20,08,63,237,43,10,77,284,45,12,52,331,46,13,49,232,45,1*7B
$GBGSV,5,3,20,22,55,095,48,24,21,237,44,38,75,251,48,40,74,118,48,1*71
$GBGSV,5,4,20,59,45,144,46,60,34,236,45,04,33,119,40,19,19,042,36,1*76
$GBGSV,5,5,20,44,64,015,48,25,14,291,35,21,36,174,47,34,28,305,43,1*7B
$GBGSV,5,1,20,01,44,136,42,02,36,231,40,03,51,195,45,07,81,183,47,8*75
$GBGSV,5,2,20,08,63,237,47,10,77,284,46,12,52,331,50,13,49,232,45,8*72
$GBGSV,5,3,20,22,55,095,50,24,21,237,40,38,75,251,50,40,74,118,50,8*75
$GBGSV,5,4,20,59,45,144,47,60,34,236,43,04,33,119,39,19,19,042,36,8*76
$GBGSV,5,5,20,44,64,015,50,25,14,291,36,21,36,174,46,34,28,305,43,8*79
$GBGSV,3,1,09,01,44,136,45,02,36,231,45,03,51,195,46,07,81,183,49,B*0D
$GBGSV,3,2,09,08,63,237,49,10,77,284,48,12,52,331,51,13,49,232,46,B*07
$GBGSV,3,3,09,04,33,119,42,B*37
$GAGSV,3,1,09,02,16,171,29,15,48,297,47,27,36,299,45,30,51,221,48,1*79
$GAGSV,3,2,09,34,51,028,48,36,10,065,23,05,25,092,43,09,06,043,15,1*7C
$GAGSV,3,3,09,03,18,146,35,1*43
$GAGSV,3,1,09,02,16,171,36,15,48,297,50,27,36,299,47,30,51,221,50,2*79
$GAGSV,3,2,09,34,51,028,50,36,10,065,24,05,25,092,45,09,06,043,19,2*7B
$GAGSV,3,3,09,03,18,146,35,2*40
$GAGSV,2,1,08,02,16,171,32,15,48,297,45,27,36,299,42,30,51,221,45,7*7D
$GAGSV,2,2,08,34,51,028,46,36,10,065,22,05,25,092,40,03,18,146,31,7*71
$GNGGA,082938.00,3207.95361459,N,11841.73831763,E,1,28,0.7,8.2840,M,1.7756,M,,*44
$GNRMC,082938.00,A,3207.95361459,N,11841.73831763,E,0.005,212.7,030424,6.1,W,A,C*5C
#HEADINGA,COM3,9984,90.0,FINE,2308,289796.000,4691923,17,18;SOL_COMPUTED,NARROW_INT,1.9937,180.4480,-0.0483,0.0000,0.1253,0.2630,"999",53,45,45,35,0,01,3,f3*179ee9fe
$GPGSV,3,1,11,12,16,317,41,03,11,039,30,06,58,331,47,14,19,174,34,1*69
$GPGSV,3,2,11,09,26,114,41,17,56,097,46,19,72,036,46,22,40,189,45,1*6F
$GPGSV,3,3,11,04,18,071,34,11,36,280,44,20,26,223,41,1*57
$GPGSV,3,1,11,12,16,317,37,03,11,039,26,06,58,331,47,14,19,174,36,4*68
$GPGSV,3,2,11,09,26,114,40,17,56,097,46,19,72,036,45,22,40,189,41,4*6C
$GPGSV,3,3,11,04,18,071,34,11,36,280,44,20,26,223,36,4*52
$GPGSV,2,1,06,03,11,039,31,06,58,331,51,14,19,174,40,09,26,114,46,8*6D
$GPGSV,2,2,06,04,18,071,35,11,36,280,46,8*6B
$GLGSV,2,1,07,74,22,221,40,75,31,281,50,69,45,073,51,84,41,034,42,1*72
$GLGSV,2,2,07,85,33,319,50,68,12,029,34,70,31,160,35,1*49
$GLGSV,2,1,05,75,31,281,48,69,45,073,49,84,41,034,43,85,33,319,47,3*70
$GLGSV,2,2,05,68,12,029,29,3*42
$GBGSV,5,1,20,01,44,136,45,02,36,231,38,03,51,195,44,07,81,183,46,1*74
$GBGSV,5,2,20,08,63,237,43,10,77,284,45,12,52,331,46,13,49,232,44,1*7A
$GBGSV,5,3,20,22,55,095,48,24,21,237,44,38,75,251,48,40,74,118,48,1*71
$GBGSV,5,4,20,59,45,144,46,60,34,236,45,04,33,119,40,19,19,042,36,1*76
$GBGSV,5,5,20,44,64,015,48,25,14,291,35,21,36,174,47,34,28,305,43,1*7B
$GBGSV,5,1,20,01,44,136,42,02,36,231,40,03,51,195,44,07,81,183,47,8*74
$GBGSV,5,2,20,08,63,237,46,10,77,284,46,12,52,331,49,13,49,232,45,8*7B
$GBGSV,5,3,20,22,55,095,50,24,21,237,40,38,75,251,49,40,74,118,50,8*7D
$GBGSV,5,4,20,59,45,144,47,60,34,236,43,04,33,119,39,19,19,042,35,8*75
$GBGSV,5,5,20,44,64,015,50,25,14,291,36,21,36,174,46,34,28,305,43,8*79
$GBGSV,3,1,09,01,44,136,45,02,36,231,45,03,51,195,46,07,81,183,49,B*0D
$GBGSV,3,2,09,08,63,237,48,10,77,284,48,12,52,331,51,13,49,232,46,B*06
$GBGSV,3,3,09,04,33,119,42,B*37
$GAGSV,3,1,09,02,16,171,28,15,48,297,47,27,36,299,45,30,51,221,48,1*78
$GAGSV,3,2,09,34,51,028,48,36,10,065,23,05,25,092,42,09,06,043,16,1*7E
$GAGSV,3,3,09,03,18,146,35,1*43
$GAGSV,3,1,09,02,16,171,36,15,48,297,50,27,36,299,47,30,51,221,50,2*79
$GAGSV,3,2,09,34,51,028,50,36,10,065,24,05,25,092,45,09,06,043,19,2*7B
$GAGSV,3,3,09,03,18,146,35,2*40
$GAGSV,2,1,08,02,16,171,32,15,48,297,45,27,36,299,42,30,51,221,46,7*7E
$GAGSV,2,2,08,34,51,028,46,36,10,065,22,05,25,092,40,03,18,146,31,7*71
$GNGGA,082939.00,3207.95361339,N,11841.73831603,E,1,28,0.7,8.2924,M,1.7756,M,,*40
$GNRMC,082939.00,A,3207.95361339,N,11841.73831603,E,0.005,207.9,030424,6.1,W,A,C*51
#HEADINGA,COM3,9984,88.0,FINE,2308,289797.000,4692924,17,18;SOL_COMPUTED,NARROW_INT,1.9937,180.3514,-0.0485,0.0000,0.1251,0.2622,"999",53,45,45,35,0,01,3,f3*a83d0c9f
$GPGSV,3,1,11,12,16,317,41,03,11,039,29,06,58,331,47,14,19,174,34,1*61
$GPGSV,3,2,11,09,26,114,41,17,56,097,46,19,72,036,46,22,40,189,45,1*6F
$GPGSV,3,3,11,04,18,071,34,11,36,280,43,20,26,223,41,1*50
$GPGSV,3,1,11,12,16,317,37,03,11,039,27,06,58,331,47,14,19,174,35,4*6A
$GPGSV,3,2,11,09,26,114,40,17,56,097,46,19,72,036,45,22,40,189,40,4*6D
$GPGSV,3,3,11,04,18,071,34,11,36,280,44,20,26,223,36,4*52
$GPGSV,2,1,06,03,11,039,31,06,58,331,51,14,19,174,40,09,26,114,46,8*6D
$GPGSV,2,2,06,04,18,071,36,11,36,280,46,8*68
$GLGSV,2,1,07,74,22,221,40,75,31,281,50,69,45,073,51,84,41,034,42,1*72
$GLGSV,2,2,07,85,33,319,50,68,12,029,35,70,31,160,36,1*4B
$GLGSV,2,1,05,75,31,281,48,69,45,073,49,84,41,034,43,85,33,319,47,3*70
$GLGSV,2,2,05,68,12,029,29,3*42
$GBGSV,5,1,20,01,44,136,45,02,36,231,38,03,51,195,44,07,81,183,46,1*74
$GBGSV,5,2,20,08,63,237,44,10,77,284,45,12,52,331,46,13,49,232,44,1*7D
$GBGSV,5,3,20,22,55,095,48,24,21,237,44,38,75,251,48,40,74,118,48,1*71
$GBGSV,5,4,20,59,45,144,46,60,34,236,45,04,33,119,40,19,19,042,36,1*76
$GBGSV,5,5,20,44,64,015,48,25,14,291,35,21,36,174,47,34,28,305,43,1*7B
$GBGSV,5,1,20,01,44,136,42,02,36,231,40,03,51,195,44,07,81,183,47,8*74
$GBGSV,5,2,20,08,63,237,46,10,77,284,46,12,52,331,49,13,49,232,45,8*7B
$GBGSV,5,3,20,22,55,095,50,24,21,237,40,38,75,251,49,40,74,118,50,8*7D
$GBGSV,5,4,20,59,45,144,47,60,34,236,43,04,33,119,39,19,19,042,35,8*75
$GBGSV,5,5,20,44,64,015,50,25,14,291,35,21,36,174,46,34,28,305,43,8*7A
$GBGSV,3,1,09,01,44,136,45,02,36,231,45,03,51,195,46,07,81,183,49,B*0D
$GBGSV,3,2,09,08,63,237,48,10,77,284,48,12,52,331,51,13,49,232,46,B*06
$GBGSV,3,3,09,04,33,119,42,B*37
$GAGSV,3,1,09,02,16,171,28,15,48,297,47,27,36,299,45,30,51,221,48,1*78
$GAGSV,3,2,09,34,51,028,48,36,10,065,24,05,25,092,42,09,06,043,16,1*79
$GAGSV,3,3,09,03,18,146,35,1*43
$GAGSV,3,1,09,02,16,171,36,15,48,297,50,27,36,299,47,30,51,221,50,2*79
$GAGSV,3,2,09,34,51,028,50,36,10,065,24,05,25,092,45,09,06,043,19,2*7B
$GAGSV,3,3,09,03,18,146,35,2*40
$GAGSV,2,1,08,02,16,171,32,15,48,297,45,27,36,299,42,30,51,221,45,7*7D
$GAGSV,2,2,08,34,51,028,46,36,10,065,23,05,25,092,39,03,18,146,31,7*7E
$GNGGA,082940.00,3207.95361226,N,11841.73831434,E,1,28,0.7,8.3007,M,1.7756,M,,*4E
$GNRMC,082940.00,A,3207.95361226,N,11841.73831434,E,0.006,212.6,030424,6.1,W,A,C*5E
#HEADINGA,COM3,9984,87.0,FINE,2308,289798.000,4693924,16,18;SOL_COMPUTED,NARROW_INT,1.9937,180.2548,-0.0486,0.0000,0.1250,0.2612,"999",53,45,45,35,0,01,3,f3*22fbe305
$GPGSV,3,1,11,12,16,317,41,03,11,039,29,06,58,331,47,14,19,174,35,1*60
$GPGSV,3,2,11,09,26,114,41,17,56,097,47,19,72,036,46,22,40,189,45,1*6E
$GPGSV,3,3,11,04,18,071,35,11,36,280,43,20,26,223,41,1*51
$GPGSV,3,1,11,12,16,317,37,03,11,039,26,06,58,331,47,14,19,174,35,4*6B
$GPGSV,3,2,11,09,26,114,40,17,56,097,46,19,72,036,45,22,40,189,41,4*6C
$GPGSV,3,3,11,04,18,071,33,11,36,280,44,20,26,223,36,4*55
$GPGSV,2,1,06,03,11,039,31,06,58,331,51,14,19,174,40,09,26,114,46,8*6D
$GPGSV,2,2,06,04,18,071,35,11,36,280,46,8*6B
$GLGSV,2,1,07,74,22,221,40,75,31,281,50,69,45,073,51,84,41,034,42,1*72
$GLGSV,2,2,07,85,33,319,50,68,12,029,35,70,31,160,36,1*4B
$GLGSV,2,1,05,75,31,281,48,69,45,073,49,84,41,034,43,85,33,319,47,3*70
$GLGSV,2,2,05,68,12,029,28,3*43
$GBGSV,5,1,20,01,44,136,45,02,36,231,39,03,51,195,44,07,81,183,46,1*75
$GBGSV,5,2,20,08,63,237,44,10,77,284,45,12,52,331,46,13,49,232,44,1*7D
$GBGSV,5,3,20,22,55,095,49,24,21,237,44,38,75,251,48,40,74,118,48,1*70
$GBGSV,5,4,20,59,45,144,46,60,34,236,45,04,33,119,41,19,19,042,36,1*77
$GBGSV,5,5,20,44,64,015,48,25,14,291,35,21,36,174,47,34,28,305,43,1*7B
$GBGSV,5,1,20,01,44,136,42,02,36,231,40,03,51,195,44,07,81,183,47,8*74
$GBGSV,5,2,20,08,63,237,46,10,77,284,46,12,52,331,49,13,49,232,45,8*7B
$GBGSV,5,3,20,22,55,095,50,24,21,237,40,38,75,251,49,40,74,118,50,8*7D
$GBGSV,5,4,20,59,45,144,47,60,34,236,43,04,33,119,39,19,19,042,36,8*76
$GBGSV,5,5,20,44,64,015,50,25,14,291,36,21,36,174,46,34,28,305,43,8*79
$GBGSV,3,1,09,01,44,136,45,02,36,231,45,03,51,195,46,07,81,183,49,B*0D
$GBGSV,3,2,09,08,63,237,49,10,77,284,48,12,52,331,51,13,49,232,46,B*07
$GBGSV,3,3,09,04,33,119,42,B*37
$GAGSV,3,1,09,02,16,171,29,15,48,297,47,27,36,299,45,30,51,221,48,1*79
$GAGSV,3,2,09,34,51,028,48,36,10,065,24,05,25,092,43,09,06,043,15,1*7B
$GAGSV,3,3,09,03,18,146,35,1*43
$GAGSV,3,1,09,02,16,171,36,15,48,297,50,27,36,299,47,30,51,221,50,2*79
$GAGSV,3,2,09,34,51,028,50,36,10,065,24,05,25,092,45,09,06,043,19,2*7B
$GAGSV,3,3,09,03,18,146,35,2*40
$GAGSV,2,1,08,02,16,171,32,15,48,297,45,27,36,299,43,30,51,221,46,7*7F
$GAGSV,2,2,08,34,51,028,46,36,10,065,23,05,25,092,40,03,18,146,31,7*70
$GNGGA,082941.00,3207.95361116,N,11841.73831267,E,1,28,0.7,8.3089,M,1.7756,M,,*49
$GNRMC,082941.00,A,3207.95361116,N,11841.73831267,E,0.006,210.9,030424,6.1,W,A,C*52
#HEADINGA,COM3,9984,89.0,FINE,2308,289799.000,4694923,17,18;SOL_COMPUTED,NARROW_INT,1.9938,180.1584,-0.0488,0.0000,0.1245,0.2610,"999",53,45,45,35,0,01,3,f3*cf02febe
$GPGSV,3,1,11,12,16,317,41,03,11,039,29,06,58,331,47,14,19,174,34,1*61
$GPGSV,3,2,11,09,26,114,41,17,56,097,46,19,72,036,46,22,40,189,45,1*6F
$GPGSV,3,3,11,04,18,071,35,11,36,280,43,20,26,223,41,1*51
$GPGSV,3,1,11,12,16,317,37,03,11,039,26,06,58,331,47,14,19,174,35,4*6B
$GPGSV,3,2,11,09,26,114,40,17,56,097,46,19,72,036,45,22,40,189,41,4*6C
$GPGSV,3,3,11,04,18,071,33,11,36,280,44,20,26,223,36,4*55
$GPGSV,2,1,06,03,11,039,31,06,58,331,51,14,19,174,40,09,26,114,46,8*6D
$GPGSV,2,2,06,04,18,071,35,11,36,280,46,8*6B
$GLGSV,2,1,07,74,22,221,40,75,31,281,50,69,45,073,51,84,41,034,42,1*72
$GLGSV,2,2,07,85,33,319,50,68,12,029,34,70,31,160,35,1*49
$GLGSV,2,1,05,75,31,281,48,69,45,073,49,84,41,034,43,85,33,319,46,3*71
$GLGSV,2,2,05,68,12,029,29,3*42
$GBGSV,5,1,20,01,44,136,45,02,36,231,39,03,51,195,44,07,81,183,46,1*75
$GBGSV,5,2,20,08,63,237,44,10,77,284,45,12,52,331,46,13,49,232,44,1*7D
$GBGSV,5,3,20,22,55,095,48,24,21,237,44,38,75,251,48,40,74,118,48,1*71
$GBGSV,5,4,20,59,45,144,46,60,34,236,45,04,33,119,40,19,19,042,36,1*76
$GBGSV,5,5,20,44,64,015,48,25,14,291,35,21,36,174,47,34,28,305,43,1*7B
$GBGSV,5,1,20,01,44,136,42,02,36,231,40,03,51,195,45,07,81,183,47,8*75
$GBGSV,5,2,20,08,63,237,46,10,77,284,46,12,52,331,50,13,49,232,45,8*73
$GBGSV,5,3,20,22,55,095,50,24,21,237,40,38,75,251,49,40,74,118,50,8*7D
$GBGSV,5,4,20,59,45,144,47,60,34,236,43,04,33,119,39,19,19,042,35,8*75
$GBGSV,5,5,20,44,64,015,50,25,14,291,36,21,36,174,46,34,28,305,43,8*79
$GBGSV,3,1,09,01,44,136,45,02,36,231,45,03,51,195,46,07,81,183,49,B*0D
$GBGSV,3,2,09,08,63,237,48,10,77,284,48,12,52,331,51,13,49,232,46,B*06
$GBGSV,3,3,09,04,33,119,42,B*37
$GAGSV,3,1,09,02,16,171,28,15,48,297,47,27,36,299,45,30,51,221,48,1*78
$GAGSV,3,2,09,34,51,028,48,36,10,065,24,05,25,092,42,09,06,043,15,1*7A
$GAGSV,3,3,09,03,18,146,34,1*42
$GAGSV,3,1,09,02,16,171,36,15,48,297,50,27,36,299,47,30,51,221,50,2*79
$GAGSV,3,2,09,34,51,028,50,36,10,065,24,05,25,092,45,09,06,043,19,2*7B
$GAGSV,3,3,09,03,18,146,35,2*40
$GAGSV,2,1,08,02,16,171,32,15,48,297,45,27,36,299,43,30,51,221,46,7*7F
$GAGSV,2,2,08,34,51,028,46,36,10,065,23,05,25,092,40,03,18,146,31,7*70
$GNGGA,082942.00,3207.95361012,N,11841.73831097,E,1,28,0.7,8.3167,M,1.7756,M,,*43
$GNRMC,082942.00,A,3207.95361012,N,11841.73831097,E,0.006,213.2,030424,6.1,W,A,C*51
#HEADINGA,COM3,9984,90.0,FINE,2308,289800.000,4695923,17,18;SOL_COMPUTED,NARROW_INT,1.9938,180.0620,-0.0490,0.0000,0.1246,0.2611,"999",53,45,45,35,0,01,3,f3*9cd3efbc
$GPGSV,3,1,11,12,16,316,41,03,11,039,28,06,58,331,47,14,19,174,34,1*61
$GPGSV,3,2,11,09,26,114,41,17,56,097,46,19,72,036,46,22,40,189,45,1*6F
$GPGSV,3,3,11,04,18,071,35,11,36,280,43,20,26,223,41,1*51
$GPGSV,3,1,11,12,16,316,37,03,11,039,26,06,58,331,47,14,19,174,35,4*6A
$GPGSV,3,2,11,09,26,114,40,17,56,097,46,19,72,036,45,22,40,189,41,4*6C
$GPGSV,3,3,11,04,18,071,33,11,36,280,44,20,26,223,36,4*55
$GPGSV,2,1,06,03,11,039,31,06,58,331,51,14,19,174,40,09,26,114,46,8*6D
$GPGSV,2,2,06,04,18,071,35,11,36,280,46,8*6B
$GLGSV,2,1,07,74,22,221,39,75,31,281,50,69,45,073,51,84,41,034,42,1*7C
$GLGSV,2,2,07,85,33,319,50,68,12,029,35,70,31,160,35,1*48
$GLGSV,2,1,05,75,31,281,47,69,45,073,49,84,41,034,43,85,33,319,46,3*7E
$GLGSV,2,2,05,68,12,029,29,3*42
$GBGSV,5,1,20,01,44,136,45,02,36,231,38,03,51,195,43,07,81,183,46,1*73
$GBGSV,5,2,20,08,63,237,43,10,77,284,45,12,52,331,46,13,49,232,44,1*7A
$GBGSV,5,3,20,22,55,095,48,24,21,237,44,38,75,251,48,40,74,118,48,1*71
$GBGSV,5,4,20,59,45,144,46,60,34,236,45,04,33,119,40,19,19,042,36,1*76
$GBGSV,5,5,20,44,64,015,48,25,14,291,34,21,36,174,47,34,28,305,43,1*7A
$GBGSV,5,1,20,01,44,136,42,02,36,231,40,03,51,195,45,07,81,183,47,8*75
$GBGSV,5,2,20,08,63,237,47,10,77,284,46,12,52,331,49,13,49,232,45,8*7A
$GBGSV,5,3,20,22,55,095,50,24,21,237,40,38,75,251,49,40,74,118,50,8*7D
$GBGSV,5,4,20,59,45,144,47,60,34,236,43,04,33,119,39,19,19,042,36,8*76
$GBGSV,5,5,20,44,64,015,50,25,14,291,36,21,36,174,46,34,28,305,43,8*79
$GBGSV,3,1,09,01,44,136,45,02,36,231,45,03,51,195,47,07,81,183,49,B*0C
$GBGSV,3,2,09,08,63,237,49,10,77,284,48,12,52,331,51,13,49,232,46,B*07
$GBGSV,3,3,09,04,33,119,42,B*37
$GAGSV,3,1,09,02,16,171,28,15,48,297,47,27,36,299,45,30,51,221,48,1*78
$GAGSV,3,2,09,34,51,028,48,36,10,065,24,05,25,092,42,09,06,043,14,1*7B
$GAGSV,3,3,09,03,18,146,35,1*43
$GAGSV,3,1,09,02,16,171,36,15,48,297,50,27,36,299,47,30,51,221,50,2*79
$GAGSV,3,2,09,34,51,028,50,36,10,065,23,05,25,092,45,09,06,043,18,2*7D
$GAGSV,3,3,09,03,18,146,35,2*40
$GAGSV,2,1,08,02,16,171,32,15,48,297,45,27,36,299,42,30,51,221,45,7*7D
$GAGSV,2,2,08,34,51,028,46,36,10,065,23,05,25,092,40,03,18,146,31,7*70
$GNGGA,082943.00,3207.95360913,N,11841.73830915,E,1,28,0.7,8.3244,M,1.7756,M,,*4B
$GNRMC,082943.00,A,3207.95360913,N,11841.73830915,E,0.006,217.8,030424,6.1,W,A,C*55
#HEADINGA,COM3,9984,88.0,FINE,2308,289801.000,4696925,18,18;SOL_COMPUTED,NARROW_INT,1.9938,179.9658,-0.0491,0.0000,0.1243,0.2609,"999",53,45,45,35,0,01,3,f3*5d72a012
$GPGSV,3,1,11,12,16,316,41,03,11,039,28,06,58,331,47,14,19,174,35,1*60
$GPGSV,3,2,11,09,26,114,41,17,56,097,46,19,72,036,46,22,40,189,45,1*6F
$GPGSV,3,3,11,04,18,071,35,11,36,280,43,20,26,223,41,1*51
$GPGSV,3,1,11,12,16,316,37,03,11,039,26,06,58,331,47,14,19,174,35,4*6A
$GPGSV,3,2,11,09,26,114,40,17,56,097,46,19,72,036,45,22,40,189,41,4*6C
$GPGSV,3,3,11,04,18,071,33,11,36,280,43,20,26,223,36,4*52
$GPGSV,2,1,06,03,11,039,31,06,58,331,51,14,19,174,40,09,26,114,46,8*6D
$GPGSV,2,2,06,04,18,071,35,11,36,280,46,8*6B
$GLGSV,2,1,07,74,22,221,39,75,31,281,50,69,45,073,51,84,41,034,42,1*7C
$GLGSV,2,2,07,85,33,319,50,68,12,029,35,70,31,160,36,1*4B
$GLGSV,2,1,05,75,31,281,47,69,45,073,49,84,41,034,43,85,33,319,47,3*7F
$GLGSV,2,2,05,68,12,029,29,3*42
$GBGSV,5,1,20,01,44,136,45,02,36,231,38,03,51,195,44,07,81,183,46,1*74
$GBGSV,5,2,20,08,63,237,43,10,77,284,45,12,52,331,46,13,49,232,44,1*7A
$GBGSV,5,3,20,22,55,095,48,24,21,237,44,38,75,251,48,40,74,118,48,1*71
$GBGSV,5,4,20,59,45,144,46,60,34,236,45,04,33,119,40,19,19,042,36,1*76
$GBGSV,5,5,20,44,64,015,48,25,14,291,34,21,36,174,47,34,28,305,43,1*7A
$GBGSV,5,1,20,01,44,136,42,02,36,231,40,03,51,195,44,07,81,183,47,8*74
$GBGSV,5,2,20,08,63,237,47,10,77,284,46,12,52,331,49,13,49,232,45,8*7A
$GBGSV,5,3,20,22,55,095,50,24,21,237,40,38,75,251,49,40,74,118,50,8*7D
$GBGSV,5,4,20,59,45,144,47,60,34,236,43,04,33,119,39,19,19,042,36,8*76
$GBGSV,5,5,20,44,64,015,50,25,14,291,36,21,36,174,46,34,28,305,43,8*79
$GBGSV,3,1,09,01,44,136,45,02,36,231,45,03,51,195,46,07,81,183,49,B*0D
$GBGSV,3,2,09,08,63,237,49,10,77,284,48,12,52,331,51,13,49,232,46,B*07
$GBGSV,3,3,09,04,33,119,42,B*37
$GAGSV,3,1,09,02,16,171,28,15,48,297,47,27,36,299,45,30,51,221,48,1*78
$GAGSV,3,2,09,34,51,028,48,36,10,065,24,05,25,092,42,09,06,043,13,1*7C
$GAGSV,3,3,09,03,18,146,35,1*43
$GAGSV,3,1,09,02,16,171,35,15,48,297,50,27,36,299,47,30,51,221,50,2*7A
$GAGSV,3,2,09,34,51,028,50,36,10,065,23,05,25,092,45,09,06,043,18,2*7D
$GAGSV,3,3,09,03,18,146,35,2*40
$GAGSV,2,1,08,02,16,171,32,15,48,297,45,27,36,299,43,30,51,221,45,7*7C
$GAGSV,2,2,08,34,51,028,46,36,10,065,23,05,25,092,40,03,18,146,31,7*70
$GNGGA,082944.00,3207.95360820,N,11841.73830739,E,1,28,0.7,8.3313,M,1.7756,M,,*4E
$GNRMC,082944.00,A,3207.95360820,N,11841.73830739,E,0.006,216.3,030424,6.1,W,A,C*59
#HEADINGA,COM3,9984,87.0,FINE,2308,289802.000,4697923,17,18;SOL_COMPUTED,NARROW_INT,1.9938,179.8696,-0.0493,0.0000,0.1242,0.2607,"999",53,45,45,35,0,01,3,f3*34d9c977
$GPGSV,3,1,11,12,16,316,41,03,11,039,28,06,58,331,47,14,19,174,35,1*60
$GPGSV,3,2,11,09,26,114,41,17,56,097,46,19,72,036,46,22,40,189,45,1*6F
$GPGSV,3,3,11,04,18,071,35,11,36,280,43,20,26,223,41,1*51
$GPGSV,3,1,11,12,16,316,37,03,11,039,25,06,58,331,47,14,19,174,35,4*69
$GPGSV,3,2,11,09,26,114,40,17,56,097,46,19,72,036,45,22,40,189,41,4*6C
$GPGSV,3,3,11,04,18,071,33,11,36,280,43,20,26,223,36,4*52
$GPGSV,2,1,06,03,11,039,31,06,58,331,51,14,19,174,40,09,26,114,46,8*6D
$GPGSV,2,2,06,04,18,071,35,11,36,280,46,8*6B
$GLGSV,2,1,07,74,22,221,39,75,31,281,50,69,45,073,51,84,41,034,42,1*7C
$GLGSV,2,2,07,85,33,319,50,68,12,029,35,70,31,160,36,1*4B
$GLGSV,2,1,05,75,31,281,48,69,45,073,49,84,41,034,43,85,33,319,46,3*71
$GLGSV,2,2,05,68,12,029,29,3*42
$GBGSV,5,1,20,01,44,136,45,02,36,231,38,03,51,195,43,07,81,183,46,1*73
$GBGSV,5,2,20,08,63,237,43,10,77,284,45,12,52,331,46,13,49,232,44,1*7A
$GBGSV,5,3,20,22,55,095,48,24,21,237,44,38,75,251,48,40,74,118,48,1*71
$GBGSV,5,4,20,59,45,144,46,60,34,236,45,04,33,119,40,19,19,042,36,1*76
$GBGSV,5,5,20,44,64,015,48,25,14,291,34,21,36,174,47,34,28,305,43,1*7A
$GBGSV,5,1,20,01,44,136,43,02,36,231,40,03,51,195,45,07,81,183,47,8*74
$GBGSV,5,2,20,08,63,237,47,10,77,284,46,12,52,331,50,13,49,232,45,8*72
$GBGSV,5,3,20,22,55,095,50,24,21,237,40,38,75,251,49,40,74,118,50,8*7D
$GBGSV,5,4,20,59,45,144,47,60,34,236,43,04,33,119,39,19,19,042,36,8*76
$GBGSV,5,5,20,44,64,015,51,25,14,291,36,21,36,174,46,34,28,305,43,8*78
$GBGSV,3,1,09,01,44,136,45,02,36,231,45,03,51,195,47,07,81,183,49,B*0C
$GBGSV,3,2,09,08,63,237,49,10,77,284,48,12,52,331,51,13,49,232,46,B*07
$GBGSV,3,3,09,04,33,119,42,B*37
$GAGSV,3,1,09,02,16,171,28,15,48,297,47,27,36,299,45,30,51,221,48,1*78
$GAGSV,3,2,09,34,51,028,48,36,10,065,24,05,25,092,42,09,06,043,13,1*7C
$GAGSV,3,3,09,03,18,146,35,1*43
$GAGSV,3,1,09,02,16,171,35,15,48,297,50,27,36,299,47,30,51,221,50,2*7A
$GAGSV,3,2,09,34,51,028,50,36,10,065,24,05,25,092,45,09,06,043,18,2*7A
$GAGSV,3,3,09,03,18,146,35,2*40
$GAGSV,2,1,08,02,16,171,32,15,48,297,45,27,36,299,43,30,51,221,45,7*7C
$GAGSV,2,2,08,34,51,028,46,36,10,065,23,05,25,092,40,03,18,146,31,7*70
$GNGGA,082945.00,3207.95360729,N,11841.73830561,E,1,28,0.7,8.3381,M,1.7756,M,,*4D
$GNRMC,082945.00,A,3207.95360729,N,11841.73830561,E,0.006,216.7,030424,6.1,W,A,C*55
#HEADINGA,COM3,9984,89.0,FINE,2308,289803.000,4698925,16,18;SOL_COMPUTED,NARROW_INT,1.9938,179.7735,-0.0495,0.0000,0.1241,0.2604,"999",53,45,45,35,0,01,3,f3*fb1bb77b
$GPGSV,3,1,11,12,16,316,41,03,11,039,29,06,58,331,47,14,19,174,35,1*61
$GPGSV,3,2,11,09,26,114,41,17,56,097,46,19,72,036,46,22,39,189,45,1*61
$GPGSV,3,3,11,04,18,071,35,11,36,280,43,20,26,223,41,1*51
$GPGSV,3,1,11,12,16,316,37,03,11,039,25,06,58,331,47,14,19,174,35,4*69
$GPGSV,3,2,11,09,26,114,40,17,56,097,46,19,72,036,45,22,39,189,41,4*62
$GPGSV,3,3,11,04,18,071,33,11,36,280,43,20,26,223,36,4*52
$GPGSV,2,1,06,03,11,039,31,06,58,331,51,14,19,174,40,09,26,114,46,8*6D
$GPGSV,2,2,06,04,18,071,36,11,36,280,46,8*68
$GLGSV,2,1,07,74,22,221,39,75,31,281,50,69,45,073,51,84,41,034,42,1*7C
$GLGSV,2,2,07,85,33,319,51,68,12,029,33,70,31,160,36,1*4C
$GLGSV,2,1,05,75,31,281,48,69,45,073,49,84,41,034,43,85,33,319,47,3*70
$GLGSV,2,2,05,68,12,029,28,3*43
