$GNGGA,083855.00,3207.95427889,N,11841.73808900,E,1,28,0.7,8.1007,M,1.7756,M,,*42
$GNRMC,083855.00,A,3207.95427889,N,11841.73808900,E,0.003,87.2,030424,6.1,W,A,C*6F
#HEADINGA,COM3,9984,91.0,FINE,2308,290353.000,5248925,16,18;SOL_COMPUTED,NARROW_INT,1.9940,141.5481,-0.1068,0.0000,0.1390,0.2910,"999",53,41,41,35,0,01,3,f3*3c4dd63c
$GPGSV,3,1,11,12,19,314,41,03,08,039,29,06,58,340,46,14,15,173,25,1*69
$GPGSV,3,2,11,09,29,110,42,17,54,104,45,19,72,051,47,22,35,188,43,1*68
$GPGSV,3,3,11,04,18,067,36,11,38,285,44,20,30,225,42,1*5B
$GPGSV,3,1,11,12,19,314,39,03,08,039,23,06,58,340,48,14,15,173,21,4*63
$GPGSV,3,2,11,09,29,110,37,17,54,104,45,19,72,051,45,22,35,188,39,4*60
$GPGSV,3,3,11,04,18,067,37,11,38,285,44,20,30,225,38,4*52
$GPGSV,2,1,06,03,08,039,31,06,58,340,51,14,15,173,33,09,29,110,43,8*62
$GPGSV,2,2,06,04,18,067,39,11,38,285,47,8*6A
$GLGSV,2,1,07,74,18,218,33,75,29,276,48,69,44,065,51,84,40,041,42,1*78
$GLGSV,2,2,07,85,35,324,51,68,09,026,36,70,36,159,38,1*47
$GLGSV,2,1,05,75,29,276,47,69,44,065,50,84,40,041,43,85,35,324,47,3*7B
$GLGSV,2,2,05,68,09,026,26,3*48
$GBGSV,5,1,20,01,44,136,45,02,36,231,39,03,51,195,46,07,79,186,46,1*75
$GBGSV,5,2,20,08,63,242,42,10,77,277,44,12,54,335,45,13,49,236,44,1*71
$GBGSV,5,3,20,22,55,088,48,24,18,234,39,38,75,260,48,40,73,126,48,1*76
$GBGSV,5,4,20,59,45,144,47,60,34,237,43,04,33,119,42,19,16,040,21,1*79
$GBGSV,5,5,20,44,65,024,50,25,13,287,35,21,40,173,48,34,30,308,44,1*7B
$GBGSV,5,1,20,01,44,136,43,02,36,231,41,03,51,195,45,07,79,186,47,8*77
$GBGSV,5,2,20,08,63,242,47,10,77,277,46,12,54,335,50,13,49,236,45,8*7A
$GBGSV,5,3,20,22,55,088,51,24,18,234,42,38,75,260,50,40,73,126,50,8*7B
$GBGSV,5,4,20,59,45,144,48,60,34,237,44,04,33,119,41,19,16,040,37,8*7C
$GBGSV,5,5,20,44,65,024,51,25,13,287,34,21,40,173,48,34,30,308,43,8*75
$GBGSV,3,1,09,01,44,136,45,02,36,231,45,03,51,195,46,07,79,186,48,B*0E
$GBGSV,3,2,09,08,63,242,48,10,77,277,48,12,54,335,51,13,49,236,46,B*0E
$GBGSV,3,3,09,04,33,119,43,B*36
$GAGSV,2,1,08,02,13,171,23,15,49,302,48,27,38,295,45,30,48,218,48,1*75
$GAGSV,2,2,08,34,49,032,48,05,26,089,39,09,05,041,16,03,21,144,38,1*74
$GAGSV,3,1,09,02,13,171,27,15,49,302,49,27,38,295,46,30,48,218,49,2*71
$GAGSV,3,2,09,34,49,032,49,36,08,068,24,05,26,089,40,09,05,041,21,2*73
$GAGSV,3,3,09,03,21,144,38,2*45
$GAGSV,2,1,08,02,13,171,13,15,49,302,45,27,38,295,45,30,48,218,46,7*73
$GAGSV,2,2,08,34,49,032,47,05,26,089,40,09,05,041,27,03,21,144,35,7*7C
$GNGGA,083856.00,3207.95427667,N,11841.73808755,E,1,28,0.7,8.1124,M,1.7756,M,,*41
$GNRMC,083856.00,A,3207.95427667,N,11841.73808755,E,0.004,79.1,030424,6.1,W,A,C*69
#HEADINGA,COM3,9984,91.0,FINE,2308,290354.000,5249924,16,18;SOL_COMPUTED,NARROW_INT,1.9940,141.5337,-0.1068,0.0000,0.1389,0.2914,"999",53,41,41,35,0,01,3,f3*7b71955a
$GPGSV,3,1,11,12,19,314,41,03,08,039,30,06,58,340,46,14,15,173,31,1*64
$GPGSV,3,2,11,09,29,110,42,17,54,104,45,19,72,051,47,22,35,188,43,1*68
$GPGSV,3,3,11,04,18,067,36,11,38,285,44,20,30,225,41,1*58
$GPGSV,3,1,11,12,19,314,39,03,08,039,22,06,58,340,48,14,15,173,20,4*63
$GPGSV,3,2,11,09,29,110,37,17,54,104,45,19,72,051,45,22,35,188,39,4*60
$GPGSV,3,3,11,04,18,067,37,11,38,285,44,20,30,225,38,4*52
$GPGSV,2,1,06,03,08,039,31,06,58,340,52,14,15,173,32,09,29,110,43,8*60
$GPGSV,2,2,06,04,18,067,39,11,38,285,48,8*65
$GLGSV,2,1,07,74,18,218,32,75,29,276,48,69,44,065,51,84,40,041,42,1*79
$GLGSV,2,2,07,85,35,324,51,68,09,026,36,70,36,159,38,1*47
$GLGSV,2,1,05,75,29,276,47,69,44,065,50,84,40,041,43,85,35,324,47,3*7B
$GLGSV,2,2,05,68,09,026,25,3*4B
$GBGSV,5,1,20,01,44,136,44,02,36,231,39,03,51,195,46,07,79,186,46,1*74
$GBGSV,5,2,20,08,63,242,42,10,77,277,44,12,54,335,45,13,49,236,43,1*76
$GBGSV,5,3,20,22,55,088,48,24,18,234,39,38,75,260,48,40,73,126,48,1*76
$GBGSV,5,4,20,59,45,144,46,60,34,237,43,04,33,119,41,19,16,040,21,1*7B
$GBGSV,5,5,20,44,65,024,50,25,13,287,36,21,40,173,48,34,30,308,44,1*78
$GBGSV,5,1,20,01,44,136,43,02,36,231,41,03,51,195,45,07,79,186,47,8*77
$GBGSV,5,2,20,08,63,242,47,10,77,277,46,12,54,335,50,13,49,236,45,8*7A
$GBGSV,5,3,20,22,55,088,51,24,18,234,42,38,75,260,50,40,73,126,50,8*7B
$GBGSV,5,4,20,59,45,144,48,60,34,237,44,04,33,119,41,19,16,040,37,8*7C
$GBGSV,5,5,20,44,65,024,51,25,13,287,34,21,40,173,48,34,30,308,43,8*75
$GBGSV,3,1,09,01,44,136,45,02,36,231,45,03,51,195,46,07,79,186,48,B*0E
$GBGSV,3,2,09,08,63,242,48,10,77,277,48,12,54,335,51,13,49,236,46,B*0E
$GBGSV,3,3,09,04,33,119,43,B*36
$GAGSV,2,1,08,02,13,171,24,15,49,302,48,27,38,295,45,30,48,218,48,1*72
$GAGSV,2,2,08,34,49,032,48,05,26,089,39,09,05,041,17,03,21,144,37,1*7A
$GAGSV,3,1,09,02,13,171,28,15,49,302,49,27,38,295,46,30,48,218,49,2*7E
$GAGSV,3,2,09,34,49,032,50,36,08,068,24,05,26,089,40,09,05,041,21,2*7B
$GAGSV,3,3,09,03,21,144,39,2*44
$GAGSV,2,1,08,02,13,171,11,15,49,302,45,27,38,295,45,30,48,218,46,7*71
$GAGSV,2,2,08,34,49,032,47,05,26,089,40,09,05,041,26,03,21,144,34,7*7C
$GNGGA,083857.00,3207.95427443,N,11841.73808600,E,1,28,0.7,8.1241,M,1.7756,M,,*45
$GNRMC,083857.00,A,3207.95427443,N,11841.73808600,E,0.002,81.0,030424,6.1,W,A,C*6D
#HEADINGA,COM3,9984,90.0,FINE,2308,290355.000,5250925,16,18;SOL_COMPUTED,NARROW_INT,1.9940,141.5193,-0.1069,0.0000,0.1384,0.2910,"999",53,41,41,35,0,01,3,f3*c10f48de
$GPGSV,3,1,11,12,19,314,41,03,08,039,30,06,58,340,47,14,15,173,29,1*6C
$GPGSV,3,2,11,09,29,110,42,17,54,104,46,19,72,051,47,22,35,188,44,1*6C
$GPGSV,3,3,11,04,18,067,37,11,38,285,44,20,30,225,42,1*5A
$GPGSV,3,1,11,12,19,314,40,03,08,039,25,06,58,340,48,14,15,173,22,4*68
$GPGSV,3,2,11,09,29,110,37,17,54,104,46,19,72,051,46,22,35,188,39,4*60
$GPGSV,3,3,11,04,18,067,37,11,38,285,44,20,30,225,38,4*52
$GPGSV,2,1,06,03,08,039,31,06,58,340,51,14,15,173,32,09,29,110,43,8*63
$GPGSV,2,2,06,04,18,067,39,11,38,285,48,8*65
$GLGSV,2,1,07,74,18,218,34,75,29,276,47,69,44,065,52,84,40,041,42,1*73
$GLGSV,2,2,07,85,35,324,51,68,09,026,36,70,36,159,38,1*47
$GLGSV,2,1,05,75,29,276,48,69,44,065,50,84,40,041,43,85,35,324,47,3*74
$GLGSV,2,2,05,68,09,026,28,3*46
$GBGSV,5,1,20,01,44,136,44,02,36,231,39,03,51,195,46,07,79,186,46,1*74
$GBGSV,5,2,20,08,63,242,43,10,77,277,45,12,54,335,45,13,49,236,44,1*71
$GBGSV,5,3,20,22,55,088,48,24,18,234,39,38,75,260,48,40,73,126,48,1*76
$GBGSV,5,4,20,59,45,144,47,60,34,237,43,04,33,119,42,19,16,040,21,1*79
$GBGSV,5,5,20,44,65,024,51,25,13,287,35,21,40,173,48,34,30,308,44,1*7A
$GBGSV,5,1,20,01,44,136,43,02,36,231,41,03,51,195,45,07,79,186,47,8*77
$GBGSV,5,2,20,08,63,242,47,10,77,277,46,12,54,335,50,13,49,236,45,8*7A
$GBGSV,5,3,20,22,55,088,51,24,18,234,42,38,75,260,50,40,73,126,50,8*7B
$GBGSV,5,4,20,59,45,144,48,60,34,237,44,04,33,119,41,19,16,040,37,8*7C
$GBGSV,5,5,20,44,65,024,51,25,13,287,34,21,40,173,49,34,30,308,43,8*74
$GBGSV,3,1,09,01,44,136,45,02,36,231,45,03,51,195,46,07,79,186,48,B*0E
$GBGSV,3,2,09,08,63,242,49,10,77,277,48,12,54,335,51,13,49,236,46,B*0F
$GBGSV,3,3,09,04,33,119,43,B*36
$GAGSV,2,1,08,02,13,171,23,15,49,302,48,27,38,295,45,30,48,218,48,1*75
$GAGSV,2,2,08,34,49,032,48,05,26,089,39,09,05,041,17,03,21,144,38,1*75
$GAGSV,3,1,09,02,13,171,29,15,49,302,49,27,38,295,47,30,48,218,49,2*7E
$GAGSV,3,2,09,34,49,032,50,36,08,068,23,05,26,089,40,09,05,041,21,2*7C
$GAGSV,3,3,09,03,21,144,39,2*44
$GAGSV,2,1,08,02,13,171,14,15,49,302,45,27,38,295,45,30,48,218,46,7*74
$GAGSV,2,2,08,34,49,032,47,05,26,089,40,09,05,041,26,03,21,144,35,7*7D
$GNGGA,083858.00,3207.95427189,N,11841.73808484,E,1,28,0.7,8.1364,M,1.7756,M,,*41
$GNRMC,083858.00,A,3207.95427189,N,11841.73808484,E,0.002,89.3,030424,6.1,W,A,C*64
#HEADINGA,COM3,9984,88.0,FINE,2308,290356.000,5251924,16,18;SOL_COMPUTED,NARROW_INT,1.9940,141.5049,-0.1069,0.0000,0.1391,0.2918,"999",53,41,41,35,0,01,3,f3*7685ab4c
$GPGSV,3,1,11,12,19,314,42,03,08,039,28,06,58,340,46,14,15,173,28,1*66
$GPGSV,3,2,11,09,29,110,42,17,54,104,45,19,72,051,47,22,35,188,44,1*6F
$GPGSV,3,3,11,04,18,067,37,11,38,285,44,20,30,225,41,1*59
$GPGSV,3,1,11,12,19,314,40,03,08,039,23,06,58,340,48,14,15,173,22,4*6E
$GPGSV,3,2,11,09,29,110,37,17,54,104,46,19,72,051,45,22,35,188,39,4*63
$GPGSV,3,3,11,04,18,067,37,11,38,285,44,20,30,225,38,4*52
$GPGSV,2,1,06,03,08,039,31,06,58,340,51,14,15,173,33,09,29,110,43,8*62
$GPGSV,2,2,06,04,18,067,39,11,38,285,48,8*65
$GLGSV,2,1,07,74,18,218,34,75,29,276,47,69,44,065,51,84,40,041,41,1*73
$GLGSV,2,2,07,85,35,324,51,68,09,026,36,70,36,159,38,1*47
$GLGSV,2,1,05,75,29,276,48,69,44,065,50,84,40,041,43,85,35,324,47,3*74
$GLGSV,2,2,05,68,09,026,28,3*46
$GBGSV,5,1,20,01,44,136,44,02,36,231,39,03,51,195,46,07,79,186,46,1*74
$GBGSV,5,2,20,08,63,242,42,10,77,277,45,12,54,335,45,13,49,236,44,1*70
$GBGSV,5,3,20,22,55,088,48,24,18,234,39,38,75,260,47,40,73,126,48,1*79
$GBGSV,5,4,20,59,45,144,46,60,34,237,43,04,33,119,41,19,16,040,21,1*7B
$GBGSV,5,5,20,44,65,024,50,25,13,287,35,21,40,173,48,34,30,308,43,1*7C
$GBGSV,5,1,20,01,44,136,43,02,36,231,41,03,51,195,45,07,79,186,47,8*77
$GBGSV,5,2,20,08,63,242,47,10,77,277,46,12,54,335,50,13,49,236,45,8*7A
$GBGSV,5,3,20,22,55,088,51,24,18,234,42,38,75,260,50,40,73,126,50,8*7B
$GBGSV,5,4,20,59,45,144,48,60,34,237,44,04,33,119,41,19,16,040,36,8*7D
$GBGSV,5,5,20,44,65,024,51,25,13,287,34,21,40,173,49,34,30,308,43,8*74
$GBGSV,3,1,09,01,44,136,45,02,36,231,45,03,51,195,47,07,79,186,48,B*0F
$GBGSV,3,2,09,08,63,242,48,10,77,277,48,12,54,335,51,13,49,236,46,B*0E
$GBGSV,3,3,09,04,33,119,43,B*36
$GAGSV,2,1,08,02,13,171,24,15,49,302,48,27,38,295,44,30,48,218,48,1*73
$GAGSV,2,2,08,34,49,032,47,05,26,089,39,09,05,041,17,03,21,144,38,1*7A
$GAGSV,3,1,09,02,13,171,29,15,49,302,49,27,38,295,47,30,48,218,50,2*76
$GAGSV,3,2,09,34,49,032,50,36,08,068,23,05,26,089,40,09,05,041,20,2*7D
$GAGSV,3,3,09,03,21,144,39,2*44
$GAGSV,2,1,08,02,13,171,15,15,49,302,45,27,38,295,45,30,48,218,45,7*76
$GAGSV,2,2,08,34,49,032,46,05,26,089,39,09,05,041,25,03,21,144,35,7*71
$GNGGA,083859.00,3207.95426938,N,11841.73808367,E,1,28,0.7,8.1486,M,1.7756,M,,*42
$GNRMC,083859.00,A,3207.95426938,N,11841.73808367,E,0.002,66.4,030424,6.1,W,A,C*6A
#HEADINGA,COM3,9984,88.0,FINE,2308,290357.000,5252924,16,18;SOL_COMPUTED,NARROW_INT,1.9940,141.4906,-0.1069,0.0000,0.1391,0.2922,"999",53,41,41,35,0,01,3,f3*acbd66f3
$GPGSV,3,1,11,12,19,314,42,03,08,039,27,06,58,340,46,14,15,173,26,1*67
$GPGSV,3,2,11,09,29,110,41,17,54,104,45,19,72,051,47,22,35,188,43,1*6B
$GPGSV,3,3,11,04,18,067,37,11,38,285,43,20,30,225,41,1*5E
$GPGSV,3,1,11,12,19,314,40,03,08,039,25,06,58,340,48,14,15,173,20,4*6A
$GPGSV,3,2,11,09,29,110,37,17,54,104,46,19,72,051,45,22,35,188,39,4*63
$GPGSV,3,3,11,04,18,067,37,11,38,285,44,20,30,225,38,4*52
$GPGSV,2,1,06,03,08,039,31,06,58,340,51,14,15,173,34,09,29,110,43,8*65
$GPGSV,2,2,06,04,18,067,39,11,38,285,48,8*65
$GLGSV,2,1,07,74,18,218,33,75,29,276,47,69,44,065,51,84,40,041,41,1*74
$GLGSV,2,2,07,85,35,324,51,68,09,026,36,70,36,159,38,1*47
$GLGSV,2,1,05,75,29,276,47,69,44,065,50,84,40,041,43,85,35,324,47,3*7B
$GLGSV,2,2,05,68,09,026,29,3*47
$GBGSV,5,1,20,01,44,136,44,02,36,231,39,03,51,195,46,07,79,186,46,1*74
$GBGSV,5,2,20,08,63,242,42,10,77,277,45,12,54,335,45,13,49,236,44,1*70
$GBGSV,5,3,20,22,55,088,48,24,18,234,39,38,75,260,47,40,73,126,48,1*79
$GBGSV,5,4,20,59,45,144,46,60,34,237,43,04,33,119,42,19,16,040,21,1*78
$GBGSV,5,5,20,44,65,024,51,25,13,287,34,21,40,173,48,34,30,308,43,1*7C
$GBGSV,5,1,20,01,44,136,43,02,36,231,41,03,51,195,45,07,79,186,47,8*77
$GBGSV,5,2,20,08,63,242,47,10,77,277,46,12,54,335,50,13,49,236,45,8*7A
$GBGSV,5,3,20,22,55,088,51,24,18,234,42,38,75,260,50,40,73,126,50,8*7B
$GBGSV,5,4,20,59,45,144,48,60,34,237,44,04,33,119,41,19,16,040,36,8*7D
$GBGSV,5,5,20,44,65,024,51,25,13,287,34,21,40,173,48,34,30,308,43,8*75
$GBGSV,3,1,09,01,44,136,45,02,36,231,45,03,51,195,47,07,79,186,48,B*0F
$GBGSV,3,2,09,08,63,242,48,10,77,277,48,12,54,335,51,13,49,236,46,B*0E
$GBGSV,3,3,09,04,33,119,43,B*36
$GAGSV,2,1,08,02,13,171,22,15,49,302,48,27,38,295,44,30,48,218,48,1*75
$GAGSV,2,2,08,34,49,032,47,05,26,089,39,09,05,041,16,03,21,144,38,1*7B
$GAGSV,3,1,09,02,13,171,28,15,49,302,50,27,38,295,47,30,48,218,50,2*7F
$GAGSV,3,2,09,34,49,032,50,36,08,068,23,05,26,089,40,09,05,041,20,2*7D
$GAGSV,3,3,09,03,21,144,40,2*4A
$GAGSV,2,1,08,02,13,171,15,15,49,302,45,27,38,295,45,30,48,218,45,7*76
$GAGSV,2,2,08,34,49,032,46,05,26,089,39,09,05,041,25,03,21,144,35,7*71
$GNGGA,083900.00,3207.95426686,N,11841.73808247,E,1,28,0.7,8.1606,M,1.7756,M,,*4C
$GNRMC,083900.00,A,3207.95426686,N,11841.73808247,E,0.001,83.8,030424,6.1,W,A,C*6A
#HEADINGA,COM3,9984,89.0,FINE,2308,290358.000,5253924,17,18;SOL_COMPUTED,NARROW_INT,1.9940,141.4763,-0.1070,0.0000,0.1391,0.2922,"999",53,41,41,35,0,01,3,f3*09cae7c1
$GPGSV,3,1,11,12,19,314,42,03,08,039,27,06,58,340,46,14,15,173,26,1*67
$GPGSV,3,2,11,09,29,110,41,17,54,104,45,19,72,051,47,22,35,188,43,1*6B
$GPGSV,3,3,11,04,18,067,37,11,38,285,44,20,30,225,41,1*59
$GPGSV,3,1,11,12,19,314,39,03,08,039,22,06,58,340,48,14,15,173,19,4*69
$GPGSV,3,2,11,09,29,110,37,17,54,104,46,19,72,051,45,22,35,188,39,4*63
$GPGSV,3,3,11,04,18,067,37,11,38,285,44,20,30,225,37,4*5D
$GPGSV,2,1,06,03,08,039,31,06,58,340,51,14,15,173,33,09,29,110,43,8*62
$GPGSV,2,2,06,04,18,067,39,11,38,285,48,8*65
$GLGSV,2,1,07,74,18,218,32,75,29,276,47,69,44,065,51,84,40,041,41,1*75
$GLGSV,2,2,07,85,35,324,51,68,09,026,37,70,36,159,37,1*49
$GLGSV,2,1,05,75,29,276,47,69,44,065,50,84,40,041,42,85,35,324,47,3*7A
$GLGSV,2,2,05,68,09,026,27,3*49
$GBGSV,5,1,20,01,44,136,44,02,36,231,39,03,51,195,46,07,79,186,46,1*74
$GBGSV,5,2,20,08,63,242,42,10,77,277,44,12,54,335,45,13,49,236,44,1*71
$GBGSV,5,3,20,22,55,088,47,24,18,234,39,38,75,260,47,40,73,126,48,1*76
$GBGSV,5,4,20,59,45,144,47,60,34,237,43,04,33,119,42,19,16,040,22,1*7A
$GBGSV,5,5,20,44,65,024,50,25,13,287,34,21,40,173,48,34,30,308,43,1*7D
$GBGSV,5,1,20,01,44,136,43,02,36,231,41,03,51,195,45,07,79,186,47,8*77
$GBGSV,5,2,20,08,63,242,47,10,77,277,46,12,54,335,50,13,49,236,45,8*7A
$GBGSV,5,3,20,22,55,088,51,24,18,234,42,38,75,260,50,40,73,126,50,8*7B
$GBGSV,5,4,20,59,45,144,48,60,34,237,44,04,33,119,41,19,16,040,37,8*7C
$GBGSV,5,5,20,44,65,024,51,25,13,287,34,21,40,173,49,34,30,308,43,8*74
$GBGSV,3,1,09,01,44,136,45,02,36,231,44,03,51,195,46,07,79,186,48,B*0F
$GBGSV,3,2,09,08,63,242,48,10,77,277,48,12,54,335,51,13,49,236,46,B*0E
$GBGSV,3,3,09,04,33,119,43,B*36
$GAGSV,2,1,08,02,13,171,21,15,49,302,48,27,38,295,44,30,48,218,48,1*76
$GAGSV,2,2,08,34,49,032,47,05,26,089,39,09,05,041,16,03,21,144,37,1*74
$GAGSV,3,1,09,02,13,171,28,15,49,302,50,27,38,295,47,30,48,218,50,2*7F
$GAGSV,3,2,09,34,49,032,50,36,08,068,23,05,26,089,40,09,05,041,21,2*7C
$GAGSV,3,3,09,03,21,144,40,2*4A
$GAGSV,2,1,08,02,13,171,16,15,49,302,44,27,38,295,45,30,48,218,45,7*74
$GAGSV,2,2,08,34,49,032,46,05,26,089,39,09,05,041,25,03,21,144,34,7*70
$GNGGA,083901.00,3207.95426453,N,11841.73808124,E,1,28,0.7,8.1727,M,1.7756,M,,*43
$GNRMC,083901.00,A,3207.95426453,N,11841.73808124,E,0.002,71.8,030424,6.1,W,A,C*69
#HEADINGA,COM3,9984,90.0,FINE,2308,290359.000,5254925,16,18;SOL_COMPUTED,NARROW_INT,1.9940,141.4620,-0.1070,0.0000,0.1389,0.2912,"999",53,41,41,35,0,01,3,f3*5beda662
$GPGSV,3,1,11,12,19,314,42,03,08,039,27,06,58,340,46,14,15,173,26,1*67
$GPGSV,3,2,11,09,29,110,41,17,54,104,45,19,72,051,46,22,35,188,43,1*6A
$GPGSV,3,3,11,04,18,067,37,11,38,285,44,20,30,225,41,1*59
$GPGSV,3,1,11,12,19,314,39,03,08,039,25,06,58,340,48,14,15,173,19,4*6E
$GPGSV,3,2,11,09,29,110,37,17,54,104,46,19,72,051,45,22,35,188,39,4*63
$GPGSV,3,3,11,04,18,067,36,11,38,285,44,20,30,225,37,4*5C
$GPGSV,2,1,06,03,08,039,31,06,58,340,51,14,15,173,32,09,29,110,43,8*63
$GPGSV,2,2,06,04,18,067,39,11,38,285,47,8*6A
$GLGSV,2,1,07,74,18,218,32,75,29,276,47,69,44,065,51,84,40,041,41,1*75
$GLGSV,2,2,07,85,35,324,51,68,09,026,36,70,36,159,37,1*48
$GLGSV,2,1,05,75,29,276,47,69,44,065,50,84,40,041,42,85,35,324,47,3*7A
$GLGSV,2,2,05,68,09,026,26,3*48
$GBGSV,5,1,20,01,44,136,44,02,36,231,39,03,51,195,46,07,79,186,46,1*74
$GBGSV,5,2,20,08,63,242,43,10,77,277,45,12,54,335,45,13,49,236,44,1*71
$GBGSV,5,3,20,22,55,088,47,24,18,234,39,38,75,260,47,40,73,126,48,1*76
$GBGSV,5,4,20,59,45,144,47,60,34,237,43,04,33,119,42,19,16,040,21,1*79
$GBGSV,5,5,20,44,65,024,50,25,13,287,35,21,40,173,47,34,30,308,43,1*73
$GBGSV,5,1,20,01,44,136,42,02,36,231,41,03,51,195,45,07,79,186,47,8*76
$GBGSV,5,2,20,08,63,242,47,10,77,277,46,12,54,335,50,13,49,236,45,8*7A
$GBGSV,5,3,20,22,55,088,51,24,18,234,42,38,75,260,50,40,73,126,50,8*7B
$GBGSV,5,4,20,59,45,144,48,60,34,237,44,04,33,119,41,19,16,040,36,8*7D
$GBGSV,5,5,20,44,65,024,51,25,13,287,34,21,40,173,48,34,30,308,43,8*75
$GBGSV,3,1,09,01,44,136,44,02,36,231,44,03,51,195,46,07,79,186,48,B*0E
$GBGSV,3,2,09,08,63,242,48,10,77,277,48,12,54,335,51,13,49,236,46,B*0E
$GBGSV,3,3,09,04,33,119,43,B*36
$GAGSV,2,1,08,02,13,171,23,15,49,302,48,27,38,295,44,30,48,218,47,1*7B
$GAGSV,2,2,08,34,49,032,47,05,26,089,39,09,05,041,15,03,21,144,38,1*78
$GAGSV,3,1,09,02,13,171,28,15,49,302,49,27,38,295,46,30,48,218,49,2*7E
$GAGSV,3,2,09,34,49,032,49,36,08,068,23,05,26,089,40,09,05,041,21,2*74
$GAGSV,3,3,09,03,21,144,40,2*4A
$GAGSV,2,1,08,02,13,171,16,15,49,302,45,27,38,295,45,30,48,218,45,7*75
$GAGSV,2,2,08,34,49,032,46,05,26,089,40,09,05,041,25,03,21,144,35,7*7F
$GNGGA,083902.00,3207.95426217,N,11841.73807997,E,1,28,0.7,8.1846,M,1.7756,M,,*41
$GNRMC,083902.00,A,3207.95426217,N,11841.73807997,E,0.001,89.4,030424,6.1,W,A,C*6B
#HEADINGA,COM3,9984,90.0,FINE,2308,290360.000,5255924,16,18;SOL_COMPUTED,NARROW_INT,1.9940,141.4477,-0.1071,0.0000,0.1389,0.2910,"999",53,41,41,35,0,01,3,f3*00d0a102
$GPGSV,3,1,11,12,19,314,41,03,08,039,28,06,58,340,46,14,15,173,25,1*68
$GPGSV,3,2,11,09,29,110,41,17,54,104,45,19,72,051,46,22,35,188,43,1*6A
$GPGSV,3,3,11,04,18,067,37,11,38,285,44,20,30,225,41,1*59
$GPGSV,3,1,11,12,19,314,39,03,08,039,22,06,58,340,48,14,15,173,21,4*62
$GPGSV,3,2,11,09,29,110,37,17,54,104,45,19,72,051,45,22,35,188,38,4*61
$GPGSV,3,3,11,04,18,067,36,11,38,285,44,20,30,225,37,4*5C
$GPGSV,2,1,06,03,08,039,31,06,58,340,51,14,15,173,32,09,29,110,43,8*63
$GPGSV,2,2,06,04,18,067,39,11,38,285,47,8*6A
$GLGSV,2,1,07,74,18,218,33,75,29,276,47,69,44,065,51,84,40,041,41,1*74
$GLGSV,2,2,07,85,35,324,51,68,09,026,35,70,36,159,37,1*4B
$GLGSV,2,1,05,75,29,276,47,69,44,065,50,84,40,041,42,85,35,324,47,3*7A
$GLGSV,2,2,05,68,09,026,26,3*48
$GBGSV,5,1,20,01,44,136,44,02,36,231,39,03,51,195,45,07,79,186,45,1*74
$GBGSV,5,2,20,08,63,242,43,10,77,277,44,12,54,335,45,13,49,236,44,1*70
$GBGSV,5,3,20,22,55,088,47,24,18,234,39,38,75,261,47,40,73,126,48,1*77
$GBGSV,5,4,20,59,45,144,46,60,34,237,43,04,33,119,42,19,16,040,22,1*7B
$GBGSV,5,5,20,44,65,024,50,25,13,287,35,21,40,173,47,34,30,308,43,1*73
$GBGSV,5,1,20,01,44,136,42,02,36,231,41,03,51,195,45,07,79,186,47,8*76
$GBGSV,5,2,20,08,63,242,46,10,77,277,46,12,54,335,50,13,49,236,45,8*7B
$GBGSV,5,3,20,22,55,088,51,24,18,234,42,38,75,261,50,40,73,126,50,8*7A
$GBGSV,5,4,20,59,45,144,48,60,34,237,44,04,33,119,41,19,16,040,36,8*7D
$GBGSV,5,5,20,44,65,024,51,25,13,287,35,21,40,173,48,34,30,308,43,8*74
$GBGSV,3,1,09,01,44,136,44,02,36,231,44,03,51,195,46,07,79,186,48,B*0E
$GBGSV,3,2,09,08,63,242,48,10,77,277,47,12,54,335,51,13,49,236,46,B*01
$GBGSV,3,3,09,04,33,119,43,B*36
$GAGSV,2,1,08,02,13,171,23,15,49,302,48,27,38,295,44,30,48,218,47,1*7B
$GAGSV,2,2,08,34,49,032,47,05,26,089,39,09,05,041,14,03,21,144,38,1*79
$GAGSV,3,1,09,02,13,171,27,15,49,302,49,27,38,295,46,30,48,218,49,2*71
$GAGSV,3,2,09,34,49,032,49,36,08,068,24,05,26,089,40,09,05,041,21,2*73
$GAGSV,3,3,09,03,21,144,39,2*44
$GAGSV,2,1,08,02,13,171,15,15,49,302,44,27,38,295,45,30,48,218,45,7*77
$GAGSV,2,2,08,34,49,032,46,05,26,089,39,09,05,041,26,03,21,144,35,7*72
$GNGGA,083903.00,3207.95425970,N,11841.73807895,E,1,28,0.7,8.1960,M,1.7756,M,,*4F
$GNRMC,083903.00,A,3207.95425970,N,11841.73807895,E,0.003,117.3,030424,6.1,W,A,C*53
#HEADINGA,COM3,9984,91.0,FINE,2308,290361.000,5256926,16,18;SOL_COMPUTED,NARROW_INT,1.9940,141.4335,-0.1071,0.0000,0.1388,0.2913,"999",53,41,41,35,0,01,3,f3*e42eedec
$GPGSV,3,1,11,12,19,314,41,03,08,039,28,06,58,340,46,14,15,173,26,1*6B
$GPGSV,3,2,11,09,29,110,41,17,54,104,45,19,72,051,47,22,35,188,43,1*6B
$GPGSV,3,3,11,04,18,066,37,11,38,285,44,20,30,225,41,1*58
$GPGSV,3,1,11,12,19,314,38,03,08,039,21,06,58,340,48,14,15,173,21,4*60
$GPGSV,3,2,11,09,29,110,37,17,54,104,45,19,72,051,45,22,35,188,38,4*61
$GPGSV,3,3,11,04,18,066,36,11,38,285,44,20,30,225,38,4*52
$GPGSV,2,1,06,03,08,039,31,06,58,340,51,14,15,173,33,09,29,110,43,8*62
$GPGSV,2,2,06,04,18,066,39,11,38,285,47,8*6B
$GLGSV,2,1,07,74,18,218,33,75,29,276,47,69,44,065,51,84,40,041,41,1*74
$GLGSV,2,2,07,85,35,324,51,68,09,026,36,70,36,159,37,1*48
$GLGSV,2,1,05,75,29,276,47,69,44,065,49,84,40,041,42,85,35,324,47,3*72
$GLGSV,2,2,05,68,09,026,27,3*49
$GBGSV,5,1,20,01,44,136,44,02,36,231,39,03,51,195,45,07,79,186,45,1*74
$GBGSV,5,2,20,08,63,242,43,10,77,277,44,12,54,335,45,13,49,236,43,1*77
$GBGSV,5,3,20,22,55,088,47,24,18,234,39,38,75,261,47,40,73,126,48,1*77
$GBGSV,5,4,20,59,45,144,47,60,34,237,43,04,33,119,41,19,16,040,22,1*79
$GBGSV,5,5,20,44,65,024,50,25,13,287,35,21,40,173,47,34,30,308,42,1*72
$GBGSV,5,1,20,01,44,136,42,02,36,231,41,03,51,195,44,07,79,186,47,8*77
$GBGSV,5,2,20,08,63,242,46,10,77,277,46,12,54,335,50,13,49,236,45,8*7B
$GBGSV,5,3,20,22,55,088,51,24,18,234,41,38,75,261,50,40,73,126,49,8*71
$GBGSV,5,4,20,59,45,144,48,60,34,237,44,04,33,119,41,19,16,040,36,8*7D
$GBGSV,5,5,20,44,65,024,51,25,13,287,35,21,40,173,48,34,30,308,42,8*75
$GBGSV,3,1,09,01,44,136,44,02,36,231,44,03,51,195,46,07,79,186,47,B*01
$GBGSV,3,2,09,08,63,242,48,10,77,277,47,12,54,335,51,13,49,236,46,B*01
$GBGSV,3,3,09,04,33,119,43,B*36
$GAGSV,2,1,08,02,13,171,23,15,49,302,48,27,38,295,44,30,48,218,47,1*7B
$GAGSV,2,2,08,34,49,032,47,05,26,089,39,09,05,041,14,03,21,144,38,1*79
$GAGSV,3,1,09,02,13,171,26,15,49,302,49,27,38,295,46,30,48,218,49,2*70
$GAGSV,3,2,09,34,49,032,49,36,08,068,24,05,26,089,40,09,05,041,21,2*73
$GAGSV,3,3,09,03,21,144,39,2*44
$GAGSV,2,1,08,02,13,171,14,15,49,302,45,27,38,295,45,30,48,218,45,7*77
$GAGSV,2,2,08,34,49,032,46,05,26,089,39,09,05,041,26,03,21,144,36,7*71
$GNGGA,083904.00,3207.95425806,N,11841.73807855,E,1,28,0.7,8.2053,M,1.7756,M,,*4E
$GNRMC,083904.00,A,3207.95425806,N,11841.73807855,E,0.003,114.3,030424,6.1,W,A,C*5B
#HEADINGA,COM3,9984,91.0,FINE,2308,290362.000,5257924,16,18;SOL_COMPUTED,NARROW_INT,1.9940,141.4192,-0.1072,0.0000,0.1386,0.2916,"999",53,42,42,35,0,01,3,f3*03da7911
$GPGSV,3,1,11,12,19,314,41,03,08,039,28,06,58,340,46,14,15,173,23,1*6E
$GPGSV,3,2,11,09,29,110,41,17,54,104,45,19,72,051,47,22,35,188,43,1*6B
$GPGSV,3,3,11,04,18,066,37,11,38,285,44,20,30,225,42,1*5B
$GPGSV,3,1,11,12,19,314,39,03,08,039,23,06,58,340,48,14,15,173,21,4*63
$GPGSV,3,2,11,09,29,110,37,17,54,104,46,19,72,051,45,22,35,188,39,4*63
$GPGSV,3,3,11,04,18,066,37,11,38,285,44,20,30,225,38,4*53
$GPGSV,2,1,06,03,08,039,31,06,58,340,51,14,15,173,33,09,29,110,43,8*62
$GPGSV,2,2,06,04,18,066,39,11,38,285,48,8*64
$GLGSV,2,1,07,74,18,218,33,75,29,276,47,69,44,065,51,84,40,041,42,1*77
$GLGSV,2,2,07,85,35,324,51,68,09,026,36,70,36,159,37,1*48
$GLGSV,2,1,05,75,29,276,47,69,44,065,50,84,40,041,42,85,35,324,47,3*7A
$GLGSV,2,2,05,68,09,026,27,3*49
$GBGSV,5,1,20,01,44,136,44,02,36,231,39,03,51,195,45,07,79,186,45,1*74
$GBGSV,5,2,20,08,63,242,43,10,77,277,45,12,54,335,45,13,49,236,43,1*76
$GBGSV,5,3,20,22,55,088,47,24,18,234,39,38,75,261,47,40,73,126,48,1*77
$GBGSV,5,4,20,59,45,144,47,60,34,237,42,04,33,119,41,19,16,040,23,1*79
$GBGSV,5,5,20,44,65,024,50,25,13,287,35,21,40,173,48,34,30,308,42,1*7D
$GBGSV,5,1,20,01,44,136,43,02,36,231,41,03,51,195,45,07,79,186,47,8*77
$GBGSV,5,2,20,08,63,242,47,10,77,277,46,12,54,335,50,13,49,236,45,8*7A
$GBGSV,5,3,20,22,55,088,51,24,18,234,41,38,75,261,50,40,73,126,49,8*71
$GBGSV,5,4,20,59,45,144,48,60,34,237,44,04,33,119,41,19,16,040,37,8*7C
$GBGSV,5,5,20,44,65,024,51,25,13,287,35,21,40,173,48,34,30,308,43,8*74
$GBGSV,3,1,09,01,44,136,45,02,36,231,44,03,51,195,46,07,79,186,48,B*0F
$GBGSV,3,2,09,08,63,242,48,10,77,277,48,12,54,335,51,13,49,236,46,B*0E
$GBGSV,3,3,09,04,33,119,43,B*36
$GAGSV,2,1,08,02,13,171,24,15,49,302,48,27,38,295,44,30,48,218,47,1*7C
$GAGSV,2,2,08,34,49,032,47,05,26,089,39,09,05,041,14,03,21,144,38,1*79
$GAGSV,3,1,09,02,13,171,27,15,49,302,49,27,38,295,46,30,48,218,49,2*71
$GAGSV,3,2,09,34,49,032,49,36,08,068,24,05,26,089,40,09,05,041,21,2*73
$GAGSV,3,3,09,03,21,144,39,2*44
$GAGSV,2,1,08,02,13,171,13,15,49,302,45,27,38,295,45,30,48,218,45,7*70
$GAGSV,2,2,08,34,49,032,46,05,26,089,40,09,05,041,25,03,21,144,36,7*7C
$GNGGA,083905.00,3207.95425647,N,11841.73807817,E,1,28,0.7,8.2148,M,1.7756,M,,*49
$GNRMC,083905.00,A,3207.95425647,N,11841.73807817,E,0.003,110.7,030424,6.1,W,A,C*57
#HEADINGA,COM3,9984,91.0,FINE,2308,290363.000,5258924,16,18;SOL_COMPUTED,NARROW_INT,1.9940,141.4050,-0.1072,0.0000,0.1372,0.2915,"999",53,42,42,35,0,01,3,f3*fe752071
$GPGSV,3,1,11,12,19,314,42,03,08,039,28,06,58,340,47,14,15,173,23,1*6C
$GPGSV,3,2,11,09,29,110,42,17,54,104,45,19,72,052,47,22,35,188,43,1*6B
$GPGSV,3,3,11,04,18,066,37,11,38,285,44,20,30,225,42,1*5B
$GPGSV,3,1,11,12,19,314,39,03,08,039,21,06,58,340,48,14,15,173,21,4*61
$GPGSV,3,2,11,09,29,110,38,17,54,104,46,19,72,052,45,22,35,188,39,4*6F
$GPGSV,3,3,11,04,18,066,36,11,38,285,44,20,30,225,38,4*52
$GPGSV,2,1,06,03,08,039,31,06,58,340,51,14,15,173,33,09,29,110,43,8*62
$GPGSV,2,2,06,04,18,066,39,11,38,285,48,8*64
$GLGSV,2,1,07,74,18,218,34,75,29,276,47,69,44,065,51,84,40,041,42,1*70
$GLGSV,2,2,07,85,35,324,51,68,09,026,37,70,36,158,37,1*48
$GLGSV,2,1,05,75,29,276,48,69,44,065,50,84,40,041,43,85,35,324,47,3*74
$GLGSV,2,2,05,68,09,026,29,3*47
$GBGSV,5,1,20,01,44,136,44,02,36,231,39,03,51,195,46,07,79,186,46,1*74
$GBGSV,5,2,20,08,63,242,43,10,77,277,45,12,54,335,45,13,49,236,44,1*71
$GBGSV,5,3,20,22,55,088,48,24,18,234,39,38,75,261,47,40,73,126,48,1*78
$GBGSV,5,4,20,59,45,144,47,60,34,237,43,04,33,119,41,19,16,040,23,1*78
$GBGSV,5,5,20,44,65,024,51,25,13,287,35,21,40,173,48,34,30,308,42,1*7C
$GBGSV,5,1,20,01,44,136,43,02,36,231,41,03,51,195,45,07,79,186,47,8*77
$GBGSV,5,2,20,08,63,242,47,10,77,277,46,12,54,335,50,13,49,236,45,8*7A
$GBGSV,5,3,20,22,55,088,51,24,18,234,42,38,75,261,50,40,73,126,50,8*7A
$GBGSV,5,4,20,59,45,144,48,60,34,237,44,04,33,119,41,19,16,040,37,8*7C
$GBGSV,5,5,20,44,65,024,51,25,13,287,35,21,40,173,48,34,30,308,43,8*74
$GBGSV,3,1,09,01,44,136,45,02,36,231,45,03,51,195,46,07,79,186,48,B*0E
$GBGSV,3,2,09,08,63,242,48,10,77,277,48,12,54,335,51,13,49,236,46,B*0E
$GBGSV,3,3,09,04,33,119,43,B*36
$GAGSV,2,1,08,02,13,171,23,15,49,302,48,27,38,295,44,30,48,218,47,1*7B
$GAGSV,2,2,08,34,49,032,47,05,26,089,40,09,05,041,14,03,21,144,38,1*77
$GAGSV,3,1,09,02,13,171,27,15,49,302,50,27,38,295,46,30,48,218,49,2*79
$GAGSV,3,2,09,34,49,032,50,36,08,068,23,05,26,089,40,09,05,041,22,2*7F
$GAGSV,3,3,09,03,21,144,39,2*44
$GAGSV,2,1,08,02,13,171,13,15,49,302,45,27,38,295,45,30,48,218,45,7*70
$GAGSV,2,2,08,34,49,032,47,05,26,089,39,09,05,041,25,03,21,144,35,7*70
$GNGGA,083906.00,3207.95425457,N,11841.73807743,E,1,28,0.7,8.2223,M,1.7756,M,,*49
$GNRMC,083906.00,A,3207.95425457,N,11841.73807743,E,0.001,163.6,030424,6.1,W,A,C*5E
#HEADINGA,COM3,9984,90.0,FINE,2308,290364.000,5259924,16,18;SOL_COMPUTED,NARROW_INT,1.9940,141.3908,-0.1073,0.0000,0.1370,0.2909,"999",53,42,42,35,0,01,3,f3*54b72df5
$GPGSV,3,1,11,12,19,314,42,03,08,039,31,06,58,340,47,14,15,173,26,1*61
$GPGSV,3,2,11,09,29,110,42,17,54,104,46,19,72,052,47,22,35,188,43,1*68
$GPGSV,3,3,11,04,18,066,37,11,38,285,44,20,30,225,42,1*5B
$GPGSV,3,1,11,12,19,314,39,03,08,039,21,06,58,340,48,14,15,173,21,4*61
$GPGSV,3,2,11,09,29,110,39,17,54,104,46,19,72,052,46,22,35,188,38,4*6C
$GPGSV,3,3,11,04,18,066,36,11,38,285,44,20,30,225,38,4*52
$GPGSV,2,1,06,03,08,039,31,06,58,340,52,14,15,173,33,09,29,110,44,8*66
$GPGSV,2,2,06,04,18,066,39,11,38,285,48,8*64
$GLGSV,2,1,07,74,18,218,33,75,29,276,47,69,44,065,52,84,40,041,42,1*74
$GLGSV,2,2,07,85,35,324,51,68,09,026,37,70,36,158,37,1*48
$GLGSV,2,1,05,75,29,276,48,69,44,065,50,84,40,041,43,85,35,324,47,3*74
$GLGSV,2,2,05,68,09,026,29,3*47
$GBGSV,5,1,20,01,44,136,44,02,36,231,39,03,51,195,46,07,79,186,46,1*74
$GBGSV,5,2,20,08,63,242,44,10,77,277,45,12,54,335,46,13,49,236,44,1*75
$GBGSV,5,3,20,22,55,088,48,24,18,234,40,38,75,261,48,40,73,126,48,1*79
$GBGSV,5,4,20,59,45,144,47,60,34,237,43,04,33,119,42,19,16,040,23,1*7B
$GBGSV,5,5,20,44,65,024,51,25,13,287,35,21,40,173,48,34,30,308,43,1*7D
$GBGSV,5,1,20,01,44,136,43,02,36,231,41,03,51,195,45,07,79,186,48,8*78
$GBGSV,5,2,20,08,63,242,47,10,77,277,47,12,54,335,50,13,49,236,45,8*7B
$GBGSV,5,3,20,22,55,088,51,24,18,234,42,38,75,261,50,40,73,126,50,8*7A
$GBGSV,5,4,20,59,45,144,48,60,34,237,45,04,33,119,41,19,16,040,37,8*7D
$GBGSV,5,5,20,44,65,024,51,25,13,287,35,21,40,173,49,34,30,308,43,8*75
$GBGSV,3,1,09,01,44,136,45,02,36,231,45,03,51,195,47,07,79,186,48,B*0F
$GBGSV,3,2,09,08,63,242,48,10,77,277,48,12,54,335,51,13,49,236,46,B*0E
$GBGSV,3,3,09,04,33,119,43,B*36
$GAGSV,2,1,08,02,13,171,25,15,49,302,48,27,38,295,44,30,48,218,47,1*7D
$GAGSV,2,2,08,34,49,032,47,05,26,089,39,09,05,041,14,03,21,144,38,1*79
$GAGSV,3,1,09,02,13,171,29,15,49,302,50,27,38,295,47,30,48,218,49,2*76
$GAGSV,3,2,09,34,49,032,50,36,08,068,23,05,26,089,40,09,05,041,22,2*7F
$GAGSV,3,3,09,03,21,144,39,2*44
$GAGSV,2,1,08,02,13,171,13,15,49,302,45,27,38,295,46,30,48,218,45,7*73
$GAGSV,2,2,08,34,49,032,47,05,26,089,39,09,05,041,26,03,21,144,35,7*73
$GNGGA,083907.00,3207.95425265,N,11841.73807676,E,1,28,0.7,8.2289,M,1.7756,M,,*48
$GNRMC,083907.00,A,3207.95425265,N,11841.73807676,E,0.002,207.1,030424,6.1,W,A,C*5A
#HEADINGA,COM3,9984,88.0,FINE,2308,290365.000,5260925,16,18;SOL_COMPUTED,NARROW_INT,1.9940,141.3766,-0.1074,0.0000,0.1369,0.2906,"999",53,42,42,35,0,01,3,f3*f2a0633b
$GPGSV,3,1,11,12,19,314,42,03,08,039,30,06,58,340,47,14,15,173,26,1*60
$GPGSV,3,2,11,09,29,110,43,17,54,104,46,19,72,052,47,22,35,188,43,1*69
$GPGSV,3,3,11,04,18,066,38,11,38,285,44,20,30,225,43,1*55
$GPGSV,3,1,11,12,19,314,38,03,08,039,25,06,58,340,48,14,15,173,22,4*67
$GPGSV,3,2,11,09,29,110,40,17,54,104,46,19,72,052,45,22,35,188,38,4*61
$GPGSV,3,3,11,04,18,066,36,11,38,285,44,20,30,225,38,4*52
$GPGSV,2,1,06,03,08,039,32,06,58,340,52,14,15,173,33,09,29,110,45,8*64
$GPGSV,2,2,06,04,18,066,39,11,38,285,48,8*64
$GLGSV,2,1,07,74,18,218,33,75,29,276,47,69,44,065,52,84,40,041,41,1*77
$GLGSV,2,2,07,85,35,324,51,68,09,026,37,70,36,158,37,1*48
$GLGSV,2,1,05,75,29,276,48,69,44,065,50,84,40,041,43,85,35,324,47,3*74
$GLGSV,2,2,05,68,09,026,29,3*47
$GBGSV,5,1,20,01,44,136,44,02,36,231,39,03,51,195,46,07,79,186,46,1*74
$GBGSV,5,2,20,08,63,242,43,10,77,277,45,12,54,335,45,13,49,236,43,1*76
$GBGSV,5,3,20,22,55,088,48,24,18,234,39,38,75,261,47,40,73,126,48,1*78
$GBGSV,5,4,20,59,45,144,47,60,34,237,43,04,33,119,41,19,16,040,23,1*78
$GBGSV,5,5,20,44,65,024,50,25,13,287,34,21,40,173,47,34,30,308,43,1*72
$GBGSV,5,1,20,01,44,136,43,02,36,231,41,03,51,195,45,07,79,186,48,8*78
$GBGSV,5,2,20,08,63,242,47,10,77,277,46,12,54,335,50,13,49,236,45,8*7A
$GBGSV,5,3,20,22,55,088,51,24,18,234,42,38,75,261,50,40,73,126,50,8*7A
$GBGSV,5,4,20,59,45,144,48,60,34,237,44,04,33,119,41,19,16,040,37,8*7C
$GBGSV,5,5,20,44,65,024,51,25,13,287,36,21,40,173,48,34,30,308,43,8*77
$GBGSV,3,1,09,01,44,136,45,02,36,231,44,03,51,195,46,07,79,186,48,B*0F
$GBGSV,3,2,09,08,63,242,48,10,77,277,48,12,54,335,51,13,49,236,46,B*0E
$GBGSV,3,3,09,04,33,119,43,B*36
$GAGSV,2,1,08,02,13,171,24,15,49,302,48,27,38,295,44,30,48,218,47,1*7C
$GAGSV,2,2,08,34,49,032,48,05,26,089,39,09,05,041,15,03,21,144,38,1*77
$GAGSV,3,1,09,02,13,171,29,15,49,302,50,27,38,295,47,30,48,218,49,2*76
$GAGSV,3,2,09,34,49,032,50,36,08,068,24,05,26,089,40,09,05,041,22,2*78
$GAGSV,3,3,09,03,21,144,39,2*44
$GAGSV,2,1,08,02,13,171,11,15,49,302,45,27,38,295,46,30,48,218,45,7*71
$GAGSV,2,2,08,34,49,032,47,05,26,089,40,09,05,041,27,03,21,144,34,7*7D
$GNGGA,083908.00,3207.95425083,N,11841.73807589,E,1,28,0.7,8.2353,M,1.7756,M,,*48
$GNRMC,083908.00,A,3207.95425083,N,11841.73807589,E,0.002,222.7,030424,6.1,W,A,C*5D
#HEADINGA,COM3,9984,88.0,FINE,2308,290366.000,5261925,16,18;SOL_COMPUTED,NARROW_INT,1.9940,141.3625,-0.1074,0.0000,0.1372,0.2915,"999",53,42,42,35,0,01,3,f3*d012182d
$GPGSV,3,1,11,12,19,314,41,03,08,039,30,06,58,340,47,14,15,173,24,1*61
$GPGSV,3,2,11,09,29,110,42,17,54,104,46,19,72,052,47,22,35,188,43,1*68
$GPGSV,3,3,11,04,18,066,39,11,38,285,44,20,30,225,43,1*54
$GPGSV,3,1,11,12,19,314,38,03,08,039,26,06,58,340,48,14,15,173,22,4*64
$GPGSV,3,2,11,09,29,110,38,17,54,104,46,19,72,052,46,22,35,188,39,4*6C
$GPGSV,3,3,11,04,18,066,37,11,38,285,43,20,30,225,38,4*54
$GPGSV,2,1,06,03,08,039,31,06,58,340,52,14,15,173,33,09,29,110,43,8*61
$GPGSV,2,2,06,04,18,066,40,11,38,285,48,8*6A
$GLGSV,2,1,07,74,18,218,33,75,29,276,47,69,44,065,52,84,40,041,42,1*74
$GLGSV,2,2,07,85,35,324,51,68,09,026,37,70,36,158,37,1*48
$GLGSV,2,1,05,75,29,276,48,69,44,065,50,84,40,041,43,85,35,324,47,3*74
$GLGSV,2,2,05,68,09,026,27,3*49
$GBGSV,5,1,20,01,44,136,44,02,36,231,40,03,51,195,46,07,79,186,46,1*7A
$GBGSV,5,2,20,08,63,242,43,10,77,277,45,12,54,335,45,13,49,236,44,1*71
$GBGSV,5,3,20,22,55,088,48,24,18,234,39,38,75,261,47,40,73,126,48,1*78
$GBGSV,5,4,20,59,45,144,47,60,34,237,43,04,33,119,42,19,16,040,25,1*7D
$GBGSV,5,5,20,44,65,024,50,25,13,287,35,21,40,173,47,34,30,308,43,1*73
$GBGSV,5,1,20,01,44,136,43,02,36,231,41,03,51,195,45,07,79,186,48,8*78
$GBGSV,5,2,20,08,63,242,47,10,77,277,46,12,54,335,50,13,49,236,45,8*7A
$GBGSV,5,3,20,22,55,088,51,24,18,234,42,38,75,261,50,40,73,126,50,8*7A
$GBGSV,5,4,20,59,45,144,48,60,34,237,45,04,33,119,42,19,16,040,36,8*7F
$GBGSV,5,5,20,44,65,024,51,25,13,287,36,21,40,173,49,34,30,308,43,8*76
$GBGSV,3,1,09,01,44,136,45,02,36,231,44,03,51,195,46,07,79,186,48,B*0F
$GBGSV,3,2,09,08,63,242,48,10,77,277,47,12,54,335,51,13,49,236,46,B*01
$GBGSV,3,3,09,04,33,119,43,B*36
$GAGSV,2,1,08,02,13,171,25,15,49,302,48,27,38,295,44,30,48,218,47,1*7D
$GAGSV,2,2,08,34,49,032,48,05,26,089,39,09,05,041,16,03,21,144,37,1*7B
$GAGSV,3,1,09,02,13,171,28,15,49,302,50,27,38,295,47,30,48,218,49,2*77
$GAGSV,3,2,09,34,49,032,50,36,08,068,24,05,26,089,41,09,05,041,23,2*78
$GAGSV,3,3,09,03,21,144,40,2*4A
$GAGSV,2,1,08,02,13,171,10,15,49,302,45,27,38,295,46,30,48,218,46,7*73
$GAGSV,2,2,08,34,49,032,47,05,26,089,40,09,05,041,28,03,21,144,34,7*72
$GNGGA,083909.00,3207.95424996,N,11841.73807423,E,1,28,0.7,8.2396,M,1.7756,M,,*4D
$GNRMC,083909.00,A,3207.95424996,N,11841.73807423,E,0.002,218.9,030424,6.1,W,A,C*56
#HEADINGA,COM3,9984,89.0,FINE,2308,290367.000,5262925,17,18;SOL_COMPUTED,NARROW_INT,1.9940,141.3483,-0.1075,0.0000,0.1385,0.2921,"999",53,41,41,35,0,01,3,f3*684a6421
$GPGSV,3,1,11,12,19,314,42,03,08,039,29,06,58,340,47,14,15,173,23,1*6D
$GPGSV,3,2,11,09,29,110,43,17,54,104,46,19,72,052,47,22,35,188,43,1*69
$GPGSV,3,3,11,04,18,066,39,11,38,285,44,20,30,225,43,1*54
$GPGSV,3,1,11,12,19,314,38,03,08,039,25,06,58,340,48,14,15,173,22,4*67
$GPGSV,3,2,11,09,29,110,40,17,54,104,46,19,72,052,46,22,35,188,39,4*63
$GPGSV,3,3,11,04,18,066,37,11,38,285,43,20,30,225,38,4*54
$GPGSV,2,1,06,03,08,039,32,06,58,340,52,14,15,173,33,09,29,110,45,8*64
$GPGSV,2,2,06,04,18,066,39,11,38,285,48,8*64
$GLGSV,2,1,07,74,18,218,33,75,29,276,47,69,44,065,52,84,40,041,42,1*74
$GLGSV,2,2,07,85,35,324,51,68,09,026,38,70,36,158,38,1*48
$GLGSV,2,1,05,75,29,276,48,69,44,065,50,84,40,041,43,85,35,324,47,3*74
$GLGSV,2,2,05,68,09,026,27,3*49
$GBGSV,5,1,20,01,44,136,44,02,36,231,40,03,51,195,46,07,79,186,46,1*7A
$GBGSV,5,2,20,08,63,242,43,10,77,277,45,12,54,335,45,13,49,236,44,1*71
$GBGSV,5,3,20,22,55,088,48,24,18,234,39,38,75,261,47,40,73,126,48,1*78
$GBGSV,5,4,20,59,45,144,47,60,34,237,43,04,33,119,42,19,16,040,25,1*7D
$GBGSV,5,5,20,44,65,024,50,25,13,287,34,21,40,173,47,34,30,308,43,1*72
$GBGSV,5,1,20,01,44,136,43,02,36,231,41,03,51,195,45,07,79,186,47,8*77
$GBGSV,5,2,20,08,63,242,47,10,77,277,46,12,54,335,50,13,49,236,45,8*7A
$GBGSV,5,3,20,22,55,088,51,24,18,234,41,38,75,261,50,40,73,126,50,8*79
$GBGSV,5,4,20,59,45,144,48,60,34,237,44,04,33,119,41,19,16,040,36,8*7D
$GBGSV,5,5,20,44,65,024,51,25,13,287,36,21,40,173,48,34,30,308,43,8*77
$GBGSV,3,1,09,01,44,136,45,02,36,231,44,03,51,195,46,07,79,186,48,B*0F
$GBGSV,3,2,09,08,63,242,48,10,77,277,48,12,54,335,51,13,49,236,46,B*0E
$GBGSV,3,3,09,04,33,119,42,B*37
$GAGSV,2,1,08,02,13,171,24,15,49,302,48,27,38,295,44,30,48,218,47,1*7C
$GAGSV,2,2,08,34,49,032,47,05,26,089,40,09,05,041,18,03,21,144,37,1*74
$GAGSV,3,1,09,02,13,171,29,15,49,302,50,27,38,295,47,30,48,218,49,2*76
$GAGSV,3,2,09,34,49,032,50,36,08,068,25,05,26,089,42,09,05,041,23,2*7A
$GAGSV,3,3,09,03,21,144,40,2*4A
$GAGSV,2,1,07,15,49,302,45,27,38,295,46,30,48,218,46,34,49,032,47,7*72
$GAGSV,2,2,07,05,26,089,41,09,05,041,28,03,21,144,34,7*44
$GNGGA,083910.00,3207.95424910,N,11841.73807291,E,1,28,0.7,8.2437,M,1.7756,M,,*48
$GNRMC,083910.00,A,3207.95424910,N,11841.73807291,E,0.002,164.8,030424,6.1,W,A,C*56
#HEADINGA,COM3,9984,90.0,FINE,2308,290368.000,5263924,17,18;SOL_COMPUTED,NARROW_INT,1.9940,141.3342,-0.1076,0.0000,0.1387,0.2923,"999",53,41,41,35,0,01,3,f3*9c29adc5
$GPGSV,3,1,11,12,19,314,41,03,08,039,29,06,58,340,47,14,15,173,24,1*69
$GPGSV,3,2,11,09,29,110,42,17,54,104,46,19,72,052,47,22,35,188,43,1*68
$GPGSV,3,3,11,04,18,066,38,11,38,285,43,20,30,225,43,1*52
$GPGSV,3,1,11,12,19,314,38,03,08,039,25,06,58,340,48,14,15,173,23,4*66
$GPGSV,3,2,11,09,29,110,39,17,54,104,46,19,72,052,46,22,35,188,39,4*6D
$GPGSV,3,3,11,04,18,066,37,11,38,285,44,20,30,225,38,4*53
$GPGSV,2,1,06,03,08,039,32,06,58,340,52,14,15,173,32,09,29,110,44,8*64
$GPGSV,2,2,06,04,18,066,40,11,38,285,48,8*6A
$GLGSV,2,1,07,74,18,218,33,75,29,276,47,69,44,065,52,84,40,041,42,1*74
$GLGSV,2,2,07,85,35,324,51,68,09,026,37,70,36,158,37,1*48
$GLGSV,2,1,05,75,29,276,48,69,44,065,50,84,40,041,43,85,35,324,47,3*74
$GLGSV,2,2,05,68,09,026,25,3*4B
$GBGSV,5,1,20,01,44,136,44,02,36,231,39,03,51,195,46,07,79,186,46,1*74
$GBGSV,5,2,20,08,63,242,43,10,77,277,45,12,54,336,45,13,50,236,44,1*7A
$GBGSV,5,3,20,22,55,088,48,24,18,234,39,38,75,261,47,40,73,126,48,1*78
$GBGSV,5,4,20,59,45,144,47,60,34,237,43,04,33,119,42,19,16,040,25,1*7D
$GBGSV,5,5,20,44,65,024,50,25,13,287,34,21,40,173,47,34,30,308,43,1*72
$GBGSV,5,1,20,01,44,136,43,02,36,231,41,03,51,195,45,07,79,186,47,8*77
$GBGSV,5,2,20,08,63,242,47,10,77,277,46,12,54,336,50,13,50,236,45,8*71
$GBGSV,5,3,20,22,55,088,51,24,18,234,41,38,75,261,50,40,73,126,50,8*79
$GBGSV,5,4,20,59,45,144,48,60,34,237,44,04,33,119,41,19,16,040,36,8*7D
$GBGSV,5,5,20,44,65,024,51,25,13,287,36,21,40,173,48,34,30,308,43,8*77
$GBGSV,3,1,09,01,44,136,46,02,36,231,44,03,51,195,46,07,79,186,48,B*0C
$GBGSV,3,2,09,08,63,242,48,10,77,277,48,12,54,336,51,13,50,236,46,B*05
$GBGSV,3,3,09,04,33,119,43,B*36
$GAGSV,2,1,08,02,13,171,25,15,49,302,48,27,38,295,44,30,48,218,47,1*7D
$GAGSV,2,2,08,34,49,032,47,05,26,089,41,09,05,041,18,03,21,144,38,1*7A
$GAGSV,3,1,09,02,13,171,29,15,49,302,50,27,38,295,47,30,48,218,49,2*76
$GAGSV,3,2,09,34,49,032,50,36,08,068,25,05,26,089,42,09,05,041,23,2*7A
$GAGSV,3,3,09,03,21,144,40,2*4A
$GAGSV,2,1,07,15,49,302,45,27,38,295,46,30,48,218,45,34,49,032,47,7*71
$GAGSV,2,2,07,05,26,089,42,09,05,041,28,03,21,144,34,7*47
$GNGGA,083911.00,3207.95424817,N,11841.73807166,E,1,28,0.7,8.2480,M,1.7756,M,,*48
$GNRMC,083911.00,A,3207.95424817,N,11841.73807166,E,0.002,171.1,030424,6.1,W,A,C*57
#HEADINGA,COM3,9984,91.0,FINE,2308,290369.000,5264924,17,18;SOL_COMPUTED,NARROW_INT,1.9940,141.3201,-0.1076,0.0000,0.1438,0.3062,"999",53,40,40,35,0,01,3,f3*b7dafa64
$GPGSV,3,1,11,12,19,314,41,03,08,039,28,06,58,340,47,14,15,173,23,1*6F
$GPGSV,3,2,11,09,29,110,42,17,54,104,46,19,72,052,47,22,35,188,43,1*68
$GPGSV,3,3,11,04,18,066,39,11,38,285,44,20,30,225,43,1*54
$GPGSV,3,1,11,12,19,314,38,03,08,039,25,06,58,340,48,14,15,173,23,4*66
$GPGSV,3,2,11,09,29,110,39,17,54,104,46,19,72,052,46,22,35,188,39,4*6D
$GPGSV,3,3,11,04,18,066,37,11,38,285,43,20,30,225,38,4*54
$GPGSV,2,1,06,03,08,039,32,06,58,340,52,14,15,173,33,09,29,110,44,8*65
$GPGSV,2,2,06,04,18,066,41,11,38,285,48,8*6B
$GLGSV,2,1,07,74,18,218,34,75,29,276,48,69,44,065,52,84,40,041,42,1*7C
$GLGSV,2,2,07,85,35,324,51,68,09,026,38,70,36,158,37,1*47
$GLGSV,2,1,05,75,29,276,48,69,44,065,50,84,40,041,43,85,35,324,47,3*74
$GLGSV,2,2,05,68,09,026,27,3*49
$GBGSV,5,1,20,01,44,136,44,02,36,231,39,03,51,195,46,07,79,186,46,1*74
$GBGSV,5,2,20,08,63,242,43,10,77,277,45,12,54,336,45,13,50,236,43,1*7D
$GBGSV,5,3,20,22,55,088,48,24,18,234,40,38,75,261,47,40,73,126,48,1*76
$GBGSV,5,4,20,59,45,144,47,60,34,237,43,04,33,119,42,19,16,040,26,1*7E
$GBGSV,5,5,20,44,65,024,50,25,13,287,34,21,40,173,47,34,30,308,42,1*73
$GBGSV,5,1,20,01,44,136,43,02,36,231,41,03,51,195,45,07,79,186,47,8*77
$GBGSV,5,2,20,08,63,242,47,10,77,277,46,12,54,336,50,13,50,236,45,8*71
$GBGSV,5,3,20,22,55,088,51,24,18,234,41,38,75,261,50,40,73,126,50,8*79
$GBGSV,5,4,20,59,45,144,48,60,34,237,44,04,33,119,41,19,16,040,37,8*7C
$GBGSV,5,5,20,44,65,024,51,25,13,287,36,21,40,173,48,34,30,308,43,8*77
$GBGSV,3,1,09,01,44,136,46,02,36,231,44,03,51,195,47,07,79,186,48,B*0D
$GBGSV,3,2,09,08,63,242,48,10,77,277,48,12,54,336,51,13,50,236,46,B*05
$GBGSV,3,3,09,04,33,119,43,B*36
$GAGSV,2,1,08,02,13,171,23,15,49,302,48,27,38,295,44,30,48,218,47,1*7B
$GAGSV,2,2,08,34,49,032,47,05,26,089,41,09,05,041,17,03,21,144,38,1*75
$GAGSV,3,1,09,02,13,171,29,15,49,302,50,27,38,295,47,30,48,218,50,2*7E
$GAGSV,3,2,09,34,49,032,50,36,08,068,25,05,26,089,44,09,05,041,23,2*7C
$GAGSV,3,3,09,03,21,144,40,2*4A
$GAGSV,2,1,07,15,49,302,45,27,38,295,46,30,48,218,45,34,49,032,47,7*71
$GAGSV,2,2,07,05,26,089,44,09,05,041,27,03,21,144,34,7*4E
$GNGGA,083912.00,3207.95424736,N,11841.73807048,E,1,28,0.7,8.2524,M,1.7756,M,,*45
$GNRMC,083912.00,A,3207.95424736,N,11841.73807048,E,0.002,166.7,030424,6.1,W,A,C*55
#HEADINGA,COM3,9984,91.0,FINE,2308,290370.000,5265924,16,18;SOL_COMPUTED,NARROW_INT,1.9940,141.3060,-0.1077,0.0000,0.1438,0.3063,"999",53,40,40,35,0,01,3,f3*937ded9b
$GPGSV,3,1,11,12,19,314,41,03,07,039,28,06,58,340,47,14,15,173,23,1*60
$GPGSV,3,2,11,09,29,110,42,17,54,104,46,19,72,052,47,22,35,188,43,1*68
$GPGSV,3,3,11,04,18,066,37,11,38,285,44,20,30,225,43,1*5A
$GPGSV,3,1,11,12,19,314,38,03,07,039,22,06,58,340,48,14,15,173,23,4*6E
$GPGSV,3,2,11,09,29,110,39,17,54,104,46,19,72,052,46,22,35,188,39,4*6D
$GPGSV,3,3,11,04,18,066,35,11,38,285,43,20,30,225,38,4*56
$GPGSV,2,1,06,03,07,039,32,06,58,340,52,14,15,173,33,09,29,110,45,8*6B
$GPGSV,2,2,06,04,18,066,40,11,38,285,48,8*6A
$GLGSV,2,1,07,74,18,218,34,75,29,276,47,69,44,065,52,84,40,041,42,1*73
$GLGSV,2,2,07,85,35,324,52,68,09,026,39,70,36,158,37,1*45
$GLGSV,2,1,05,75,29,276,48,69,44,065,50,84,40,041,43,85,35,324,47,3*74
$GLGSV,2,2,05,68,09,026,28,3*46
$GBGSV,5,1,20,01,44,136,45,02,36,231,39,03,51,195,46,07,79,186,46,1*75
$GBGSV,5,2,20,08,63,242,43,10,77,277,45,12,54,336,45,13,50,236,44,1*7A
$GBGSV,5,3,20,22,55,088,48,24,18,234,40,38,75,261,47,40,73,126,48,1*76
$GBGSV,5,4,20,59,45,144,47,60,34,237,43,04,33,119,42,19,16,040,26,1*7E
$GBGSV,5,5,20,44,65,024,50,25,13,287,34,21,40,173,47,34,30,308,43,1*72
$GBGSV,5,1,20,01,44,136,43,02,36,231,41,03,51,195,45,07,79,186,47,8*77
$GBGSV,5,2,20,08,63,242,47,10,77,277,46,12,54,336,50,13,50,236,45,8*71
$GBGSV,5,3,20,22,55,088,51,24,18,234,41,38,75,261,50,40,73,126,50,8*79
$GBGSV,5,4,20,59,45,144,48,60,34,237,44,04,33,119,41,19,16,040,37,8*7C
$GBGSV,5,5,20,44,65,024,51,25,13,287,36,21,40,173,48,34,30,308,42,8*76
$GBGSV,3,1,09,01,44,136,46,02,36,231,45,03,51,195,47,07,79,186,48,B*0C
$GBGSV,3,2,09,08,63,242,48,10,77,277,48,12,54,336,51,13,50,236,46,B*05
$GBGSV,3,3,09,04,33,119,43,B*36
$GAGSV,2,1,08,02,13,171,24,15,49,302,48,27,38,295,44,30,48,218,47,1*7C
$GAGSV,2,2,08,34,49,032,47,05,26,089,42,09,05,041,17,03,21,144,38,1*76
$GAGSV,3,1,09,02,13,171,28,15,49,302,50,27,38,295,47,30,48,218,50,2*7F
$GAGSV,3,2,09,34,49,032,50,36,08,068,26,05,26,089,44,09,05,041,23,2*7F
$GAGSV,3,3,09,03,21,144,40,2*4A
$GAGSV,2,1,07,15,49,302,45,27,38,295,45,30,48,218,45,34,49,032,47,7*72
$GAGSV,2,2,07,05,26,089,44,09,05,041,28,03,21,144,35,7*40
$GNGGA,083913.00,3207.95424644,N,11841.73806945,E,1,28,0.7,8.2563,M,1.7756,M,,*46
$GNRMC,083913.00,A,3207.95424644,N,11841.73806945,E,0.003,164.0,030424,6.1,W,A,C*51
#HEADINGA,COM3,9984,91.0,FINE,2308,290371.000,5266926,16,18;SOL_COMPUTED,NARROW_INT,1.9940,141.2920,-0.1078,0.0000,0.1421,0.3012,"999",53,41,41,35,0,01,3,f3*11b21e39
$GPGSV,3,1,11,12,19,314,41,03,07,039,28,06,58,340,47,14,15,173,22,1*61
$GPGSV,3,2,11,09,29,110,42,17,54,104,46,19,72,052,48,22,35,188,43,1*67
$GPGSV,3,3,11,04,18,066,37,11,38,285,44,20,30,225,43,1*5A
$GPGSV,3,1,11,12,19,314,38,03,07,039,25,06,58,340,48,14,15,173,23,4*69
$GPGSV,3,2,11,09,29,110,39,17,54,104,46,19,72,052,46,22,35,188,39,4*6D
$GPGSV,3,3,11,04,18,066,36,11,38,285,43,20,30,225,38,4*55
$GPGSV,2,1,06,03,07,039,32,06,58,340,52,14,15,173,33,09,29,110,44,8*6A
$GPGSV,2,2,06,04,18,066,39,11,38,285,48,8*64
$GLGSV,2,1,07,74,18,218,34,75,29,275,48,69,44,065,52,84,40,041,42,1*7F
$GLGSV,2,2,07,85,35,324,51,68,09,026,38,70,36,158,37,1*47
$GLGSV,2,1,05,75,29,275,48,69,44,065,50,84,40,041,43,85,35,324,47,3*77
$GLGSV,2,2,05,68,09,026,25,3*4B
$GBGSV,5,1,20,01,44,136,45,02,36,231,39,03,51,195,46,07,79,186,46,1*75
$GBGSV,5,2,20,08,63,242,43,10,77,277,45,12,54,336,46,13,50,236,44,1*79
$GBGSV,5,3,20,22,55,087,49,24,18,234,40,38,75,261,47,40,73,126,48,1*78
$GBGSV,5,4,20,59,45,144,47,60,34,237,43,04,33,119,42,19,16,040,27,1*7F
$GBGSV,5,5,20,44,65,024,50,25,13,287,34,21,40,173,47,34,30,308,42,1*73
$GBGSV,5,1,20,01,44,136,43,02,36,231,41,03,51,195,45,07,79,186,47,8*77
$GBGSV,5,2,20,08,63,242,46,10,77,277,46,12,54,336,50,13,50,236,45,8*70
$GBGSV,5,3,20,22,55,087,50,24,18,234,41,38,75,261,50,40,73,126,50,8*77
$GBGSV,5,4,20,59,45,144,47,60,34,237,44,04,33,119,41,19,16,040,37,8*73
$GBGSV,5,5,20,44,65,024,51,25,13,287,36,21,40,173,48,34,30,308,42,8*76
$GBGSV,3,1,09,01,44,136,46,02,36,231,45,03,51,195,47,07,79,186,49,B*0D
$GBGSV,3,2,09,08,63,242,49,10,77,277,48,12,54,336,51,13,50,236,47,B*05
$GBGSV,3,3,09,04,33,119,43,B*36
$GAGSV,2,1,08,02,13,171,25,15,49,302,48,27,38,295,44,30,48,218,47,1*7D
$GAGSV,2,2,08,34,49,032,47,05,26,089,42,09,05,041,17,03,21,144,38,1*76
$GAGSV,3,1,09,02,13,171,27,15,49,302,50,27,38,295,47,30,48,218,49,2*78
$GAGSV,3,2,09,34,49,032,50,36,08,068,25,05,26,089,44,09,05,041,23,2*7C
$GAGSV,3,3,09,03,21,144,40,2*4A
$GAGSV,2,1,07,15,49,302,45,27,38,295,45,30,48,218,45,34,49,032,47,7*72
$GAGSV,2,2,07,05,26,089,44,09,05,041,28,03,21,144,35,7*40
$GNGGA,083914.00,3207.95424568,N,11841.73806849,E,1,28,0.7,8.2601,M,1.7756,M,,*46
$GNRMC,083914.00,A,3207.95424568,N,11841.73806849,E,0.002,157.7,030424,6.1,W,A,C*50
#HEADINGA,COM3,9984,91.0,FINE,2308,290372.000,5267924,16,18;SOL_COMPUTED,NARROW_INT,1.9940,141.2779,-0.1078,0.0000,0.1382,0.2911,"999",52,41,41,35,0,01,3,f3*25aeed8b
$GPGSV,3,1,11,12,19,314,41,03,07,039,27,06,58,340,47,14,15,173,22,1*6E
$GPGSV,3,2,11,09,29,110,42,17,54,104,46,19,72,052,48,22,35,188,43,1*67
$GPGSV,3,3,11,04,18,066,38,11,38,285,44,20,30,225,43,1*55
$GPGSV,3,1,11,12,19,314,38,03,07,039,23,06,58,340,48,14,15,173,22,4*6E
$GPGSV,3,2,11,09,29,110,39,17,54,104,46,19,72,052,46,22,35,188,39,4*6D
$GPGSV,3,3,11,04,18,066,36,11,38,285,44,20,30,225,38,4*52
$GPGSV,2,1,06,03,07,039,31,06,58,340,51,14,15,173,33,09,29,110,44,8*6A
$GPGSV,2,2,06,04,18,066,39,11,38,285,47,8*6B
$GLGSV,2,1,07,74,18,218,34,75,29,275,48,69,44,065,53,84,40,041,42,1*7E
$GLGSV,2,2,07,85,35,324,51,68,09,026,36,70,36,158,37,1*49
$GLGSV,2,1,05,75,29,275,48,69,44,065,50,84,40,041,43,85,35,324,47,3*77
$GLGSV,2,2,05,68,09,026,23,3*4D
$GBGSV,5,1,20,01,44,136,45,02,36,231,40,03,51,195,46,07,79,186,46,1*7B
$GBGSV,5,2,20,08,63,242,44,10,77,277,45,12,54,336,46,13,50,236,44,1*7E
$GBGSV,5,3,20,22,55,087,49,24,18,234,40,38,75,261,48,40,73,126,48,1*77
$GBGSV,5,4,20,59,45,144,47,60,34,237,43,04,33,119,43,19,16,040,28,1*71
$GBGSV,5,5,20,44,65,024,50,25,13,287,33,21,40,173,47,34,30,308,43,1*75
$GBGSV,5,1,20,01,44,136,43,02,36,231,41,03,51,195,45,07,79,186,47,8*77
$GBGSV,5,2,20,08,63,242,47,10,77,277,46,12,54,336,50,13,50,236,45,8*71
$GBGSV,5,3,20,22,55,087,51,24,18,234,41,38,75,261,50,40,73,126,50,8*76
$GBGSV,5,4,20,59,45,144,47,60,34,237,44,04,33,119,41,19,16,040,37,8*73
$GBGSV,5,5,20,44,65,024,51,25,13,287,36,21,40,173,48,34,30,308,42,8*76
$GBGSV,3,1,09,01,44,136,46,02,36,231,45,03,51,195,47,07,79,186,49,B*0D
$GBGSV,3,2,09,08,63,242,49,10,77,277,48,12,54,336,51,13,50,236,47,B*05
$GBGSV,3,3,09,04,33,119,43,B*36
$GAGSV,2,1,08,02,13,171,24,15,49,302,48,27,38,295,44,30,48,218,47,1*7C
$GAGSV,2,2,08,34,49,032,47,05,26,089,42,09,05,041,18,03,21,144,38,1*79
$GAGSV,3,1,09,02,13,171,27,15,49,302,50,27,38,295,47,30,48,218,49,2*78
$GAGSV,3,2,09,34,49,032,50,36,08,068,25,05,26,089,44,09,05,041,22,2*7D
$GAGSV,3,3,09,03,21,144,40,2*4A
$GAGSV,2,1,07,15,49,302,45,27,38,295,45,30,48,218,45,34,49,032,46,7*73
$GAGSV,2,2,07,05,26,089,44,09,05,041,28,03,21,144,35,7*40
$GNGGA,083915.00,3207.95424495,N,11841.73806762,E,1,28,0.7,8.2635,M,1.7756,M,,*45
$GNRMC,083915.00,A,3207.95424495,N,11841.73806762,E,0.002,152.0,030424,6.1,W,A,C*56
#HEADINGA,COM3,9984,91.0,FINE,2308,290373.000,5268926,16,18;SOL_COMPUTED,NARROW_INT,1.9940,141.2639,-0.1079,0.0000,0.1384,0.2914,"999",52,41,41,35,0,01,3,f3*a424abbf
$GPGSV,3,1,11,12,19,314,41,03,07,039,30,06,58,340,47,14,15,173,21,1*6B
$GPGSV,3,2,11,09,29,110,42,17,54,104,46,19,72,052,48,22,35,188,43,1*67
$GPGSV,3,3,11,04,18,066,38,11,38,285,44,20,30,225,43,1*55
$GPGSV,3,1,11,12,19,314,38,03,07,039,25,06,58,340,48,14,15,173,22,4*68
$GPGSV,3,2,11,09,29,110,39,17,54,104,46,19,72,052,46,22,35,188,39,4*6D
$GPGSV,3,3,11,04,18,066,37,11,38,285,44,20,30,225,38,4*53
$GPGSV,2,1,06,03,07,039,32,06,58,340,51,14,15,173,33,09,29,110,44,8*69
$GPGSV,2,2,06,04,18,066,40,11,38,285,48,8*6A
$GLGSV,2,1,07,74,18,218,33,75,29,275,48,69,44,065,53,84,40,041,42,1*79
$GLGSV,2,2,07,85,35,324,51,68,09,026,36,70,36,158,37,1*49
$GLGSV,2,1,05,75,29,275,48,69,44,065,49,84,40,041,43,85,35,324,47,3*7F
$GLGSV,2,2,05,68,09,026,26,3*48
$GBGSV,5,1,20,01,44,136,45,02,36,231,40,03,51,195,46,07,79,186,46,1*7B
$GBGSV,5,2,20,08,63,242,43,10,77,277,45,12,54,336,46,13,50,236,44,1*79
$GBGSV,5,3,20,22,55,087,49,24,18,234,40,38,75,261,48,40,73,126,48,1*77
$GBGSV,5,4,20,59,45,144,47,60,34,237,43,04,33,119,43,19,16,040,29,1*70
$GBGSV,5,5,20,44,65,024,50,25,13,287,33,21,40,173,47,34,30,308,43,1*75
$GBGSV,5,1,20,01,44,136,43,02,36,231,41,03,51,195,45,07,79,186,47,8*77
$GBGSV,5,2,20,08,63,242,47,10,77,277,46,12,54,336,50,13,50,236,45,8*71
$GBGSV,5,3,20,22,55,087,51,24,18,234,41,38,75,261,50,40,73,126,50,8*76
$GBGSV,5,4,20,59,45,144,48,60,34,237,44,04,33,119,41,19,16,040,37,8*7C
$GBGSV,5,5,20,44,65,024,51,25,13,287,36,21,40,173,48,34,30,308,42,8*76
$GBGSV,3,1,09,01,44,136,46,02,36,231,45,03,51,195,47,07,79,186,48,B*0C
$GBGSV,3,2,09,08,63,242,48,10,77,277,48,12,54,336,51,13,50,236,47,B*04
$GBGSV,3,3,09,04,33,119,43,B*36
$GAGSV,2,1,08,02,13,171,24,15,49,302,48,27,38,295,44,30,48,218,47,1*7C
$GAGSV,2,2,08,34,49,032,47,05,26,089,42,09,05,040,18,03,21,144,38,1*78
$GAGSV,3,1,09,02,13,171,28,15,49,302,50,27,38,295,47,30,48,218,50,2*7F
$GAGSV,3,2,09,34,49,032,50,36,08,068,25,05,26,089,44,09,05,040,22,2*7C
$GAGSV,3,3,09,03,21,144,40,2*4A
$GAGSV,2,1,07,15,49,302,45,27,38,295,45,30,48,218,45,34,49,032,46,7*73
$GAGSV,2,2,07,05,26,089,44,09,05,040,29,03,21,144,35,7*40
$GNGGA,083916.00,3207.95424439,N,11841.73806723,E,1,28,0.7,8.2648,M,1.7756,M,,*4F
$GNRMC,083916.00,A,3207.95424439,N,11841.73806723,E,0.002,141.4,030424,6.1,W,A,C*50
#HEADINGA,COM3,9984,88.0,FINE,2308,290374.000,5269924,16,18;SOL_COMPUTED,NARROW_INT,1.9940,141.2499,-0.1080,0.0000,0.1384,0.2915,"999",53,41,41,35,0,01,3,f3*1c0dfae2
$GPGSV,3,1,11,12,19,314,41,03,07,039,28,06,58,340,47,14,15,173,20,1*63
$GPGSV,3,2,11,09,29,110,41,17,54,104,46,19,72,052,48,22,35,188,43,1*64
$GPGSV,3,3,11,04,18,066,38,11,38,285,44,20,30,225,43,1*55
$GPGSV,3,1,11,12,19,314,38,03,07,039,25,06,58,340,48,14,15,173,24,4*6E
$GPGSV,3,2,11,09,29,110,39,17,54,104,46,19,72,052,46,22,35,188,39,4*6D
$GPGSV,3,3,11,04,18,066,36,11,38,285,44,20,30,225,38,4*52
$GPGSV,2,1,06,03,07,039,30,06,58,340,51,14,15,173,33,09,29,110,44,8*6B
$GPGSV,2,2,06,04,18,066,40,11,38,285,48,8*6A
$GLGSV,2,1,07,74,18,218,33,75,29,275,48,69,44,065,53,84,40,041,42,1*79
$GLGSV,2,2,07,85,35,324,51,68,09,026,37,70,36,158,36,1*49
$GLGSV,2,1,05,75,29,275,48,69,44,065,49,84,40,041,43,85,35,324,47,3*7F
$GLGSV,2,2,05,68,09,026,28,3*46
$GBGSV,5,1,20,01,44,136,45,02,36,231,39,03,51,195,46,07,79,186,46,1*75
$GBGSV,5,2,20,08,63,242,44,10,77,277,45,12,54,336,46,13,50,236,44,1*7E
$GBGSV,5,3,20,22,55,087,49,24,18,234,40,38,75,261,48,40,73,126,48,1*77
$GBGSV,5,4,20,59,45,144,47,60,34,237,43,04,33,119,43,19,16,040,29,1*70
$GBGSV,5,5,20,44,65,024,50,25,13,287,34,21,40,173,47,34,30,308,43,1*72
$GBGSV,5,1,20,01,44,136,43,02,36,231,41,03,51,195,45,07,79,186,47,8*77
$GBGSV,5,2,20,08,63,242,47,10,77,277,46,12,54,336,50,13,50,236,45,8*71
$GBGSV,5,3,20,22,55,087,51,24,18,234,41,38,75,261,50,40,73,126,50,8*76
$GBGSV,5,4,20,59,45,144,48,60,34,237,44,04,33,119,41,19,16,040,36,8*7D
$GBGSV,5,5,20,44,65,024,51,25,13,287,36,21,40,173,48,34,30,308,42,8*76
$GBGSV,3,1,09,01,44,136,46,02,36,231,45,03,51,195,47,07,79,186,48,B*0C
$GBGSV,3,2,09,08,63,242,49,10,77,277,48,12,54,336,51,13,50,236,47,B*05
$GBGSV,3,3,09,04,33,119,43,B*36
$GAGSV,2,1,08,02,13,171,23,15,49,302,48,27,38,295,44,30,48,218,47,1*7B
$GAGSV,2,2,08,34,49,032,47,05,26,089,42,09,05,040,18,03,21,144,38,1*78
$GAGSV,3,1,09,02,13,171,29,15,49,302,50,27,38,295,47,30,48,218,49,2*76
$GAGSV,3,2,09,34,49,032,50,36,08,068,24,05,26,089,44,09,05,040,22,2*7D
$GAGSV,3,3,09,03,21,144,40,2*4A
$GAGSV,2,1,07,15,49,302,45,27,38,295,45,30,48,218,45,34,49,032,46,7*73
$GAGSV,2,2,07,05,26,089,43,09,05,040,28,03,21,144,35,7*46
$GNGGA,083917.00,3207.95424383,N,11841.73806666,E,1,28,0.7,8.2663,M,1.7756,M,,*41
$GNRMC,083917.00,A,3207.95424383,N,11841.73806666,E,0.002,193.7,030424,6.1,W,A,C*5B
#HEADINGA,COM3,9984,88.0,FINE,2308,290375.000,5270924,16,18;SOL_COMPUTED,NARROW_INT,1.9940,141.2359,-0.1081,0.0000,0.1385,0.2920,"999",53,41,41,35,0,01,3,f3*3a7ecff3
$GPGSV,3,1,11,12,19,314,41,03,07,039,29,06,58,340,47,14,15,173,21,1*63
$GPGSV,3,2,11,09,29,110,41,17,54,104,46,19,72,052,48,22,35,188,43,1*64
$GPGSV,3,3,11,04,18,066,37,11,38,285,44,20,30,225,43,1*5A
$GPGSV,3,1,11,12,19,314,38,03,07,039,27,06,58,340,48,14,15,173,25,4*6D
$GPGSV,3,2,11,09,29,110,39,17,54,104,46,19,72,052,46,22,35,188,39,4*6D
$GPGSV,3,3,11,04,18,066,36,11,38,285,44,20,30,225,38,4*52
$GPGSV,2,1,06,03,07,039,32,06,58,340,51,14,15,173,33,09,29,110,44,8*69
$GPGSV,2,2,06,04,18,066,40,11,38,285,48,8*6A
$GLGSV,2,1,07,74,18,218,34,75,29,275,48,69,44,065,53,84,40,041,41,1*7D
$GLGSV,2,2,07,85,35,324,51,68,09,026,36,70,36,158,36,1*48
$GLGSV,2,1,05,75,29,275,49,69,44,065,49,84,40,041,43,85,35,324,47,3*7E
$GLGSV,2,2,05,68,09,026,27,3*49
$GBGSV,5,1,20,01,44,136,45,02,36,231,39,03,51,195,46,07,79,186,46,1*75
$GBGSV,5,2,20,08,63,242,43,10,77,277,45,12,54,336,46,13,50,236,43,1*7E
$GBGSV,5,3,20,22,55,087,49,24,18,234,40,38,75,261,48,40,73,126,48,1*77
$GBGSV,5,4,20,59,45,144,47,60,34,237,43,04,33,119,42,19,16,040,29,1*71
$GBGSV,5,5,20,44,65,024,49,25,13,287,33,21,40,173,46,34,30,308,43,1*7C
$GBGSV,5,1,20,01,44,136,43,02,36,231,41,03,51,195,45,07,79,186,47,8*77
$GBGSV,5,2,20,08,63,242,47,10,77,277,46,12,54,336,50,13,50,236,45,8*71
$GBGSV,5,3,20,22,55,087,51,24,18,234,41,38,75,261,50,40,73,126,50,8*76
$GBGSV,5,4,20,59,45,144,48,60,34,237,44,04,33,119,41,19,16,040,37,8*7C
$GBGSV,5,5,20,44,65,024,51,25,13,287,36,21,40,173,48,34,30,308,42,8*76
$GBGSV,3,1,09,01,44,136,46,02,36,231,45,03,51,195,47,07,79,186,48,B*0C
$GBGSV,3,2,09,08,63,242,49,10,77,277,48,12,54,336,51,13,50,236,47,B*05
$GBGSV,3,3,09,04,33,119,43,B*36
$GAGSV,2,1,08,02,13,171,22,15,49,302,48,27,38,295,44,30,48,218,47,1*7A
$GAGSV,2,2,08,34,49,032,47,05,26,089,42,09,05,040,18,03,21,144,38,1*78
$GAGSV,3,1,09,02,13,171,28,15,49,302,50,27,38,295,47,30,48,218,49,2*77
$GAGSV,3,2,09,34,49,032,50,36,08,068,23,05,26,089,44,09,05,040,22,2*7A
$GAGSV,3,3,09,03,21,144,39,2*44
$GAGSV,2,1,07,15,49,302,45,27,38,295,45,30,48,218,45,34,49,032,46,7*73
$GAGSV,2,2,07,05,26,089,43,09,05,040,29,03,21,144,35,7*47
$GNGGA,083918.00,3207.95424342,N,11841.73806622,E,1,28,0.7,8.2674,M,1.7756,M,,*45
$GNRMC,083918.00,A,3207.95424342,N,11841.73806622,E,0.000,169.1,030424,6.1,W,A,C*58
#HEADINGA,COM3,9984,89.0,FINE,2308,290376.000,5271924,16,18;SOL_COMPUTED,NARROW_INT,1.9940,141.2219,-0.1081,0.0000,0.1384,0.2921,"999",53,41,41,35,0,01,3,f3*c8045bec
$GPGSV,3,1,11,12,19,314,41,03,07,039,27,06,58,340,48,14,15,173,21,1*62
$GPGSV,3,2,11,09,29,110,41,17,54,104,46,19,72,052,48,22,35,188,43,1*64
$GPGSV,3,3,11,04,18,066,38,11,38,285,44,20,30,225,43,1*55
$GPGSV,3,1,11,12,19,314,38,03,07,039,26,06,58,340,48,14,15,173,25,4*6C
$GPGSV,3,2,11,09,29,110,39,17,54,104,46,19,72,052,46,22,35,188,39,4*6D
$GPGSV,3,3,11,04,18,066,37,11,38,285,44,20,30,225,38,4*53
$GPGSV,2,1,06,03,07,039,31,06,58,340,51,14,15,173,32,09,29,110,44,8*6B
$GPGSV,2,2,06,04,18,066,41,11,38,285,47,8*64
$GLGSV,2,1,07,74,18,218,33,75,29,275,48,69,44,065,53,84,40,041,41,1*7A
$GLGSV,2,2,07,85,35,324,51,68,09,026,37,70,36,158,37,1*48
$GLGSV,2,1,05,75,29,275,49,69,44,065,49,84,40,041,43,85,35,324,47,3*7E
$GLGSV,2,2,05,68,09,026,21,3*4F
$GBGSV,5,1,20,01,44,136,45,02,36,231,39,03,51,195,46,07,79,186,46,1*75
$GBGSV,5,2,20,08,63,243,43,10,77,276,45,12,54,336,46,13,50,236,43,1*7E
$GBGSV,5,3,20,22,55,087,49,24,18,234,40,38,75,261,48,40,73,126,48,1*77
$GBGSV,5,4,20,59,45,144,47,60,34,237,43,04,33,119,42,19,16,040,28,1*70
$GBGSV,5,5,20,44,65,024,50,25,13,287,33,21,40,173,46,34,30,308,43,1*74
$GBGSV,5,1,20,01,44,136,43,02,36,231,41,03,51,195,45,07,79,186,47,8*77
$GBGSV,5,2,20,08,63,243,47,10,77,276,46,12,54,336,50,13,50,236,45,8*71
$GBGSV,5,3,20,22,55,087,51,24,18,234,41,38,75,261,50,40,73,126,50,8*76
$GBGSV,5,4,20,59,45,144,48,60,34,237,45,04,33,119,41,19,16,040,37,8*7D
$GBGSV,5,5,20,44,65,024,51,25,13,287,36,21,40,173,48,34,30,308,42,8*76
$GBGSV,3,1,09,01,44,136,46,02,36,231,45,03,51,195,47,07,79,186,48,B*0C
$GBGSV,3,2,09,08,63,243,49,10,77,276,48,12,54,336,51,13,50,236,47,B*05
$GBGSV,3,3,09,04,33,119,43,B*36
$GAGSV,2,1,08,02,13,171,24,15,49,302,48,27,38,295,44,30,48,218,47,1*7C
$GAGSV,2,2,08,34,49,032,47,05,26,089,42,09,05,040,18,03,21,144,38,1*78
$GAGSV,3,1,09,02,13,171,28,15,49,302,50,27,38,295,47,30,48,218,50,2*7F
$GAGSV,3,2,09,34,49,032,50,36,08,068,23,05,26,089,44,09,05,040,23,2*7B
$GAGSV,3,3,09,03,21,144,40,2*4A
$GAGSV,2,1,07,15,49,302,45,27,38,295,45,30,48,218,45,34,49,032,46,7*73
$GAGSV,2,2,07,05,26,089,43,09,05,040,30,03,21,144,35,7*4F
$GNGGA,083919.00,3207.95424298,N,11841.73806573,E,1,28,0.7,8.2689,M,1.7756,M,,*47
$GNRMC,083919.00,A,3207.95424298,N,11841.73806573,E,0.001,205.2,030424,6.1,W,A,C*53
#HEADINGA,COM3,9984,90.0,FINE,2308,290377.000,5272924,17,18;SOL_COMPUTED,NARROW_INT,1.9940,141.2079,-0.1082,0.0000,0.1382,0.2913,"999",53,41,41,35,0,01,3,f3*74e1b55b
$GPGSV,3,1,11,12,19,314,41,03,07,039,27,06,58,340,48,14,15,173,20,1*63
$GPGSV,3,2,11,09,29,110,41,17,54,104,46,19,72,052,48,22,35,188,43,1*64
$GPGSV,3,3,11,04,18,066,38,11,38,285,44,20,30,225,43,1*55
$GPGSV,3,1,11,12,19,314,38,03,07,039,26,06,58,340,48,14,15,173,25,4*6C
$GPGSV,3,2,11,09,29,110,39,17,54,104,46,19,72,052,46,22,35,188,38,4*6C
$GPGSV,3,3,11,04,18,066,37,11,38,285,44,20,30,225,38,4*53
$GPGSV,2,1,06,03,07,039,32,06,58,340,51,14,15,173,32,09,29,110,44,8*68
$GPGSV,2,2,06,04,18,066,41,11,38,285,47,8*64
$GLGSV,2,1,07,74,18,218,33,75,29,275,48,69,44,065,53,84,40,041,41,1*7A
$GLGSV,2,2,07,85,35,324,51,68,09,026,38,70,36,158,37,1*47
$GLGSV,2,1,05,75,29,275,49,69,44,065,49,84,40,041,44,85,35,324,47,3*79
$GLGSV,2,2,05,68,09,026,23,3*4D
$GBGSV,5,1,20,01,44,136,45,02,36,231,39,03,51,195,46,07,79,186,46,1*75
$GBGSV,5,2,20,08,63,243,43,10,77,276,45,12,54,336,46,13,50,236,43,1*7E
$GBGSV,5,3,20,22,55,087,49,24,18,234,40,38,75,261,48,40,73,126,48,1*77
$GBGSV,5,4,20,59,45,144,47,60,34,237,43,04,33,119,42,19,16,040,28,1*70
$GBGSV,5,5,20,44,65,024,49,25,13,287,33,21,40,173,46,34,30,308,43,1*7C
$GBGSV,5,1,20,01,44,136,43,02,36,231,41,03,51,195,45,07,79,186,47,8*77
$GBGSV,5,2,20,08,63,243,47,10,77,276,46,12,54,336,50,13,50,236,45,8*71
$GBGSV,5,3,20,22,55,087,51,24,18,234,41,38,75,261,50,40,73,126,50,8*76
$GBGSV,5,4,20,59,45,144,48,60,34,237,45,04,33,119,41,19,16,040,37,8*7D
$GBGSV,5,5,20,44,65,024,51,25,13,287,36,21,40,173,48,34,30,308,42,8*76
$GBGSV,3,1,09,01,44,136,46,02,36,231,45,03,51,195,47,07,79,186,48,B*0C
$GBGSV,3,2,09,08,63,243,49,10,77,276,48,12,54,336,51,13,50,236,46,B*04
$GBGSV,3,3,09,04,33,119,43,B*36
