$GNGGA,081923.00,3207.95329086,N,11841.73848358,E,1,28,0.7,8.6764,M,1.7756,M,,*48
$GNRMC,081923.00,A,3207.95329086,N,11841.73848358,E,0.008,184.0,030424,6.1,W,A,C*5B
#HEADINGA,COM3,9984,91.0,FINE,2308,289181.000,4076924,16,18;SOL_COMPUTED,NARROW_INT,1.9929,294.6623,0.0947,0.0000,0.1289,0.2671,"999",51,43,43,36,0,01,3,f3*016ac924
$GPGSV,3,1,10,03,15,039,20,06,58,322,47,14,23,175,41,09,24,119,37,1*63
$GPGSV,3,2,10,17,59,089,46,19,70,021,46,22,44,191,45,04,17,076,29,1*63
$GPGSV,3,3,10,11,33,275,44,20,22,220,34,1*60
$GPGSV,3,1,09,03,15,039,31,06,58,322,47,14,23,175,41,09,24,119,37,4*6E
$GPGSV,3,2,09,17,59,089,45,19,70,021,45,22,44,191,42,04,17,076,36,4*67
$GPGSV,3,3,09,11,33,275,43,4*5F
$GPGSV,2,1,06,03,15,039,34,06,58,322,51,14,23,175,43,09,24,119,43,8*6F
$GPGSV,2,2,06,04,17,076,41,11,33,275,46,8*6F
$GLGSV,2,1,07,74,27,224,40,75,32,288,49,69,45,081,52,84,42,027,41,1*7C
$GLGSV,2,2,07,85,30,313,48,68,16,032,40,70,25,162,38,1*4E
$GLGSV,2,1,05,75,32,288,47,69,45,081,50,84,42,027,43,85,30,313,45,3*7A
$GLGSV,2,2,05,68,16,032,37,3*43
$GBGSV,5,1,20,01,44,136,44,02,36,231,40,03,51,195,44,07,83,180,46,1*7B
$GBGSV,5,2,20,08,62,231,44,10,76,292,45,12,49,325,45,13,48,228,44,1*7A
$GBGSV,5,3,20,22,53,103,49,24,23,241,42,38,75,241,49,40,74,109,48,1*7D
$GBGSV,5,4,20,59,45,144,45,60,34,236,44,04,33,119,40,19,21,045,43,1*7A
$GBGSV,5,5,20,44,63,006,49,25,14,295,37,21,31,175,44,34,25,302,45,1*70
$GBGSV,5,1,20,01,44,136,43,02,36,231,40,03,51,195,45,07,83,180,47,8*75
$GBGSV,5,2,20,08,62,231,47,10,76,292,46,12,49,325,49,13,48,228,45,8*7E
$GBGSV,5,3,20,22,53,103,50,24,23,241,41,38,75,241,50,40,74,109,50,8*7E
$GBGSV,5,4,20,59,45,144,48,60,34,236,45,04,33,119,41,19,21,045,43,8*7E
$GBGSV,5,5,20,44,63,006,50,25,14,295,40,21,31,175,45,34,25,302,43,8*76
$GBGSV,3,1,09,01,44,136,45,02,36,231,46,03,51,195,48,07,83,180,49,B*01
$GBGSV,3,2,09,08,62,231,48,10,76,292,49,12,49,325,50,13,48,228,47,B*03
$GBGSV,3,3,09,04,33,119,43,B*36
$GAGSV,2,1,08,02,20,172,39,15,46,291,49,27,35,303,44,30,55,225,48,1*78
$GAGSV,2,2,08,34,53,023,49,36,12,062,29,05,23,096,41,09,07,046,30,1*78
$GAGSV,2,1,08,02,20,172,40,15,46,291,48,27,35,303,47,30,55,225,50,2*7E
$GAGSV,2,2,08,34,53,023,50,36,12,062,34,05,23,096,42,09,07,046,30,2*7C
$GAGSV,2,1,08,02,20,172,36,15,46,291,45,27,35,303,44,30,55,225,47,7*72
$GAGSV,2,2,08,34,53,023,45,36,12,062,31,05,23,096,41,09,07,046,27,7*7D
$GNGGA,081924.00,3207.95329188,N,11841.73848487,E,1,28,0.7,8.6705,M,1.7756,M,,*42
$GNRMC,081924.00,A,3207.95329188,N,11841.73848487,E,0.007,184.8,030424,6.1,W,A,C*51
#HEADINGA,COM3,9984,91.0,FINE,2308,289182.000,4077923,16,18;SOL_COMPUTED,NARROW_INT,1.9929,294.4069,0.0943,0.0000,0.1292,0.2669,"999",51,43,43,36,0,01,3,f3*13df0986
$GPGSV,3,1,10,03,15,039,20,06,58,322,47,14,23,175,41,09,24,119,37,1*63
$GPGSV,3,2,10,17,59,089,46,19,70,021,46,22,44,191,45,04,17,075,30,1*68
$GPGSV,3,3,10,11,33,276,44,20,22,220,33,1*64
$GPGSV,3,1,09,03,15,039,31,06,58,322,48,14,23,175,41,09,24,119,37,4*61
$GPGSV,3,2,09,17,59,089,45,19,70,021,45,22,44,191,43,04,17,075,36,4*65
$GPGSV,3,3,09,11,33,276,43,4*5C
$GPGSV,2,1,06,03,15,039,34,06,58,322,51,14,23,175,43,09,24,119,43,8*6F
$GPGSV,2,2,06,04,17,075,41,11,33,276,46,8*6F
$GLGSV,2,1,07,74,27,224,41,75,32,288,50,69,45,081,52,84,42,027,41,1*75
$GLGSV,2,2,07,85,30,313,47,68,16,032,39,70,25,162,37,1*40
$GLGSV,2,1,05,75,32,288,47,69,45,081,50,84,42,027,43,85,30,313,45,3*7A
$GLGSV,2,2,05,68,16,032,37,3*43
$GBGSV,5,1,20,01,44,136,44,02,36,231,40,03,51,195,45,07,83,180,46,1*7A
$GBGSV,5,2,20,08,62,231,44,10,76,292,45,12,49,325,46,13,48,228,44,1*79
$GBGSV,5,3,20,22,53,103,49,24,23,241,42,38,75,241,49,40,74,109,48,1*7D
$GBGSV,5,4,20,59,45,144,45,60,34,236,44,04,33,119,40,19,21,045,43,1*7A
$GBGSV,5,5,20,44,63,006,48,25,14,295,38,21,31,175,45,34,25,302,45,1*7F
$GBGSV,5,1,20,01,44,136,43,02,36,231,40,03,51,195,45,07,83,180,47,8*75
$GBGSV,5,2,20,08,62,231,46,10,76,292,46,12,49,325,49,13,48,228,45,8*7F
$GBGSV,5,3,20,22,53,103,50,24,23,241,41,38,75,241,50,40,74,109,50,8*7E
$GBGSV,5,4,20,59,45,144,48,60,34,236,45,04,33,119,41,19,21,045,42,8*7F
$GBGSV,5,5,20,44,63,006,50,25,14,295,40,21,31,175,45,34,25,302,43,8*76
$GBGSV,3,1,09,01,44,136,45,02,36,231,46,03,51,195,48,07,83,180,49,B*01
$GBGSV,3,2,09,08,62,231,48,10,76,292,49,12,49,325,51,13,48,228,47,B*02
$GBGSV,3,3,09,04,33,119,43,B*36
$GAGSV,2,1,08,02,20,172,39,15,46,291,49,27,35,303,44,30,55,225,48,1*78
$GAGSV,2,2,08,34,53,023,49,36,12,062,30,05,23,096,41,09,07,046,30,1*70
$GAGSV,2,1,08,02,20,172,40,15,46,291,48,27,35,303,47,30,55,225,50,2*7E
$GAGSV,2,2,08,34,53,023,51,36,12,062,35,05,23,096,43,09,07,046,31,2*7C
$GAGSV,2,1,08,02,20,172,35,15,46,291,45,27,35,303,44,30,55,225,47,7*71
$GAGSV,2,2,08,34,53,023,46,36,12,062,30,05,23,096,41,09,07,046,28,7*70
$GNGGA,081925.00,3207.95329259,N,11841.73848666,E,1,28,0.7,8.6653,M,1.7756,M,,*43
$GNRMC,081925.00,A,3207.95329259,N,11841.73848666,E,0.008,164.5,030424,6.1,W,A,C*5E
#HEADINGA,COM3,9984,91.0,FINE,2308,289183.000,4078924,16,18;SOL_COMPUTED,NARROW_INT,1.9929,294.1517,0.0940,0.0000,0.1294,0.2656,"999",51,43,43,36,0,01,3,f3*aef0db6c
$GPGSV,3,1,10,03,15,039,21,06,58,322,48,14,23,175,41,09,24,118,36,1*6D
$GPGSV,3,2,10,17,59,089,46,19,70,021,47,22,44,191,46,04,17,075,30,1*6A
$GPGSV,3,3,10,11,33,276,45,20,22,220,32,1*64
$GPGSV,3,1,09,03,15,039,31,06,58,322,47,14,23,175,40,09,24,118,37,4*6E
$GPGSV,3,2,09,17,59,089,45,19,70,021,45,22,44,191,43,04,17,075,36,4*65
$GPGSV,3,3,09,11,33,276,43,4*5C
$GPGSV,2,1,06,03,15,039,33,06,58,322,50,14,23,175,43,09,24,118,43,8*68
$GPGSV,2,2,06,04,17,075,41,11,33,276,46,8*6F
$GLGSV,2,1,07,74,27,224,41,75,32,288,49,69,45,081,53,84,42,027,41,1*7C
$GLGSV,2,2,07,85,30,313,48,68,16,032,40,70,25,162,38,1*4E
$GLGSV,2,1,05,75,32,288,47,69,45,081,50,84,42,027,44,85,30,313,45,3*7D
$GLGSV,2,2,05,68,16,032,36,3*42
$GBGSV,5,1,20,01,44,136,44,02,36,231,40,03,51,195,45,07,83,180,46,1*7A
$GBGSV,5,2,20,08,62,231,44,10,76,292,45,12,49,325,45,13,48,228,43,1*7D
$GBGSV,5,3,20,22,53,103,49,24,23,241,43,38,75,241,49,40,74,109,48,1*7C
$GBGSV,5,4,20,59,45,144,45,60,34,236,44,04,33,119,40,19,21,045,43,1*7A
$GBGSV,5,5,20,44,63,006,48,25,14,295,38,21,31,175,45,34,25,302,45,1*7F
$GBGSV,5,1,20,01,44,136,43,02,36,231,40,03,51,195,45,07,83,180,47,8*75
$GBGSV,5,2,20,08,62,231,46,10,76,292,46,12,49,325,49,13,48,228,45,8*7F
$GBGSV,5,3,20,22,53,103,50,24,23,241,41,38,75,241,50,40,74,109,50,8*7E
$GBGSV,5,4,20,59,45,144,48,60,34,236,45,04,33,119,41,19,21,045,42,8*7F
$GBGSV,5,5,20,44,63,006,51,25,14,295,40,21,31,175,45,34,25,302,43,8*77
$GBGSV,3,1,09,01,44,136,46,02,36,231,46,03,51,195,48,07,83,180,49,B*02
$GBGSV,3,2,09,08,62,231,48,10,76,292,49,12,49,325,51,13,48,228,47,B*02
$GBGSV,3,3,09,04,33,119,43,B*36
$GAGSV,2,1,08,02,20,172,39,15,46,291,49,27,35,303,45,30,55,225,48,1*79
$GAGSV,2,2,08,34,53,023,49,36,12,062,31,05,23,096,41,09,07,046,30,1*71
$GAGSV,2,1,08,02,20,172,40,15,46,291,49,27,35,303,47,30,55,225,50,2*7F
$GAGSV,2,2,08,34,53,023,51,36,12,062,35,05,23,096,43,09,07,046,32,2*7F
$GAGSV,2,1,08,02,20,172,36,15,46,291,45,27,35,303,45,30,55,225,47,7*73
$GAGSV,2,2,08,34,53,023,46,36,12,062,29,05,23,096,41,09,07,046,30,7*71
$GNGGA,081926.00,3207.95329320,N,11841.73848864,E,1,28,0.7,8.6600,M,1.7756,M,,*45
$GNRMC,081926.00,A,3207.95329320,N,11841.73848864,E,0.009,156.3,030424,6.1,W,A,C*58
#HEADINGA,COM3,9984,91.0,FINE,2308,289184.000,4079923,16,18;SOL_COMPUTED,NARROW_INT,1.9929,293.8968,0.0937,0.0000,0.1296,0.2779,"999",51,42,42,36,0,01,3,f3*bb143490
$GPGSV,3,1,10,03,15,039,22,06,58,322,48,14,23,175,42,09,24,118,37,1*6C
$GPGSV,3,2,10,17,59,089,46,19,70,021,47,22,44,191,46,04,17,075,29,1*62
$GPGSV,3,3,10,11,33,276,44,20,22,220,32,1*65
$GPGSV,3,1,10,03,15,039,32,06,58,322,48,14,23,175,40,09,24,118,38,4*65
$GPGSV,3,2,10,17,59,089,45,19,70,021,45,22,44,191,43,04,17,075,37,4*6C
$GPGSV,3,3,10,11,33,276,43,20,22,220,28,4*6C
$GPGSV,2,1,06,03,15,039,34,06,58,322,50,14,23,175,43,09,24,118,42,8*6E
$GPGSV,2,2,06,04,17,075,41,11,33,276,46,8*6F
$GLGSV,2,1,07,74,27,224,41,75,32,288,49,69,45,081,53,84,42,027,41,1*7C
$GLGSV,2,2,07,85,30,313,49,68,16,032,40,70,25,162,37,1*40
$GLGSV,2,1,05,75,32,288,46,69,45,081,50,84,42,027,44,85,30,313,45,3*7C
$GLGSV,2,2,05,68,16,032,37,3*43
$GBGSV,5,1,20,01,44,136,44,02,36,231,40,03,51,195,44,07,83,180,46,1*7B
$GBGSV,5,2,20,08,62,231,44,10,76,292,45,12,49,325,46,13,48,228,43,1*7E
$GBGSV,5,3,20,22,53,103,49,24,23,241,43,38,75,241,49,40,74,109,48,1*7C
$GBGSV,5,4,20,59,45,144,45,60,34,236,44,04,33,119,40,19,21,045,43,1*7A
$GBGSV,5,5,20,44,63,006,48,25,14,295,38,21,31,174,45,34,25,302,45,1*7E
$GBGSV,5,1,20,01,44,136,43,02,36,231,40,03,51,195,45,07,83,180,47,8*75
$GBGSV,5,2,20,08,62,231,46,10,76,292,46,12,49,325,49,13,48,228,45,8*7F
$GBGSV,5,3,20,22,53,103,50,24,23,241,41,38,75,241,50,40,74,109,50,8*7E
$GBGSV,5,4,20,59,45,144,48,60,34,236,45,04,33,119,41,19,21,045,42,8*7F
$GBGSV,5,5,20,44,63,006,51,25,14,295,40,21,31,174,45,34,25,302,43,8*76
$GBGSV,3,1,09,01,44,136,46,02,36,231,46,03,51,195,48,07,83,180,49,B*02
$GBGSV,3,2,09,08,62,231,48,10,76,292,49,12,49,325,51,13,48,228,47,B*02
$GBGSV,3,3,09,04,33,119,43,B*36
$GAGSV,2,1,08,02,20,172,39,15,46,291,49,27,35,303,45,30,55,225,48,1*79
$GAGSV,2,2,08,34,53,023,48,36,12,062,31,05,23,096,41,09,07,046,30,1*70
$GAGSV,2,1,08,02,20,172,40,15,46,291,49,27,35,303,46,30,55,225,50,2*7E
$GAGSV,2,2,08,34,53,023,50,36,12,062,35,05,23,096,43,09,07,046,32,2*7E
$GAGSV,2,1,08,02,20,172,36,15,46,291,46,27,35,303,45,30,55,225,47,7*70
$GAGSV,2,2,08,34,53,023,46,36,12,062,29,05,23,096,41,09,07,046,30,7*71
$GNGGA,081927.00,3207.95329385,N,11841.73849047,E,1,28,0.7,8.6544,M,1.7756,M,,*40
$GNRMC,081927.00,A,3207.95329385,N,11841.73849047,E,0.008,158.4,030424,6.1,W,A,C*56
#HEADINGA,COM3,9984,91.0,FINE,2308,289185.000,4080924,16,18;SOL_COMPUTED,NARROW_INT,1.9929,293.6421,0.0934,0.0000,0.1288,0.2797,"999",51,41,41,36,0,01,3,f3*ef1c8020
$GPGSV,3,1,10,03,15,039,21,06,58,322,48,14,23,175,42,09,24,118,37,1*6F
$GPGSV,3,2,10,17,59,089,46,19,70,021,47,22,44,191,46,04,17,075,30,1*6A
$GPGSV,3,3,10,11,33,276,44,20,22,220,31,1*66
$GPGSV,3,1,09,03,15,039,31,06,58,322,48,14,23,175,40,09,24,118,38,4*6E
$GPGSV,3,2,09,17,59,089,45,19,70,021,46,22,44,191,43,04,17,075,36,4*66
$GPGSV,3,3,09,11,33,276,44,4*5B
$GPGSV,2,1,06,03,15,039,33,06,58,322,51,14,23,175,43,09,24,118,43,8*69
$GPGSV,2,2,06,04,17,075,41,11,33,276,46,8*6F
$GLGSV,2,1,07,74,27,224,41,75,32,288,49,69,45,081,53,84,42,027,41,1*7C
$GLGSV,2,2,07,85,30,313,49,68,16,032,40,70,25,162,37,1*40
$GLGSV,2,1,05,75,32,288,47,69,45,081,50,84,42,027,43,85,30,313,46,3*79
$GLGSV,2,2,05,68,16,032,38,3*4C
$GBGSV,5,1,20,01,44,136,44,02,36,231,40,03,51,195,44,07,83,180,46,1*7B
$GBGSV,5,2,20,08,62,231,44,10,76,292,45,12,49,325,46,13,48,228,43,1*7E
$GBGSV,5,3,20,22,53,103,49,24,23,241,43,38,75,241,49,40,74,109,48,1*7C
$GBGSV,5,4,20,59,45,144,45,60,34,236,44,04,33,119,40,19,21,045,43,1*7A
$GBGSV,5,5,20,44,63,006,49,25,14,295,39,21,31,174,45,34,25,302,45,1*7E
$GBGSV,5,1,20,01,44,136,43,02,36,231,40,03,51,195,45,07,83,180,47,8*75
$GBGSV,5,2,20,08,62,231,46,10,76,292,46,12,49,325,49,13,48,228,45,8*7F
$GBGSV,5,3,20,22,53,103,50,24,23,241,41,38,75,241,50,40,74,109,50,8*7E
$GBGSV,5,4,20,59,45,144,48,60,34,236,45,04,33,119,41,19,21,045,42,8*7F
$GBGSV,5,5,20,44,63,006,51,25,14,295,40,21,31,174,45,34,25,302,43,8*76
$GBGSV,3,1,09,01,44,136,46,02,36,231,46,03,51,195,48,07,83,180,49,B*02
$GBGSV,3,2,09,08,62,231,48,10,76,292,48,12,49,325,51,13,48,228,47,B*03
$GBGSV,3,3,09,04,33,119,43,B*36
$GAGSV,2,1,08,02,20,172,39,15,46,291,49,27,35,303,45,30,55,225,48,1*79
$GAGSV,2,2,08,34,53,023,49,36,12,062,32,05,23,096,41,09,07,046,30,1*72
$GAGSV,2,1,08,02,20,172,40,15,46,291,49,27,35,303,47,30,55,225,50,2*7F
$GAGSV,2,2,08,34,53,023,50,36,12,062,35,05,23,096,43,09,07,046,32,2*7E
$GAGSV,2,1,08,02,20,172,36,15,46,291,46,27,35,303,45,30,55,225,48,7*7F
$GAGSV,2,2,08,34,53,023,46,36,12,062,29,05,23,096,41,09,07,046,31,7*70
$GNGGA,081928.00,3207.95329441,N,11841.73849229,E,1,28,0.7,8.6491,M,1.7756,M,,*43
$GNRMC,081928.00,A,3207.95329441,N,11841.73849229,E,0.008,158.5,030424,6.1,W,A,C*5D
#HEADINGA,COM3,9984,91.0,FINE,2308,289186.000,4081923,17,18;SOL_COMPUTED,NARROW_INT,1.9929,293.3877,0.0931,0.0000,0.1286,0.2791,"999",51,41,41,36,0,01,3,f3*f883ac65
$GPGSV,3,1,10,03,15,039,20,06,58,322,48,14,23,175,42,09,24,118,37,1*6E
$GPGSV,3,2,10,17,59,089,46,19,70,021,47,22,44,191,45,04,17,075,29,1*61
$GPGSV,3,3,10,11,33,276,44,20,22,220,32,1*65
$GPGSV,3,1,10,03,15,039,31,06,58,322,48,14,23,175,41,09,24,118,38,4*67
$GPGSV,3,2,10,17,59,089,45,19,70,021,45,22,44,191,42,04,17,075,37,4*6D
$GPGSV,3,3,10,11,33,276,44,20,22,220,29,4*6A
$GPGSV,2,1,06,03,15,039,33,06,58,322,51,14,23,175,43,09,24,118,42,8*68
$GPGSV,2,2,06,04,17,075,41,11,33,276,46,8*6F
$GLGSV,2,1,07,74,27,224,41,75,32,288,49,69,45,081,53,84,42,027,40,1*7D
$GLGSV,2,2,07,85,30,313,49,68,16,032,42,70,25,162,38,1*4D
$GLGSV,2,1,05,75,32,288,47,69,45,081,49,84,42,027,43,85,30,313,45,3*72
$GLGSV,2,2,05,68,16,032,37,3*43
$GBGSV,5,1,20,01,44,136,44,02,36,231,40,03,51,195,44,07,83,180,46,1*7B
$GBGSV,5,2,20,08,62,231,43,10,76,292,45,12,49,325,45,13,48,228,43,1*7A
$GBGSV,5,3,20,22,53,103,49,24,23,241,43,38,75,241,49,40,74,109,48,1*7C
$GBGSV,5,4,20,59,45,144,45,60,34,236,44,04,33,119,39,19,21,045,43,1*74
$GBGSV,5,5,20,44,63,006,48,25,14,295,39,21,31,174,45,34,25,302,44,1*7E
$GBGSV,5,1,20,01,44,136,43,02,36,231,40,03,51,195,45,07,83,180,47,8*75
$GBGSV,5,2,20,08,62,231,47,10,76,292,46,12,49,325,49,13,48,228,45,8*7E
$GBGSV,5,3,20,22,53,103,50,24,23,241,42,38,75,241,50,40,74,109,50,8*7D
$GBGSV,5,4,20,59,45,144,48,60,34,236,45,04,33,119,41,19,21,045,42,8*7F
$GBGSV,5,5,20,44,63,006,51,25,14,295,40,21,31,174,45,34,25,302,43,8*76
$GBGSV,3,1,09,01,44,136,46,02,36,231,46,03,51,195,48,07,83,180,49,B*02
$GBGSV,3,2,09,08,62,231,48,10,76,292,48,12,49,325,51,13,48,228,47,B*03
$GBGSV,3,3,09,04,33,119,43,B*36
$GAGSV,2,1,08,02,20,172,39,15,46,291,49,27,35,303,45,30,55,225,49,1*78
$GAGSV,2,2,08,34,53,023,49,36,12,062,32,05,23,096,41,09,07,046,31,1*73
$GAGSV,2,1,08,02,20,172,40,15,46,291,49,27,35,303,47,30,55,225,51,2*7E
$GAGSV,2,2,08,34,53,023,51,36,12,062,36,05,23,096,42,09,07,046,33,2*7C
$GAGSV,2,1,08,02,20,172,36,15,46,291,46,27,35,303,45,30,55,225,48,7*7F
$GAGSV,2,2,08,34,53,023,46,36,12,062,29,05,23,096,41,09,07,046,31,7*70
$GNGGA,081929.00,3207.95329483,N,11841.73849406,E,1,28,0.7,8.6440,M,1.7756,M,,*4B
$GNRMC,081929.00,A,3207.95329483,N,11841.73849406,E,0.008,161.8,030424,6.1,W,A,C*5E
#HEADINGA,COM3,9984,91.0,FINE,2308,289187.000,4082924,16,18;SOL_COMPUTED,NARROW_INT,1.9929,293.1336,0.0928,0.0000,0.1286,0.2793,"999",51,41,41,36,0,01,3,f3*f63d3732
$GPGSV,3,1,10,03,15,039,20,06,58,322,48,14,23,175,42,09,24,118,36,1*6F
$GPGSV,3,2,10,17,59,089,46,19,70,021,47,22,44,191,46,04,17,075,29,1*62
$GPGSV,3,3,10,11,33,276,45,20,22,220,32,1*64
$GPGSV,3,1,10,03,15,039,30,06,58,322,48,14,23,175,41,09,24,118,39,4*67
$GPGSV,3,2,10,17,59,089,45,19,70,021,46,22,44,191,43,04,17,075,37,4*6F
$GPGSV,3,3,10,11,33,276,44,20,22,220,29,4*6A
$GPGSV,2,1,06,03,15,039,32,06,58,322,51,14,23,175,43,09,24,118,43,8*68
$GPGSV,2,2,06,04,17,075,41,11,33,276,46,8*6F
$GLGSV,2,1,07,74,26,224,41,75,32,288,49,69,45,081,53,84,42,027,41,1*7D
$GLGSV,2,2,07,85,30,313,49,68,15,032,42,70,25,162,38,1*4E
$GLGSV,2,1,05,75,32,288,47,69,45,081,49,84,42,027,43,85,30,313,46,3*71
$GLGSV,2,2,05,68,15,032,36,3*41
$GBGSV,5,1,20,01,44,136,44,02,36,231,40,03,51,195,44,07,83,180,46,1*7B
$GBGSV,5,2,20,08,62,231,43,10,76,292,45,12,49,325,45,13,48,228,43,1*7A
$GBGSV,5,3,20,22,53,103,49,24,23,241,43,38,75,241,49,40,74,109,48,1*7C
$GBGSV,5,4,20,59,45,144,45,60,34,236,44,04,33,119,40,19,21,045,43,1*7A
$GBGSV,5,5,20,44,63,006,48,25,14,295,39,21,31,174,45,34,25,302,44,1*7E
$GBGSV,5,1,20,01,44,136,43,02,36,231,41,03,51,195,45,07,83,180,47,8*74
$GBGSV,5,2,20,08,62,231,47,10,76,292,46,12,49,325,49,13,48,228,45,8*7E
$GBGSV,5,3,20,22,53,103,50,24,23,241,42,38,75,241,50,40,74,109,50,8*7D
$GBGSV,5,4,20,59,45,144,48,60,34,236,45,04,33,119,41,19,21,045,42,8*7F
$GBGSV,5,5,20,44,63,006,51,25,14,295,41,21,31,174,45,34,25,302,43,8*77
$GBGSV,3,1,09,01,44,136,46,02,36,231,46,03,51,195,48,07,83,180,49,B*02
$GBGSV,3,2,09,08,62,231,48,10,76,292,48,12,49,325,51,13,48,228,47,B*03
$GBGSV,3,3,09,04,33,119,43,B*36
$GAGSV,2,1,08,02,20,172,39,15,46,291,49,27,35,303,45,30,55,225,49,1*78
$GAGSV,2,2,08,34,53,023,49,36,12,062,31,05,23,096,41,09,07,046,30,1*71
$GAGSV,2,1,08,02,20,172,40,15,46,291,49,27,35,303,47,30,55,225,50,2*7F
$GAGSV,2,2,08,34,53,023,51,36,12,062,36,05,23,096,43,09,07,046,33,2*7D
$GAGSV,2,1,08,02,20,172,35,15,46,291,46,27,35,303,44,30,55,225,47,7*72
$GAGSV,2,2,08,34,53,023,46,36,12,062,29,05,23,096,41,09,07,046,30,7*71
$GNGGA,081930.00,3207.95329518,N,11841.73849594,E,1,28,0.7,8.6392,M,1.7756,M,,*42
$GNRMC,081930.00,A,3207.95329518,N,11841.73849594,E,0.009,156.7,030424,6.1,W,A,C*55
#HEADINGA,COM3,9984,91.0,FINE,2308,289188.000,4083923,17,18;SOL_COMPUTED,NARROW_INT,1.9929,292.8797,0.0925,0.0000,0.1286,0.2792,"999",51,41,41,36,0,01,3,f3*9acfb6be
$GPGSV,3,1,10,03,15,039,20,06,58,322,48,14,23,175,42,09,24,118,36,1*6F
$GPGSV,3,2,10,17,59,089,46,19,70,021,47,22,44,191,46,04,17,075,30,1*6A
$GPGSV,3,3,10,11,33,276,45,20,22,220,32,1*64
$GPGSV,3,1,09,03,15,039,31,06,58,322,48,14,23,175,41,09,24,118,39,4*6E
$GPGSV,3,2,09,17,59,089,45,19,70,021,45,22,44,191,43,04,17,075,37,4*64
$GPGSV,3,3,09,11,33,276,44,4*5B
$GPGSV,2,1,06,03,15,039,33,06,58,322,51,14,23,175,43,09,24,118,43,8*69
$GPGSV,2,2,06,04,17,075,41,11,33,276,46,8*6F
$GLGSV,2,1,07,74,26,224,40,75,32,288,48,69,45,081,53,84,42,027,41,1*7D
$GLGSV,2,2,07,85,30,313,49,68,15,032,42,70,25,162,38,1*4E
$GLGSV,2,1,05,75,32,288,48,69,45,081,49,84,42,027,43,85,30,313,46,3*7E
$GLGSV,2,2,05,68,15,032,37,3*40
$GBGSV,5,1,20,01,44,136,44,02,36,231,40,03,51,195,45,07,83,180,46,1*7A
$GBGSV,5,2,20,08,62,231,44,10,76,292,45,12,49,325,45,13,48,228,43,1*7D
$GBGSV,5,3,20,22,53,103,49,24,23,241,43,38,75,241,49,40,74,109,48,1*7C
$GBGSV,5,4,20,59,45,144,46,60,34,236,44,04,33,119,40,19,21,045,43,1*79
$GBGSV,5,5,20,44,63,006,48,25,14,295,40,21,31,174,45,34,25,302,45,1*71
$GBGSV,5,1,20,01,44,136,43,02,36,231,41,03,51,195,45,07,83,180,47,8*74
$GBGSV,5,2,20,08,62,231,47,10,76,292,46,12,49,325,49,13,48,228,45,8*7E
$GBGSV,5,3,20,22,53,103,50,24,23,241,42,38,75,241,50,40,74,109,50,8*7D
$GBGSV,5,4,20,59,45,144,48,60,34,236,45,04,33,119,41,19,21,045,42,8*7F
$GBGSV,5,5,20,44,63,006,51,25,14,295,41,21,31,174,45,34,25,302,43,8*77
$GBGSV,3,1,09,01,44,136,46,02,36,231,46,03,51,195,48,07,83,180,49,B*02
$GBGSV,3,2,09,08,62,231,48,10,76,292,48,12,49,325,51,13,48,228,47,B*03
$GBGSV,3,3,09,04,33,119,43,B*36
$GAGSV,2,1,08,02,20,172,39,15,46,291,49,27,35,303,45,30,55,225,49,1*78
$GAGSV,2,2,08,34,53,023,49,36,12,062,32,05,23,096,41,09,07,046,30,1*72
$GAGSV,2,1,08,02,20,172,40,15,46,291,49,27,35,303,47,30,55,225,51,2*7E
$GAGSV,2,2,08,34,53,023,51,36,12,062,36,05,23,096,43,09,07,046,33,2*7D
$GAGSV,2,1,08,02,20,172,35,15,46,291,46,27,35,303,44,30,55,225,48,7*7D
$GAGSV,2,2,08,34,53,023,46,36,12,062,28,05,23,096,41,09,07,046,31,7*71
$GNGGA,081931.00,3207.95329541,N,11841.73849766,E,1,28,0.7,8.6348,M,1.7756,M,,*47
$GNRMC,081931.00,A,3207.95329541,N,11841.73849766,E,0.009,162.3,030424,6.1,W,A,C*54
#HEADINGA,COM3,9984,91.0,FINE,2308,289189.000,4084923,17,18;SOL_COMPUTED,NARROW_INT,1.9929,292.6260,0.0922,0.0000,0.1285,0.2751,"999",51,42,42,36,0,01,3,f3*27b21a3d
$GPGSV,3,1,10,03,15,039,21,06,58,322,48,14,23,175,42,09,24,118,37,1*6F
$GPGSV,3,2,10,17,59,089,46,19,70,021,47,22,44,191,46,04,17,075,31,1*6B
$GPGSV,3,3,10,11,33,276,45,20,22,220,32,1*64
$GPGSV,3,1,09,03,15,039,32,06,58,322,48,14,23,175,41,09,24,118,39,4*6D
$GPGSV,3,2,09,17,59,089,45,19,70,021,46,22,44,191,43,04,17,075,37,4*67
$GPGSV,3,3,09,11,33,276,44,4*5B
$GPGSV,2,1,06,03,15,039,34,06,58,322,51,14,23,175,43,09,24,118,43,8*6E
$GPGSV,2,2,06,04,17,075,41,11,33,276,46,8*6F
$GLGSV,2,1,07,74,26,224,41,75,32,288,48,69,45,081,53,84,42,027,40,1*7D
$GLGSV,2,2,07,85,30,313,49,68,15,032,41,70,25,162,38,1*4D
$GLGSV,2,1,05,75,32,288,48,69,45,081,49,84,42,027,43,85,30,313,46,3*7E
$GLGSV,2,2,05,68,15,032,36,3*41
$GBGSV,5,1,20,01,44,136,44,02,36,231,41,03,51,195,45,07,83,180,46,1*7B
$GBGSV,5,2,20,08,62,231,43,10,76,292,45,12,49,325,45,13,48,228,43,1*7A
$GBGSV,5,3,20,22,53,103,49,24,23,241,43,38,75,241,49,40,74,109,48,1*7C
$GBGSV,5,4,20,59,45,144,46,60,34,236,44,04,33,119,40,19,21,045,43,1*79
$GBGSV,5,5,20,44,63,006,48,25,14,295,40,21,31,174,45,34,25,302,45,1*71
$GBGSV,5,1,20,01,44,136,43,02,36,231,41,03,51,195,46,07,83,180,48,8*78
$GBGSV,5,2,20,08,62,231,47,10,76,292,47,12,49,325,49,13,48,228,45,8*7F
$GBGSV,5,3,20,22,53,103,51,24,23,241,42,38,75,241,50,40,74,109,50,8*7C
$GBGSV,5,4,20,59,45,144,48,60,34,236,45,04,33,119,41,19,21,045,42,8*7F
$GBGSV,5,5,20,44,63,006,51,25,14,295,41,21,31,174,45,34,25,302,43,8*77
$GBGSV,3,1,09,01,44,136,46,02,36,231,46,03,51,195,48,07,83,180,49,B*02
$GBGSV,3,2,09,08,62,231,48,10,76,292,48,12,49,325,51,13,48,228,47,B*03
$GBGSV,3,3,09,04,33,119,43,B*36
$GAGSV,2,1,08,02,20,172,39,15,46,291,49,27,35,303,44,30,55,225,49,1*79
$GAGSV,2,2,08,34,53,023,49,36,12,062,31,05,23,096,41,09,07,046,30,1*71
$GAGSV,2,1,08,02,20,172,40,15,46,291,49,27,35,303,47,30,55,225,51,2*7E
$GAGSV,2,2,08,34,53,023,51,36,12,062,36,05,23,096,43,09,07,046,34,2*7A
$GAGSV,2,1,08,02,20,172,36,15,46,291,46,27,35,303,44,30,55,225,47,7*71
$GAGSV,2,2,08,34,53,023,45,36,12,062,27,05,23,096,41,09,07,046,32,7*7E
$GNGGA,081932.00,3207.95329566,N,11841.73849929,E,1,28,0.7,8.6304,M,1.7756,M,,*4C
$GNRMC,081932.00,A,3207.95329566,N,11841.73849929,E,0.009,163.4,030424,6.1,W,A,C*51
#HEADINGA,COM3,9984,89.0,FINE,2308,289190.000,4085923,16,18;SOL_COMPUTED,NARROW_INT,1.9929,292.3727,0.0919,0.0000,0.1288,0.2751,"999",52,42,42,36,0,01,3,f3*fd9b5645
$GPGSV,3,1,10,03,15,039,27,06,58,322,47,14,23,175,42,09,24,118,37,1*66
$GPGSV,3,2,10,17,59,089,46,19,70,021,47,22,44,191,46,04,17,075,30,1*6A
$GPGSV,3,3,10,11,33,276,45,20,22,220,32,1*64
$GPGSV,3,1,09,03,15,039,32,06,58,322,48,14,23,175,41,09,24,118,39,4*6D
$GPGSV,3,2,09,17,59,089,45,19,70,021,46,22,44,191,43,04,17,075,37,4*67
$GPGSV,3,3,09,11,33,276,44,4*5B
$GPGSV,2,1,06,03,15,039,34,06,58,322,51,14,23,175,43,09,24,118,43,8*6E
$GPGSV,2,2,06,04,17,075,41,11,33,276,46,8*6F
$GLGSV,2,1,07,74,26,224,41,75,32,288,48,69,45,081,53,84,42,027,41,1*7C
$GLGSV,2,2,07,85,30,313,49,68,15,032,41,70,25,162,37,1*42
$GLGSV,2,1,05,75,32,288,48,69,45,081,49,84,42,027,43,85,30,313,45,3*7D
$GLGSV,2,2,05,68,15,032,33,3*44
$GBGSV,5,1,20,01,44,136,44,02,36,231,41,03,51,195,45,07,83,180,46,1*7B
$GBGSV,5,2,20,08,62,231,44,10,76,292,45,12,49,325,46,13,48,228,43,1*7E
$GBGSV,5,3,20,22,53,103,49,24,23,241,43,38,75,241,49,40,74,109,48,1*7C
$GBGSV,5,4,20,59,45,144,46,60,34,236,44,04,33,119,40,19,21,045,43,1*79
$GBGSV,5,5,20,44,63,006,48,25,14,295,40,21,31,174,45,34,25,302,44,1*70
$GBGSV,5,1,20,01,44,136,43,02,36,231,41,03,51,195,46,07,83,180,48,8*78
$GBGSV,5,2,20,08,62,231,47,10,76,292,47,12,49,325,49,13,48,228,45,8*7F
$GBGSV,5,3,20,22,53,103,51,24,23,241,42,38,75,241,50,40,74,109,50,8*7C
$GBGSV,5,4,20,59,45,144,48,60,34,236,45,04,33,119,41,19,21,045,42,8*7F
$GBGSV,5,5,20,44,63,006,51,25,14,295,41,21,31,174,45,34,25,302,43,8*77
$GBGSV,3,1,09,01,44,136,46,02,36,231,46,03,51,195,48,07,83,180,49,B*02
$GBGSV,3,2,09,08,62,231,48,10,76,292,48,12,49,325,51,13,48,228,47,B*03
$GBGSV,3,3,09,04,33,119,43,B*36
$GAGSV,2,1,08,02,20,172,39,15,46,291,49,27,35,303,44,30,55,225,49,1*79
$GAGSV,2,2,08,34,53,023,49,36,12,062,30,05,23,096,41,09,07,046,30,1*70
$GAGSV,2,1,08,02,20,172,40,15,46,291,49,27,35,303,47,30,55,225,51,2*7E
$GAGSV,2,2,08,34,53,023,51,36,12,062,36,05,23,096,43,09,07,046,33,2*7D
$GAGSV,2,1,08,02,20,172,36,15,46,291,46,27,35,303,44,30,55,225,48,7*7E
$GAGSV,2,2,08,34,53,023,46,36,12,062,28,05,23,096,41,09,07,046,32,7*72
$GNGGA,081933.00,3207.95329594,N,11841.73850100,E,1,28,0.7,8.6265,M,1.7756,M,,*4D
$GNRMC,081933.00,A,3207.95329594,N,11841.73850100,E,0.008,159.7,030424,6.1,W,A,C*5D
#HEADINGA,COM3,9984,88.0,FINE,2308,289191.000,4086925,16,18;SOL_COMPUTED,NARROW_INT,1.9929,292.1195,0.0916,0.0000,0.1287,0.2750,"999",52,42,42,36,0,01,3,f3*4fee647f
$GPGSV,3,1,10,03,15,039,26,06,58,322,47,14,23,175,42,09,24,118,37,1*67
$GPGSV,3,2,10,17,59,089,46,19,70,021,48,22,44,191,46,04,17,075,30,1*65
$GPGSV,3,3,10,11,33,276,44,20,22,220,32,1*65
$GPGSV,3,1,09,03,15,039,32,06,58,322,48,14,23,175,40,09,24,118,40,4*62
$GPGSV,3,2,09,17,59,089,45,19,70,021,45,22,44,191,43,04,17,075,37,4*64
$GPGSV,3,3,09,11,33,276,44,4*5B
$GPGSV,2,1,06,03,15,039,33,06,58,322,51,14,23,175,43,09,24,118,43,8*69
$GPGSV,2,2,06,04,17,075,41,11,33,276,46,8*6F
$GLGSV,2,1,07,74,26,224,41,75,32,288,49,69,45,081,53,84,42,027,41,1*7D
$GLGSV,2,2,07,85,30,313,49,68,15,032,40,70,26,162,37,1*40
$GLGSV,2,1,05,75,32,288,48,69,45,081,49,84,42,027,43,85,30,313,46,3*7E
$GLGSV,2,2,05,68,15,032,34,3*43
$GBGSV,5,1,20,01,44,136,44,02,36,231,40,03,51,195,45,07,83,180,46,1*7A
$GBGSV,5,2,20,08,62,231,43,10,76,292,45,12,49,325,45,13,48,228,44,1*7D
$GBGSV,5,3,20,22,53,103,49,24,23,241,43,38,75,241,49,40,74,109,48,1*7C
$GBGSV,5,4,20,59,45,144,46,60,34,236,44,04,33,119,40,19,21,045,43,1*79
$GBGSV,5,5,20,44,63,006,48,25,14,295,40,21,31,174,45,34,25,302,44,1*70
$GBGSV,5,1,20,01,44,136,43,02,36,231,41,03,51,195,46,07,83,180,48,8*78
$GBGSV,5,2,20,08,62,231,47,10,76,292,47,12,49,325,49,13,48,228,45,8*7F
$GBGSV,5,3,20,22,53,103,51,24,23,241,42,38,75,241,50,40,74,109,50,8*7C
$GBGSV,5,4,20,59,45,144,48,60,34,236,45,04,33,119,41,19,21,045,42,8*7F
$GBGSV,5,5,20,44,63,006,51,25,14,295,41,21,31,174,45,34,25,302,43,8*77
$GBGSV,3,1,09,01,44,136,45,02,36,231,46,03,51,195,48,07,83,180,49,B*01
$GBGSV,3,2,09,08,62,231,48,10,76,292,48,12,49,325,50,13,48,228,46,B*03
$GBGSV,3,3,09,04,33,119,43,B*36
$GAGSV,2,1,08,02,20,172,39,15,46,291,49,27,35,303,44,30,55,225,49,1*79
$GAGSV,2,2,08,34,53,023,49,36,12,062,30,05,23,096,41,09,07,046,30,1*70
$GAGSV,2,1,08,02,20,172,40,15,46,291,49,27,35,303,47,30,55,225,50,2*7F
$GAGSV,2,2,08,34,53,023,51,36,12,062,36,05,23,096,43,09,07,046,33,2*7D
$GAGSV,2,1,08,02,20,172,36,15,46,291,46,27,35,303,44,30,55,225,47,7*71
$GAGSV,2,2,08,34,53,023,46,36,12,062,28,05,23,096,41,09,07,046,32,7*72
$GNGGA,081934.00,3207.95329610,N,11841.73850255,E,1,28,0.7,8.6232,M,1.7756,M,,*44
$GNRMC,081934.00,A,3207.95329610,N,11841.73850255,E,0.008,166.4,030424,6.1,W,A,C*59
#HEADINGA,COM3,9984,90.0,FINE,2308,289192.000,4087923,16,18;SOL_COMPUTED,NARROW_INT,1.9929,291.8666,0.0913,0.0000,0.1287,0.2736,"999",52,43,43,36,0,01,3,f3*a969df6b
$GPGSV,3,1,10,03,15,039,26,06,58,322,47,14,23,175,42,09,24,118,37,1*67
$GPGSV,3,2,10,17,59,089,46,19,70,021,48,22,44,191,46,04,17,075,29,1*6D
$GPGSV,3,3,10,11,33,276,44,20,22,220,32,1*65
$GPGSV,3,1,09,03,15,039,31,06,58,322,48,14,23,175,40,09,24,118,40,4*61
$GPGSV,3,2,09,17,59,089,45,19,70,021,46,22,44,191,43,04,17,075,38,4*68
$GPGSV,3,3,09,11,33,276,44,4*5B
$GPGSV,2,1,06,03,15,039,33,06,58,322,51,14,23,175,43,09,24,118,43,8*69
$GPGSV,2,2,06,04,17,075,41,11,33,276,46,8*6F
$GLGSV,2,1,07,74,26,224,41,75,32,288,49,69,45,081,53,84,42,027,40,1*7C
$GLGSV,2,2,07,85,30,313,48,68,15,032,41,70,26,162,37,1*40
$GLGSV,2,1,05,75,32,288,48,69,45,081,49,84,42,027,43,85,30,313,46,3*7E
$GLGSV,2,2,05,68,15,032,36,3*41
$GBGSV,5,1,20,01,44,136,44,02,36,231,40,03,51,195,45,07,83,180,46,1*7A
$GBGSV,5,2,20,08,62,231,43,10,76,292,45,12,49,325,45,13,48,228,44,1*7D
$GBGSV,5,3,20,22,53,103,50,24,23,241,42,38,75,241,49,40,74,109,48,1*75
$GBGSV,5,4,20,59,45,144,46,60,34,236,44,04,33,119,40,19,21,045,43,1*79
$GBGSV,5,5,20,44,63,006,49,25,14,295,40,21,31,174,45,34,25,302,45,1*70
$GBGSV,5,1,20,01,44,136,43,02,36,231,41,03,51,195,45,07,83,180,47,8*74
$GBGSV,5,2,20,08,62,231,47,10,76,292,47,12,49,325,49,13,48,228,45,8*7F
$GBGSV,5,3,20,22,53,103,50,24,23,241,42,38,75,241,50,40,74,109,50,8*7D
$GBGSV,5,4,20,59,45,144,48,60,34,236,45,04,33,119,42,19,21,045,42,8*7C
$GBGSV,5,5,20,44,63,006,51,25,14,295,41,21,31,174,45,34,25,302,43,8*77
$GBGSV,3,1,09,01,44,136,45,02,36,231,46,03,51,195,47,07,83,180,48,B*0F
$GBGSV,3,2,09,08,62,231,48,10,76,292,48,12,49,325,50,13,48,228,46,B*03
$GBGSV,3,3,09,04,33,119,43,B*36
$GAGSV,2,1,08,02,20,172,39,15,46,292,49,27,35,303,44,30,55,225,49,1*7A
$GAGSV,2,2,08,34,53,023,49,36,12,062,31,05,23,096,40,09,07,046,29,1*78
$GAGSV,2,1,08,02,20,172,40,15,46,292,49,27,35,303,47,30,55,225,50,2*7C
$GAGSV,2,2,08,34,53,023,50,36,12,062,36,05,23,096,43,09,07,046,32,2*7D
$GAGSV,2,1,08,02,20,172,36,15,46,292,46,27,35,303,44,30,55,225,47,7*72
$GAGSV,2,2,08,34,53,023,45,36,12,062,27,05,23,096,40,09,07,046,31,7*7C
$GNGGA,081935.00,3207.95329630,N,11841.73850407,E,1,28,0.7,8.6196,M,1.7756,M,,*4B
$GNRMC,081935.00,A,3207.95329630,N,11841.73850407,E,0.008,165.4,030424,6.1,W,A,C*58
#HEADINGA,COM3,9984,90.0,FINE,2308,289193.000,4088923,16,18;SOL_COMPUTED,NARROW_INT,1.9929,291.6140,0.0910,0.0000,0.1286,0.2723,"999",52,43,43,36,0,01,3,f3*abafe7d2
$GPGSV,3,1,10,03,15,039,26,06,58,322,48,14,23,175,42,09,24,118,38,1*67
$GPGSV,3,2,10,17,59,089,46,19,70,021,48,22,44,191,46,04,17,075,31,1*64
$GPGSV,3,3,10,11,33,276,44,20,22,220,33,1*64
$GPGSV,3,1,09,03,15,039,31,06,58,322,48,14,23,175,40,09,24,118,39,4*6F
$GPGSV,3,2,09,17,59,089,45,19,70,021,46,22,44,191,43,04,17,075,38,4*68
$GPGSV,3,3,09,11,33,276,44,4*5B
$GPGSV,2,1,06,03,15,039,33,06,58,322,51,14,23,175,43,09,24,118,44,8*6E
$GPGSV,2,2,06,04,17,075,41,11,33,276,46,8*6F
$GLGSV,2,1,07,74,26,224,41,75,32,288,49,69,45,081,52,84,42,027,40,1*7D
$GLGSV,2,2,07,85,30,313,49,68,15,032,40,70,26,162,37,1*40
$GLGSV,2,1,05,75,32,288,48,69,45,081,50,84,42,027,43,85,30,313,46,3*76
$GLGSV,2,2,05,68,15,032,34,3*43
$GBGSV,5,1,20,01,44,136,44,02,36,231,40,03,51,195,45,07,83,180,46,1*7A
$GBGSV,5,2,20,08,62,231,43,10,76,292,45,12,49,325,45,13,48,228,43,1*7A
$GBGSV,5,3,20,22,53,103,50,24,23,241,42,38,75,241,49,40,74,109,48,1*75
$GBGSV,5,4,20,59,45,144,46,60,34,236,44,04,33,119,40,19,21,045,43,1*79
$GBGSV,5,5,20,44,63,006,49,25,14,295,40,21,31,174,44,34,25,302,45,1*71
$GBGSV,5,1,20,01,44,136,43,02,36,231,41,03,51,195,46,07,83,180,48,8*78
$GBGSV,5,2,20,08,62,231,47,10,76,292,47,12,49,325,49,13,48,228,45,8*7F
$GBGSV,5,3,20,22,53,103,51,24,23,241,42,38,75,241,50,40,74,109,50,8*7C
$GBGSV,5,4,20,59,45,144,48,60,34,236,45,04,33,119,42,19,21,045,43,8*7D
$GBGSV,5,5,20,44,63,006,51,25,14,295,41,21,31,174,45,34,25,302,43,8*77
$GBGSV,3,1,09,01,44,136,45,02,36,231,46,03,51,195,47,07,83,180,48,B*0F
$GBGSV,3,2,09,08,62,231,48,10,76,292,48,12,49,325,51,13,48,228,46,B*02
$GBGSV,3,3,09,04,33,119,43,B*36
$GAGSV,2,1,08,02,20,172,39,15,46,292,49,27,35,303,44,30,55,225,49,1*7A
$GAGSV,2,2,08,34,53,023,49,36,12,062,31,05,23,096,40,09,07,046,29,1*78
$GAGSV,2,1,08,02,20,172,40,15,46,292,49,27,35,303,47,30,55,225,50,2*7C
$GAGSV,2,2,08,34,53,023,50,36,12,062,36,05,23,096,43,09,07,046,32,2*7D
$GAGSV,2,1,08,02,20,172,36,15,46,292,46,27,35,303,44,30,55,225,47,7*72
$GAGSV,2,2,08,34,53,023,46,36,12,062,26,05,23,096,40,09,07,046,32,7*7D
$GNGGA,081936.00,3207.95329640,N,11841.73850534,E,1,28,0.7,8.6163,M,1.7756,M,,*44
$GNRMC,081936.00,A,3207.95329640,N,11841.73850534,E,0.009,176.7,030424,6.1,W,A,C*5D
#HEADINGA,COM3,9984,91.0,FINE,2308,289194.000,4089924,16,18;SOL_COMPUTED,NARROW_INT,1.9930,291.3617,0.0907,0.0000,0.1285,0.2713,"999",52,43,43,36,0,01,3,f3*4c749fc5
$GPGSV,3,1,10,03,15,039,27,06,58,322,48,14,23,175,42,09,24,118,37,1*69
$GPGSV,3,2,10,17,59,089,46,19,70,021,48,22,44,191,46,04,17,075,32,1*67
$GPGSV,3,3,10,11,33,276,44,20,22,220,32,1*65
$GPGSV,3,1,09,03,15,039,30,06,58,322,47,14,23,175,41,09,24,118,39,4*60
$GPGSV,3,2,09,17,59,089,45,19,70,021,46,22,44,191,42,04,17,075,38,4*69
$GPGSV,3,3,09,11,33,276,44,4*5B
$GPGSV,2,1,06,03,15,039,33,06,58,322,51,14,23,175,43,09,24,118,44,8*6E
$GPGSV,2,2,06,04,17,075,41,11,33,276,46,8*6F
$GLGSV,2,1,07,74,26,224,41,75,32,288,49,69,45,081,52,84,42,027,40,1*7D
$GLGSV,2,2,07,85,30,313,49,68,15,032,41,70,26,162,37,1*41
$GLGSV,2,1,05,75,32,288,48,69,45,081,50,84,42,027,43,85,30,313,46,3*76
$GLGSV,2,2,05,68,15,032,33,3*44
$GBGSV,5,1,20,01,44,136,44,02,36,231,40,03,51,195,45,07,83,180,46,1*7A
$GBGSV,5,2,20,08,62,231,43,10,76,292,45,12,49,325,45,13,48,228,43,1*7A
$GBGSV,5,3,20,22,53,103,49,24,23,241,42,38,75,241,49,40,74,109,48,1*7D
$GBGSV,5,4,20,59,45,144,46,60,34,236,44,04,33,119,40,19,21,045,43,1*79
$GBGSV,5,5,20,44,63,006,49,25,14,295,41,21,31,174,45,34,25,302,45,1*71
$GBGSV,5,1,20,01,44,136,43,02,36,231,41,03,51,195,45,07,83,180,48,8*7B
$GBGSV,5,2,20,08,62,231,47,10,76,292,47,12,49,325,49,13,48,228,45,8*7F
$GBGSV,5,3,20,22,53,103,50,24,23,241,42,38,75,241,50,40,74,109,50,8*7D
$GBGSV,5,4,20,59,45,144,48,60,34,236,45,04,33,119,41,19,21,045,43,8*7E
$GBGSV,5,5,20,44,63,006,51,25,14,295,41,21,31,174,45,34,25,302,43,8*77
$GBGSV,3,1,09,01,44,136,45,02,36,231,46,03,51,195,47,07,83,180,48,B*0F
$GBGSV,3,2,09,08,62,231,48,10,76,292,48,12,49,325,50,13,48,228,46,B*03
$GBGSV,3,3,09,04,33,119,43,B*36
$GAGSV,2,1,08,02,20,172,39,15,46,292,49,27,35,303,44,30,55,225,49,1*7A
$GAGSV,2,2,08,34,53,023,49,36,12,062,31,05,23,096,40,09,07,046,29,1*78
$GAGSV,2,1,08,02,20,172,40,15,46,292,49,27,35,303,47,30,55,225,50,2*7C
$GAGSV,2,2,08,34,53,023,50,36,12,062,36,05,23,096,43,09,07,046,32,2*7D
$GAGSV,2,1,08,02,20,172,36,15,46,292,47,27,35,303,44,30,55,225,47,7*73
$GAGSV,2,2,08,34,53,023,46,36,12,062,25,05,23,096,40,09,07,046,30,7*7C
$GNGGA,081937.00,3207.95329644,N,11841.73850665,E,1,28,0.7,8.6128,M,1.7756,M,,*49
$GNRMC,081937.00,A,3207.95329644,N,11841.73850665,E,0.009,174.4,030424,6.1,W,A,C*5E
#HEADINGA,COM3,9984,91.0,FINE,2308,289195.000,4090923,16,18;SOL_COMPUTED,NARROW_INT,1.9930,291.1095,0.0904,0.0000,0.1284,0.2708,"999",52,43,43,36,0,01,3,f3*2d9a6630
$GPGSV,3,1,10,03,15,039,27,06,58,322,48,14,23,175,41,09,24,118,36,1*6B
$GPGSV,3,2,10,17,59,089,46,19,70,021,48,22,44,191,47,04,17,075,32,1*66
$GPGSV,3,3,10,11,33,276,44,20,22,220,32,1*65
$GPGSV,3,1,09,03,15,039,31,06,58,322,47,14,23,175,41,09,24,118,38,4*60
$GPGSV,3,2,09,17,59,089,45,19,70,021,46,22,44,191,42,04,17,075,37,4*66
$GPGSV,3,3,09,11,33,276,44,4*5B
$GPGSV,2,1,06,03,15,039,33,06,58,322,51,14,23,175,43,09,24,118,44,8*6E
$GPGSV,2,2,06,04,17,075,40,11,33,276,46,8*6E
$GLGSV,2,1,07,74,26,224,40,75,32,288,49,69,45,081,53,84,42,027,40,1*7D
$GLGSV,2,2,07,85,30,313,48,68,15,032,41,70,26,162,36,1*41
$GLGSV,2,1,05,75,32,288,48,69,45,081,50,84,42,027,43,85,30,313,46,3*76
$GLGSV,2,2,05,68,15,032,33,3*44
$GBGSV,5,1,20,01,44,136,44,02,36,231,40,03,51,195,44,07,83,180,46,1*7B
$GBGSV,5,2,20,08,62,231,43,10,76,292,45,12,49,325,46,13,48,228,43,1*79
$GBGSV,5,3,20,22,53,103,49,24,23,241,42,38,75,241,49,40,74,109,48,1*7D
$GBGSV,5,4,20,59,45,144,46,60,34,236,44,04,33,119,40,19,21,045,44,1*7E
$GBGSV,5,5,20,44,63,006,48,25,14,295,40,21,31,174,44,34,25,302,45,1*70
$GBGSV,5,1,20,01,44,136,43,02,36,231,41,03,51,195,45,07,83,180,48,8*7B
$GBGSV,5,2,20,08,62,231,47,10,76,292,47,12,49,325,49,13,48,228,45,8*7F
$GBGSV,5,3,20,22,53,103,50,24,23,241,42,38,75,241,50,40,74,109,50,8*7D
$GBGSV,5,4,20,59,45,144,48,60,34,236,45,04,33,119,41,19,21,045,42,8*7F
$GBGSV,5,5,20,44,63,006,51,25,14,295,41,21,31,174,45,34,25,302,43,8*77
$GBGSV,3,1,09,01,44,136,45,02,36,231,46,03,51,195,47,07,83,180,48,B*0F
$GBGSV,3,2,09,08,62,231,48,10,76,292,48,12,49,325,50,13,48,228,46,B*03
$GBGSV,3,3,09,04,33,119,43,B*36
$GAGSV,2,1,08,02,20,172,38,15,46,292,49,27,35,303,44,30,55,225,49,1*7B
$GAGSV,2,2,08,34,53,023,49,36,12,062,31,05,23,096,40,09,07,046,29,1*78
$GAGSV,2,1,08,02,20,172,40,15,46,292,49,27,35,303,47,30,55,225,50,2*7C
$GAGSV,2,2,08,34,53,023,50,36,12,062,36,05,23,096,42,09,07,046,31,2*7F
$GAGSV,2,1,08,02,20,172,36,15,46,292,47,27,35,303,44,30,55,225,47,7*73
$GAGSV,2,2,08,34,53,023,46,36,12,062,25,05,23,096,40,09,07,046,31,7*7D
$GNGGA,081938.00,3207.95329639,N,11841.73850786,E,1,28,0.7,8.6094,M,1.7756,M,,*46
$GNRMC,081938.00,A,3207.95329639,N,11841.73850786,E,0.009,177.5,030424,6.1,W,A,C*55
#HEADINGA,COM3,9984,91.0,FINE,2308,289196.000,4091924,16,18;SOL_COMPUTED,NARROW_INT,1.9930,290.8577,0.0901,0.0000,0.1283,0.2699,"999",52,43,43,36,0,01,3,f3*8ac44140
$GPGSV,3,1,10,03,15,039,25,06,58,322,48,14,23,175,42,09,24,118,36,1*6A
$GPGSV,3,2,10,17,59,089,46,19,70,021,48,22,44,191,47,04,17,075,32,1*66
$GPGSV,3,3,10,11,33,276,44,20,22,220,34,1*63
$GPGSV,3,1,09,03,15,039,32,06,58,322,47,14,23,175,41,09,24,118,38,4*63
$GPGSV,3,2,09,17,59,089,45,19,70,021,46,22,44,191,42,04,17,075,37,4*66
$GPGSV,3,3,09,11,33,276,44,4*5B
$GPGSV,2,1,06,03,15,039,33,06,58,322,51,14,23,175,43,09,24,118,44,8*6E
$GPGSV,2,2,06,04,17,075,40,11,33,276,46,8*6E
$GLGSV,2,1,07,74,26,224,40,75,32,288,49,69,45,081,53,84,42,027,40,1*7D
$GLGSV,2,2,07,85,30,313,49,68,15,032,41,70,26,162,37,1*41
$GLGSV,2,1,05,75,32,288,48,69,45,081,50,84,42,027,43,85,30,313,45,3*75
$GLGSV,2,2,05,68,15,032,35,3*42
$GBGSV,5,1,20,01,44,136,44,02,36,231,40,03,51,195,44,07,83,180,46,1*7B
$GBGSV,5,2,20,08,62,231,43,10,76,292,45,12,49,325,46,13,48,228,43,1*79
$GBGSV,5,3,20,22,53,103,49,24,23,241,42,38,75,241,49,40,74,109,48,1*7D
$GBGSV,5,4,20,59,45,144,46,60,34,236,44,04,33,119,40,19,21,045,44,1*7E
$GBGSV,5,5,20,44,63,006,48,25,14,295,40,21,31,174,44,34,25,302,45,1*70
$GBGSV,5,1,20,01,44,136,43,02,36,231,41,03,51,195,46,07,83,180,48,8*78
$GBGSV,5,2,20,08,62,231,47,10,76,292,47,12,49,325,49,13,48,228,45,8*7F
$GBGSV,5,3,20,22,53,103,51,24,23,241,42,38,75,241,50,40,74,109,50,8*7C
$GBGSV,5,4,20,59,45,144,48,60,34,236,45,04,33,119,41,19,21,045,42,8*7F
$GBGSV,5,5,20,44,63,006,51,25,14,295,41,21,31,174,45,34,25,302,43,8*77
$GBGSV,3,1,09,01,44,136,46,02,36,231,46,03,51,195,47,07,83,180,48,B*0C
$GBGSV,3,2,09,08,62,231,47,10,76,292,48,12,49,325,51,13,48,228,46,B*0D
$GBGSV,3,3,09,04,33,119,44,B*31
$GAGSV,2,1,08,02,20,172,39,15,46,292,49,27,35,303,44,30,55,225,49,1*7A
$GAGSV,2,2,08,34,53,023,49,36,12,062,31,05,23,096,40,09,07,046,29,1*78
$GAGSV,2,1,08,02,20,172,41,15,46,292,49,27,35,303,47,30,55,225,50,2*7D
$GAGSV,2,2,08,34,53,023,51,36,12,062,36,05,23,096,43,09,07,046,32,2*7C
$GAGSV,2,1,08,02,20,172,36,15,46,292,47,27,35,303,45,30,55,225,47,7*72
$GAGSV,2,2,08,34,53,023,45,36,12,062,26,05,23,096,40,09,07,046,32,7*7E
$GNGGA,081939.00,3207.95329614,N,11841.73850921,E,1,28,0.7,8.6052,M,1.7756,M,,*41
$GNRMC,081939.00,A,3207.95329614,N,11841.73850921,E,0.011,173.5,030424,6.1,W,A,C*55
#HEADINGA,COM3,9984,91.0,FINE,2308,289197.000,4092924,16,18;SOL_COMPUTED,NARROW_INT,1.9930,290.6060,0.0898,0.0000,0.1281,0.2692,"999",52,43,43,36,0,01,3,f3*bda947ee
$GPGSV,3,1,10,03,15,039,24,06,58,322,48,14,23,175,41,09,24,118,35,1*6B
$GPGSV,3,2,10,17,59,089,46,19,70,021,48,22,44,191,46,04,17,075,32,1*67
$GPGSV,3,3,10,11,33,276,44,20,22,220,33,1*64
$GPGSV,3,1,09,03,15,039,32,06,58,322,47,14,23,175,41,09,24,118,38,4*63
$GPGSV,3,2,09,17,59,089,45,19,70,021,46,22,44,191,42,04,17,075,38,4*69
$GPGSV,3,3,09,11,33,276,44,4*5B
$GPGSV,2,1,06,03,15,039,33,06,58,322,51,14,23,175,43,09,24,118,44,8*6E
$GPGSV,2,2,06,04,17,075,40,11,33,276,46,8*6E
$GLGSV,2,1,07,74,26,224,39,75,32,288,50,69,45,081,53,84,42,027,40,1*7B
$GLGSV,2,2,07,85,30,313,49,68,15,032,42,70,26,162,36,1*43
$GLGSV,2,1,05,75,32,288,48,69,45,081,50,84,42,027,43,85,30,313,46,3*76
$GLGSV,2,2,05,68,15,032,35,3*42
$GBGSV,5,1,20,01,44,136,44,02,36,231,40,03,51,195,44,07,83,180,46,1*7B
$GBGSV,5,2,20,08,62,231,43,10,76,292,45,12,49,325,46,13,48,228,43,1*79
$GBGSV,5,3,20,22,53,103,49,24,23,241,42,38,75,241,49,40,74,109,48,1*7D
$GBGSV,5,4,20,59,45,144,46,60,34,236,44,04,33,119,40,19,21,045,43,1*79
$GBGSV,5,5,20,44,63,006,48,25,14,295,40,21,31,174,44,34,25,302,45,1*70
$GBGSV,5,1,20,01,44,136,43,02,36,231,41,03,51,195,46,07,83,180,48,8*78
$GBGSV,5,2,20,08,62,231,47,10,76,292,47,12,49,325,50,13,48,228,45,8*77
$GBGSV,5,3,20,22,53,103,51,24,23,241,42,38,75,241,50,40,74,109,50,8*7C
$GBGSV,5,4,20,59,45,144,48,60,34,236,45,04,33,119,41,19,21,045,43,8*7E
$GBGSV,5,5,20,44,63,006,51,25,14,295,41,21,31,174,45,34,25,302,44,8*70
$GBGSV,3,1,09,01,44,136,46,02,36,231,46,03,51,195,47,07,83,180,48,B*0C
$GBGSV,3,2,09,08,62,231,48,10,76,292,48,12,49,325,51,13,48,228,46,B*02
$GBGSV,3,3,09,04,33,119,44,B*31
$GAGSV,2,1,08,02,20,172,39,15,46,292,49,27,35,303,44,30,55,225,49,1*7A
$GAGSV,2,2,08,34,53,023,49,36,12,062,31,05,23,096,40,09,07,046,29,1*78
$GAGSV,2,1,08,02,20,172,41,15,46,292,49,27,35,303,47,30,55,225,51,2*7C
$GAGSV,2,2,08,34,53,023,51,36,12,062,36,05,23,096,43,09,07,046,33,2*7D
$GAGSV,2,1,08,02,20,172,35,15,46,292,47,27,35,303,44,30,55,225,47,7*70
$GAGSV,2,2,08,34,53,023,45,36,12,062,27,05,23,096,40,09,07,046,32,7*7F
$GNGGA,081940.00,3207.95329586,N,11841.73851052,E,1,28,0.7,8.6007,M,1.7756,M,,*4B
$GNRMC,081940.00,A,3207.95329586,N,11841.73851052,E,0.010,174.6,030424,6.1,W,A,C*5A
#HEADINGA,COM3,9984,91.0,FINE,2308,289198.000,4093924,16,18;SOL_COMPUTED,NARROW_INT,1.9930,290.3547,0.0895,0.0000,0.1282,0.2691,"999",52,43,43,36,0,01,3,f3*f6afc339
$GPGSV,3,1,10,03,15,039,23,06,58,322,48,14,23,175,42,09,24,118,36,1*6C
$GPGSV,3,2,10,17,59,089,46,19,70,021,48,22,44,191,47,04,17,075,31,1*65
$GPGSV,3,3,10,11,33,276,44,20,22,220,33,1*64
$GPGSV,3,1,09,03,15,039,31,06,58,322,47,14,23,175,41,09,24,118,38,4*60
$GPGSV,3,2,09,17,59,089,45,19,70,021,46,22,44,191,42,04,17,075,38,4*69
$GPGSV,3,3,09,11,33,276,44,4*5B
$GPGSV,2,1,06,03,15,039,33,06,58,322,51,14,23,175,43,09,24,118,44,8*6E
$GPGSV,2,2,06,04,17,075,41,11,33,276,46,8*6F
$GLGSV,2,1,07,74,26,224,38,75,32,288,50,69,45,081,53,84,42,027,40,1*7A
$GLGSV,2,2,07,85,30,313,48,68,15,032,42,70,26,162,35,1*41
$GLGSV,2,1,05,75,32,288,48,69,45,081,50,84,42,027,43,85,30,313,46,3*76
$GLGSV,2,2,05,68,15,032,36,3*41
$GBGSV,5,1,20,01,44,136,44,02,36,231,40,03,51,195,44,07,83,180,46,1*7B
$GBGSV,5,2,20,08,62,231,43,10,76,292,45,12,49,325,46,13,48,228,43,1*79
$GBGSV,5,3,20,22,53,103,49,24,23,241,42,38,75,241,49,40,74,109,48,1*7D
$GBGSV,5,4,20,59,45,144,46,60,34,236,44,04,33,119,40,19,21,045,44,1*7E
$GBGSV,5,5,20,44,63,006,49,25,14,295,40,21,31,174,44,34,25,302,45,1*71
$GBGSV,5,1,20,01,44,136,43,02,36,231,41,03,51,195,46,07,83,180,48,8*78
$GBGSV,5,2,20,08,62,231,47,10,76,292,47,12,49,325,50,13,48,228,45,8*77
$GBGSV,5,3,20,22,53,103,51,24,23,241,42,38,75,241,50,40,74,109,50,8*7C
$GBGSV,5,4,20,59,45,144,48,60,34,236,46,04,33,119,41,19,21,045,42,8*7C
$GBGSV,5,5,20,44,63,006,51,25,14,295,41,21,31,174,45,34,25,302,44,8*70
$GBGSV,3,1,09,01,44,136,46,02,36,231,46,03,51,195,47,07,83,180,48,B*0C
$GBGSV,3,2,09,08,62,231,48,10,76,292,48,12,49,325,51,13,48,228,46,B*02
$GBGSV,3,3,09,04,33,119,43,B*36
$GAGSV,2,1,08,02,20,172,39,15,46,292,48,27,35,303,44,30,55,225,48,1*7A
$GAGSV,2,2,08,34,53,023,49,36,12,062,31,05,23,096,40,09,07,046,29,1*78
$GAGSV,2,1,08,02,20,172,41,15,46,292,49,27,35,303,47,30,55,225,51,2*7C
$GAGSV,2,2,08,34,53,023,51,36,12,062,36,05,23,096,43,09,07,046,33,2*7D
$GAGSV,2,1,08,02,20,172,36,15,46,292,47,27,35,303,44,30,55,225,47,7*73
$GAGSV,2,2,08,34,53,023,45,36,12,062,27,05,23,096,41,09,07,046,32,7*7E
$GNGGA,081941.00,3207.95329553,N,11841.73851180,E,1,28,0.7,8.5959,M,1.7756,M,,*4D
$GNRMC,081941.00,A,3207.95329553,N,11841.73851180,E,0.010,175.7,030424,6.1,W,A,C*5D
#HEADINGA,COM3,9984,91.0,FINE,2308,289199.000,4094924,16,18;SOL_COMPUTED,NARROW_INT,1.9930,290.1036,0.0893,0.0000,0.1282,0.2688,"999",52,43,43,36,0,01,3,f3*0c6eb3a9
$GPGSV,3,1,10,03,15,039,22,06,58,322,48,14,23,175,42,09,24,118,36,1*6D
$GPGSV,3,2,10,17,59,089,46,19,70,021,48,22,44,191,47,04,17,075,32,1*66
$GPGSV,3,3,10,11,33,276,44,20,22,220,33,1*64
$GPGSV,3,1,09,03,15,039,31,06,58,322,47,14,23,175,41,09,24,118,38,4*60
$GPGSV,3,2,09,17,59,089,45,19,70,021,46,22,44,191,42,04,17,075,38,4*69
$GPGSV,3,3,09,11,33,276,44,4*5B
$GPGSV,2,1,06,03,15,039,33,06,58,322,51,14,23,175,43,09,24,118,44,8*6E
$GPGSV,2,2,06,04,17,075,41,11,33,276,46,8*6F
$GLGSV,2,1,07,74,26,224,39,75,32,288,50,69,45,081,53,84,42,027,40,1*7B
$GLGSV,2,2,07,85,30,313,49,68,15,032,41,70,26,162,35,1*43
$GLGSV,2,1,05,75,32,288,47,69,45,081,50,84,42,027,43,85,30,313,46,3*79
$GLGSV,2,2,05,68,15,032,35,3*42
$GBGSV,5,1,20,01,44,136,44,02,36,231,40,03,51,195,44,07,83,180,46,1*7B
$GBGSV,5,2,20,08,62,231,43,10,76,292,45,12,49,325,46,13,48,228,43,1*79
$GBGSV,5,3,20,22,53,103,49,24,23,241,42,38,75,241,49,40,74,109,48,1*7D
$GBGSV,5,4,20,59,45,144,45,60,34,236,43,04,33,119,40,19,21,045,43,1*7D
$GBGSV,5,5,20,44,63,006,48,25,14,295,39,21,31,174,44,34,25,302,45,1*7E
$GBGSV,5,1,20,01,44,136,43,02,36,231,41,03,51,195,46,07,83,180,48,8*78
$GBGSV,5,2,20,08,62,231,47,10,76,292,47,12,49,325,50,13,48,228,45,8*77
$GBGSV,5,3,20,22,53,103,51,24,23,241,42,38,75,241,50,40,74,109,50,8*7C
$GBGSV,5,4,20,59,45,144,48,60,34,236,46,04,33,119,41,19,21,045,42,8*7C
$GBGSV,5,5,20,44,63,006,51,25,14,295,41,21,31,174,45,34,25,302,44,8*70
$GBGSV,3,1,09,01,44,136,45,02,36,231,46,03,51,195,47,07,83,180,48,B*0F
$GBGSV,3,2,09,08,62,231,47,10,76,292,48,12,49,325,50,13,48,228,46,B*0C
$GBGSV,3,3,09,04,33,119,43,B*36
$GAGSV,2,1,08,02,20,172,39,15,46,292,49,27,35,303,44,30,55,225,48,1*7B
$GAGSV,2,2,08,34,53,023,49,36,12,062,31,05,23,096,41,09,07,046,28,1*78
$GAGSV,2,1,08,02,20,172,41,15,46,292,49,27,35,303,47,30,55,225,51,2*7C
$GAGSV,2,2,08,34,53,023,51,36,12,062,35,05,23,096,44,09,07,046,33,2*79
$GAGSV,2,1,08,02,20,172,36,15,46,292,47,27,35,303,44,30,55,225,47,7*73
$GAGSV,2,2,08,34,53,023,45,36,12,062,27,05,23,096,41,09,07,046,33,7*7F
$GNGGA,081942.00,3207.95329525,N,11841.73851324,E,1,28,0.7,8.5910,M,1.7756,M,,*4E
$GNRMC,081942.00,A,3207.95329525,N,11841.73851324,E,0.010,167.9,030424,6.1,W,A,C*5E
#HEADINGA,COM3,9984,91.0,FINE,2308,289200.000,4095923,17,18;SOL_COMPUTED,NARROW_INT,1.9930,289.8527,0.0890,0.0000,0.1281,0.2683,"999",52,43,43,36,0,01,3,f3*218a8745
$GPGSV,3,1,10,03,15,039,21,06,58,322,48,14,23,175,42,09,24,118,37,1*6F
$GPGSV,3,2,10,17,59,089,46,19,70,021,49,22,44,191,47,04,17,075,32,1*67
$GPGSV,3,3,10,11,33,276,44,20,22,220,32,1*65
$GPGSV,3,1,09,03,15,039,30,06,58,322,47,14,23,175,41,09,24,118,38,4*61
$GPGSV,3,2,09,17,59,089,45,19,70,021,46,22,44,191,42,04,17,075,38,4*69
$GPGSV,3,3,09,11,33,276,44,4*5B
$GPGSV,2,1,06,03,15,039,33,06,58,322,51,14,23,175,43,09,24,118,43,8*69
$GPGSV,2,2,06,04,17,075,41,11,33,276,46,8*6F
$GLGSV,2,1,07,74,26,224,39,75,32,288,49,69,45,081,52,84,42,027,41,1*73
$GLGSV,2,2,07,85,30,313,49,68,15,032,42,70,26,162,35,1*40
$GLGSV,2,1,05,75,32,288,47,69,45,081,50,84,42,027,43,85,30,313,46,3*79
$GLGSV,2,2,05,68,15,032,34,3*43
$GBGSV,5,1,20,01,44,136,44,02,36,231,40,03,51,195,45,07,83,180,46,1*7A
$GBGSV,5,2,20,08,62,231,43,10,76,292,45,12,49,325,46,13,48,228,43,1*79
$GBGSV,5,3,20,22,53,103,49,24,23,241,43,38,75,241,49,40,74,109,48,1*7C
$GBGSV,5,4,20,59,45,144,46,60,34,236,44,04,33,119,40,19,21,045,43,1*79
$GBGSV,5,5,20,44,63,006,49,25,14,295,39,21,31,174,44,34,25,302,45,1*7F
$GBGSV,5,1,20,01,44,136,43,02,36,231,41,03,51,195,46,07,83,180,48,8*78
$GBGSV,5,2,20,08,62,231,47,10,76,292,47,12,49,325,50,13,48,228,45,8*77
$GBGSV,5,3,20,22,53,103,51,24,23,241,42,38,75,241,50,40,74,109,50,8*7C
$GBGSV,5,4,20,59,45,144,48,60,34,236,46,04,33,119,41,19,21,045,43,8*7D
$GBGSV,5,5,20,44,63,006,51,25,14,295,41,21,31,174,45,34,25,302,44,8*70
$GBGSV,3,1,09,01,44,136,45,02,36,231,46,03,51,195,47,07,83,180,49,B*0E
$GBGSV,3,2,09,08,62,231,47,10,76,292,48,12,49,325,50,13,48,228,46,B*0C
$GBGSV,3,3,09,04,33,119,43,B*36
$GAGSV,2,1,08,02,20,172,39,15,46,292,49,27,35,303,44,30,55,225,49,1*7A
$GAGSV,2,2,08,34,53,023,49,36,12,062,31,05,23,096,41,09,07,046,28,1*78
$GAGSV,2,1,08,02,20,172,41,15,46,292,49,27,35,303,47,30,55,225,51,2*7C
$GAGSV,2,2,08,34,53,023,51,36,12,062,35,05,23,096,44,09,07,046,33,2*79
$GAGSV,2,1,08,02,20,172,37,15,46,292,47,27,35,303,44,30,55,225,47,7*72
$GAGSV,2,2,08,34,53,023,46,36,12,062,26,05,23,096,41,09,07,046,32,7*7C
$GNGGA,081943.00,3207.95329477,N,11841.73851472,E,1,28,0.7,8.5860,M,1.7756,M,,*4B
$GNRMC,081943.00,A,3207.95329477,N,11841.73851472,E,0.011,167.2,030424,6.1,W,A,C*57
#HEADINGA,COM3,9984,91.0,FINE,2308,289201.000,4096925,16,18;SOL_COMPUTED,NARROW_INT,1.9930,289.6021,0.0887,0.0000,0.1281,0.2684,"999",52,43,43,36,0,01,3,f3*d18b9359
$GPGSV,3,1,10,03,15,039,22,06,58,322,48,14,23,175,41,09,24,118,36,1*6E
$GPGSV,3,2,10,17,59,089,46,19,70,021,49,22,44,191,47,04,17,075,30,1*65
$GPGSV,3,3,10,11,33,276,44,20,22,220,33,1*64
$GPGSV,3,1,09,03,15,039,29,06,58,322,47,14,23,175,41,09,24,118,38,4*69
$GPGSV,3,2,09,17,59,089,45,19,70,021,46,22,44,191,42,04,17,075,38,4*69
$GPGSV,3,3,09,11,33,276,44,4*5B
$GPGSV,2,1,06,03,15,039,32,06,58,322,51,14,23,175,43,09,24,118,44,8*6F
$GPGSV,2,2,06,04,17,075,41,11,33,276,46,8*6F
$GLGSV,2,1,07,74,26,224,39,75,32,288,49,69,45,081,52,84,42,027,41,1*73
$GLGSV,2,2,07,85,30,313,49,68,15,032,43,70,26,162,36,1*42
$GLGSV,2,1,05,75,32,288,47,69,45,081,50,84,42,027,43,85,30,313,46,3*79
$GLGSV,2,2,05,68,15,032,34,3*43
$GBGSV,5,1,20,01,44,136,43,02,36,231,40,03,51,195,45,07,83,180,46,1*7D
$GBGSV,5,2,20,08,62,231,43,10,76,292,45,12,49,326,46,13,48,228,43,1*7A
$GBGSV,5,3,20,22,53,103,49,24,23,241,43,38,75,241,49,40,74,109,48,1*7C
$GBGSV,5,4,20,59,45,144,46,60,34,236,44,04,33,119,40,19,21,045,43,1*79
$GBGSV,5,5,20,44,63,006,49,25,14,295,39,21,31,174,44,34,25,302,45,1*7F
$GBGSV,5,1,20,01,44,136,43,02,36,231,41,03,51,195,46,07,83,180,48,8*78
$GBGSV,5,2,20,08,62,231,47,10,76,292,47,12,49,326,50,13,48,228,45,8*74
$GBGSV,5,3,20,22,53,103,51,24,23,241,42,38,75,241,50,40,74,109,50,8*7C
$GBGSV,5,4,20,59,45,144,48,60,34,236,46,04,33,119,41,19,21,045,43,8*7D
$GBGSV,5,5,20,44,63,006,51,25,14,295,41,21,31,174,45,34,25,302,44,8*70
$GBGSV,3,1,09,01,44,136,46,02,36,231,46,03,51,195,47,07,83,180,49,B*0D
$GBGSV,3,2,09,08,62,231,47,10,76,292,48,12,49,326,51,13,48,228,47,B*0F
$GBGSV,3,3,09,04,33,119,43,B*36
$GAGSV,2,1,08,02,20,172,39,15,46,292,49,27,35,303,44,30,55,225,49,1*7A
$GAGSV,2,2,08,34,53,023,49,36,12,062,31,05,23,096,40,09,07,046,28,1*79
$GAGSV,2,1,08,02,20,172,41,15,46,292,50,27,35,303,47,30,55,225,51,2*74
$GAGSV,2,2,08,34,53,023,51,36,12,062,35,05,23,096,44,09,07,046,32,2*78
$GAGSV,2,1,08,02,20,172,36,15,46,292,48,27,35,303,44,30,55,225,47,7*7C
$GAGSV,2,2,08,34,53,023,46,36,12,062,26,05,23,096,41,09,07,046,31,7*7F
$GNGGA,081944.00,3207.95329439,N,11841.73851619,E,1,28,0.7,8.5810,M,1.7756,M,,*4E
$GNRMC,081944.00,A,3207.95329439,N,11841.73851619,E,0.011,166.5,030424,6.1,W,A,C*53
#HEADINGA,COM3,9984,91.0,FINE,2308,289202.000,4097924,16,18;SOL_COMPUTED,NARROW_INT,1.9930,289.3518,0.0884,0.0000,0.1283,0.2683,"999",52,43,43,36,0,01,3,f3*7acf40ce
$GPGSV,3,1,10,03,15,039,23,06,58,322,48,14,23,175,41,09,24,118,37,1*6E
$GPGSV,3,2,10,17,59,090,46,19,70,021,48,22,44,191,47,04,17,075,31,1*6D
$GPGSV,3,3,10,11,33,276,44,20,22,220,34,1*63
$GPGSV,3,1,09,03,15,039,30,06,58,322,47,14,23,175,41,09,24,118,38,4*61
$GPGSV,3,2,09,17,59,090,45,19,70,021,46,22,44,191,42,04,17,075,38,4*61
$GPGSV,3,3,09,11,33,276,44,4*5B
$GPGSV,2,1,06,03,15,039,33,06,58,322,51,14,23,175,43,09,24,118,44,8*6E
$GPGSV,2,2,06,04,17,075,41,11,33,276,46,8*6F
$GLGSV,2,1,07,74,26,224,40,75,32,288,49,69,45,081,52,84,42,027,41,1*7D
$GLGSV,2,2,07,85,30,313,49,68,15,032,43,70,26,162,35,1*41
$GLGSV,2,1,05,75,32,288,47,69,45,081,50,84,42,027,43,85,30,313,47,3*78
$GLGSV,2,2,05,68,15,032,35,3*42
$GBGSV,5,1,20,01,44,136,43,02,36,231,40,03,51,195,44,07,83,180,46,1*7C
$GBGSV,5,2,20,08,62,231,43,10,76,292,45,12,49,326,46,13,48,228,43,1*7A
$GBGSV,5,3,20,22,53,103,49,24,23,241,43,38,75,241,48,40,74,109,48,1*7D
$GBGSV,5,4,20,59,45,144,46,60,34,236,44,04,33,119,40,19,21,045,44,1*7E
$GBGSV,5,5,20,44,63,006,49,25,14,295,39,21,31,174,44,34,25,302,45,1*7F
$GBGSV,5,1,20,01,44,136,43,02,36,231,41,03,51,195,46,07,83,180,48,8*78
$GBGSV,5,2,20,08,62,231,47,10,76,292,47,12,49,326,50,13,48,228,45,8*74
$GBGSV,5,3,20,22,53,103,51,24,23,241,42,38,75,241,50,40,74,109,50,8*7C
$GBGSV,5,4,20,59,45,144,48,60,34,236,45,04,33,119,41,19,21,045,43,8*7E
$GBGSV,5,5,20,44,63,006,51,25,14,295,40,21,31,174,45,34,25,302,44,8*71
$GBGSV,3,1,09,01,44,136,46,02,36,231,46,03,51,195,48,07,83,180,49,B*02
$GBGSV,3,2,09,08,62,231,48,10,76,292,48,12,49,326,51,13,48,228,47,B*00
$GBGSV,3,3,09,04,33,119,43,B*36
$GAGSV,2,1,08,02,20,172,39,15,46,292,49,27,35,303,44,30,55,225,48,1*7B
$GAGSV,2,2,08,34,53,023,49,36,12,062,31,05,23,096,40,09,07,046,28,1*79
$GAGSV,2,1,08,02,20,172,41,15,46,292,49,27,35,303,47,30,55,225,51,2*7C
$GAGSV,2,2,08,34,53,023,51,36,12,062,35,05,23,096,44,09,07,046,32,2*78
$GAGSV,2,1,08,02,20,172,37,15,46,292,48,27,35,303,44,30,55,225,47,7*7D
$GAGSV,2,2,08,34,53,023,46,36,12,062,22,05,23,096,42,09,07,046,32,7*7B
$GNGGA,081945.00,3207.95329397,N,11841.73851766,E,1,28,0.7,8.5761,M,1.7756,M,,*4C
$GNRMC,081945.00,A,3207.95329397,N,11841.73851766,E,0.011,165.4,030424,6.1,W,A,C*5A
#HEADINGA,COM3,9984,91.0,FINE,2308,289203.000,4098925,16,18;SOL_COMPUTED,NARROW_INT,1.9930,289.1017,0.0881,0.0000,0.1284,0.2686,"999",52,43,43,36,0,01,3,f3*cc59e9ef
$GPGSV,3,1,10,03,15,039,22,06,58,322,48,14,23,175,41,09,24,118,37,1*6F
$GPGSV,3,2,10,17,59,090,46,19,70,021,49,22,44,191,47,04,17,075,29,1*65
$GPGSV,3,3,10,11,33,276,44,20,22,220,33,1*64
$GPGSV,3,1,09,03,15,039,31,06,58,322,47,14,23,175,41,09,24,118,39,4*61
$GPGSV,3,2,09,17,59,090,45,19,70,021,46,22,44,191,42,04,17,075,38,4*61
$GPGSV,3,3,09,11,33,276,43,4*5C
$GPGSV,2,1,06,03,15,039,33,06,58,322,51,14,23,175,43,09,24,118,44,8*6E
$GPGSV,2,2,06,04,17,075,41,11,33,276,46,8*6F
$GLGSV,2,1,07,74,26,224,40,75,32,288,49,69,45,081,52,84,42,027,41,1*7D
$GLGSV,2,2,07,85,30,313,50,68,15,032,42,70,26,162,36,1*4B
$GLGSV,2,1,05,75,32,288,47,69,45,081,50,84,42,027,43,85,30,313,46,3*79
$GLGSV,2,2,05,68,15,032,34,3*43
$GBGSV,5,1,20,01,44,136,43,02,36,231,40,03,51,195,44,07,83,180,46,1*7C
$GBGSV,5,2,20,08,62,231,43,10,76,292,45,12,49,326,45,13,48,228,43,1*79
$GBGSV,5,3,20,22,53,103,49,24,23,241,43,38,75,241,48,40,74,109,48,1*7D
$GBGSV,5,4,20,59,45,144,46,60,34,236,43,04,33,119,40,19,21,045,43,1*7E
$GBGSV,5,5,20,44,63,006,48,25,14,295,39,21,31,174,44,34,25,302,45,1*7E
$GBGSV,5,1,20,01,44,136,43,02,36,231,41,03,51,195,46,07,83,180,48,8*78
$GBGSV,5,2,20,08,62,231,47,10,76,292,47,12,49,326,49,13,48,228,45,8*7C
$GBGSV,5,3,20,22,53,103,50,24,23,241,42,38,75,241,50,40,74,109,50,8*7D
$GBGSV,5,4,20,59,45,144,48,60,34,236,45,04,33,119,41,19,21,045,43,8*7E
$GBGSV,5,5,20,44,63,006,51,25,14,295,40,21,31,174,45,34,25,302,43,8*76
$GBGSV,3,1,09,01,44,136,45,02,36,231,46,03,51,195,48,07,83,180,49,B*01
$GBGSV,3,2,09,08,62,231,48,10,76,292,48,12,49,326,51,13,48,228,46,B*01
$GBGSV,3,3,09,04,33,119,43,B*36
$GAGSV,2,1,08,02,20,172,39,15,46,292,49,27,35,303,44,30,55,225,49,1*7A
$GAGSV,2,2,08,34,53,023,49,36,12,062,31,05,23,096,41,09,07,046,29,1*79
$GAGSV,2,1,08,02,20,172,41,15,46,292,50,27,35,303,47,30,55,225,51,2*74
$GAGSV,2,2,08,34,53,023,51,36,12,062,36,05,23,096,44,09,07,046,33,2*7A
$GAGSV,2,1,08,02,20,172,37,15,46,292,48,27,35,303,44,30,55,225,47,7*7D
$GAGSV,2,2,08,34,53,023,46,36,12,062,20,05,23,096,42,09,07,046,31,7*7A
$GNGGA,081946.00,3207.95329351,N,11841.73851893,E,1,28,0.7,8.5715,M,1.7756,M,,*43
$GNRMC,081946.00,A,3207.95329351,N,11841.73851893,E,0.011,171.6,030424,6.1,W,A,C*51
#HEADINGA,COM3,9984,91.0,FINE,2308,289204.000,4099924,16,18;SOL_COMPUTED,NARROW_INT,1.9930,288.8518,0.0878,0.0000,0.1282,0.2681,"999",52,43,43,36,0,01,3,f3*1a9e21fe
$GPGSV,3,1,10,03,15,039,23,06,58,322,47,14,23,175,41,09,24,118,36,1*60
$GPGSV,3,2,10,17,59,090,46,19,70,021,48,22,44,191,46,04,17,075,30,1*6D
$GPGSV,3,3,10,11,33,276,44,20,22,220,33,1*64
$GPGSV,3,1,09,03,15,039,31,06,58,322,47,14,23,175,40,09,24,118,39,4*60
$GPGSV,3,2,09,17,59,090,45,19,70,021,46,22,44,191,42,04,17,075,38,4*61
$GPGSV,3,3,09,11,33,276,43,4*5C
$GPGSV,2,1,06,03,15,039,33,06,58,322,51,14,23,175,43,09,24,118,44,8*6E
$GPGSV,2,2,06,04,17,075,42,11,33,276,46,8*6C
$GLGSV,2,1,07,74,26,224,40,75,32,288,49,69,45,081,52,84,42,027,41,1*7D
$GLGSV,2,2,07,85,30,313,50,68,15,032,41,70,26,162,36,1*48
$GLGSV,2,1,05,75,32,288,47,69,45,081,50,84,42,027,43,85,30,313,46,3*79
$GLGSV,2,2,05,68,15,032,35,3*42
$GBGSV,5,1,20,01,44,136,43,02,36,231,40,03,51,195,44,07,83,180,46,1*7C
$GBGSV,5,2,20,08,62,231,43,10,76,292,45,12,49,326,45,13,48,228,43,1*79
$GBGSV,5,3,20,22,53,103,49,24,23,241,43,38,75,241,48,40,74,109,48,1*7D
$GBGSV,5,4,20,59,45,144,46,60,34,236,43,04,33,119,40,19,21,045,43,1*7E
$GBGSV,5,5,20,44,63,006,48,25,14,295,39,21,31,174,44,34,25,302,45,1*7E
$GBGSV,5,1,20,01,44,136,43,02,36,231,41,03,51,195,46,07,83,180,48,8*78
$GBGSV,5,2,20,08,62,231,47,10,76,292,47,12,49,326,50,13,48,228,45,8*74
$GBGSV,5,3,20,22,53,103,50,24,23,241,42,38,75,241,50,40,74,109,50,8*7D
$GBGSV,5,4,20,59,45,144,48,60,34,236,45,04,33,119,41,19,21,045,43,8*7E
$GBGSV,5,5,20,44,63,006,51,25,14,295,40,21,31,174,45,34,25,302,43,8*76
$GBGSV,3,1,09,01,44,136,45,02,36,231,46,03,51,195,48,07,83,180,48,B*00
$GBGSV,3,2,09,08,62,231,48,10,76,292,48,12,49,326,51,13,48,228,46,B*01
$GBGSV,3,3,09,04,33,119,43,B*36
$GAGSV,2,1,08,02,20,172,40,15,46,292,49,27,35,303,44,30,55,225,49,1*74
$GAGSV,2,2,08,34,53,023,49,36,12,062,31,05,23,096,41,09,07,046,28,1*78
$GAGSV,2,1,08,02,20,172,41,15,46,292,50,27,35,303,47,30,55,225,51,2*74
$GAGSV,2,2,08,34,53,023,51,36,12,062,36,05,23,096,44,09,07,046,33,2*7A
$GAGSV,2,1,08,02,20,172,37,15,46,292,48,27,35,303,44,30,55,225,47,7*7D
$GAGSV,2,2,08,34,53,023,46,36,12,062,18,05,23,096,42,09,07,046,31,7*71
$GNGGA,081947.00,3207.95329306,N,11841.73852025,E,1,28,0.7,8.5670,M,1.7756,M,,*44
$GNRMC,081947.00,A,3207.95329306,N,11841.73852025,E,0.010,168.0,030424,6.1,W,A,C*5B
#HEADINGA,COM3,9984,91.0,FINE,2308,289205.000,4100924,16,18;SOL_COMPUTED,NARROW_INT,1.9930,288.6022,0.0875,0.0000,0.1282,0.2680,"999",52,43,43,36,0,01,3,f3*a8ae0e52
$GPGSV,3,1,10,03,15,039,23,06,58,322,47,14,23,175,41,09,24,118,36,1*60
$GPGSV,3,2,10,17,59,090,46,19,70,021,48,22,44,191,47,04,17,075,31,1*6D
$GPGSV,3,3,10,11,33,276,44,20,22,220,33,1*64
$GPGSV,3,1,09,03,15,039,32,06,58,322,47,14,23,175,40,09,24,118,39,4*63
$GPGSV,3,2,09,17,59,090,45,19,70,021,46,22,44,191,42,04,17,075,38,4*61
$GPGSV,3,3,09,11,33,276,43,4*5C
$GPGSV,2,1,06,03,15,039,33,06,58,322,51,14,23,175,44,09,24,118,44,8*69
$GPGSV,2,2,06,04,17,075,42,11,33,276,46,8*6C
$GLGSV,2,1,07,74,26,224,40,75,32,288,49,69,45,081,52,84,42,027,41,1*7D
$GLGSV,2,2,07,85,30,313,50,68,15,032,41,70,26,162,36,1*48
$GLGSV,2,1,05,75,32,288,47,69,45,081,50,84,42,027,43,85,30,313,46,3*79
$GLGSV,2,2,05,68,15,032,36,3*41
$GBGSV,5,1,20,01,44,136,44,02,36,231,40,03,51,195,44,07,83,180,46,1*7B
$GBGSV,5,2,20,08,62,231,43,10,76,292,45,12,49,326,46,13,48,228,43,1*7A
$GBGSV,5,3,20,22,53,103,49,24,23,241,43,38,75,241,49,40,74,109,48,1*7C
$GBGSV,5,4,20,59,45,144,46,60,34,236,43,04,33,119,40,19,21,045,44,1*79
$GBGSV,5,5,20,44,63,006,48,25,14,295,39,21,31,174,44,34,25,302,45,1*7E
$GBGSV,5,1,20,01,44,136,43,02,36,231,41,03,51,195,46,07,83,180,48,8*78
$GBGSV,5,2,20,08,62,231,47,10,76,292,47,12,49,326,50,13,48,228,45,8*74
$GBGSV,5,3,20,22,53,103,50,24,23,241,42,38,75,241,50,40,74,109,50,8*7D
$GBGSV,5,4,20,59,45,144,48,60,34,236,45,04,33,119,42,19,21,045,43,8*7D
$GBGSV,5,5,20,44,63,006,51,25,14,295,40,21,31,174,45,34,25,302,43,8*76
$GBGSV,3,1,09,01,44,136,45,02,36,231,46,03,51,195,47,07,83,180,49,B*0E
$GBGSV,3,2,09,08,62,231,48,10,76,292,48,12,49,326,51,13,48,228,46,B*01
$GBGSV,3,3,09,04,33,119,43,B*36
$GAGSV,2,1,08,02,20,172,40,15,46,292,49,27,35,303,44,30,55,225,49,1*74
$GAGSV,2,2,08,34,53,023,49,36,12,062,31,05,23,096,41,09,07,046,29,1*79
$GAGSV,2,1,08,02,20,172,41,15,46,292,50,27,35,303,47,30,55,225,51,2*74
$GAGSV,2,2,08,34,53,023,51,36,12,062,36,05,23,096,44,09,07,046,33,2*7A
$GAGSV,2,1,08,02,20,172,36,15,46,292,48,27,35,303,44,30,55,225,47,7*7C
$GAGSV,2,2,08,34,53,023,46,36,12,062,21,05,23,096,42,09,07,046,32,7*78
$GNGGA,081948.00,3207.95329270,N,11841.73852140,E,1,28,0.7,8.5623,M,1.7756,M,,*4F
$GNRMC,081948.00,A,3207.95329270,N,11841.73852140,E,0.009,172.7,030424,6.1,W,A,C*52
#HEADINGA,COM3,9984,91.0,FINE,2308,289206.000,4101924,17,18;SOL_COMPUTED,NARROW_INT,1.9930,288.3528,0.0873,0.0000,0.1283,0.2675,"999",52,43,43,36,0,01,3,f3*5ec5a2f3
$GPGSV,3,1,10,03,15,039,24,06,58,322,47,14,23,175,41,09,24,118,35,1*64
$GPGSV,3,2,10,17,59,090,46,19,70,021,48,22,44,191,47,04,17,075,31,1*6D
$GPGSV,3,3,10,11,33,276,44,20,22,220,33,1*64
$GPGSV,3,1,09,03,15,039,31,06,58,322,47,14,23,175,40,09,24,118,39,4*60
$GPGSV,3,2,09,17,59,090,45,19,70,021,46,22,44,191,42,04,17,075,38,4*61
$GPGSV,3,3,09,11,33,276,43,4*5C
$GPGSV,2,1,06,03,15,039,33,06,58,322,51,14,23,175,44,09,24,118,44,8*69
$GPGSV,2,2,06,04,17,075,42,11,33,276,46,8*6C
$GLGSV,2,1,07,74,26,224,40,75,32,288,49,69,45,081,52,84,42,027,42,1*7E
$GLGSV,2,2,07,85,30,313,50,68,15,032,41,70,26,162,36,1*48
$GLGSV,2,1,05,75,32,288,47,69,45,081,50,84,42,027,43,85,30,313,46,3*79
$GLGSV,2,2,05,68,15,032,35,3*42
$GBGSV,6,1,21,01,44,136,44,02,36,231,40,03,51,195,44,07,83,180,46,1*79
$GBGSV,6,2,21,08,62,231,43,10,76,292,45,12,49,326,46,13,48,228,43,1*78
